{"industryCode": "CS100007", "industryName": "치킨전문점", "dataAsOf": "2026-Q1", "survivalGranularity": "seoul_industry", "cells": [{"sangwonCode": 3130074, "sangwonName": "영동교골목시장", "gu": "광진구", "lat": 37.53816614249563, "lon": 127.06384898175953, "survivalProbability": 0.6326, "monthlyEstimateKRW": 161156505, "salesPercentile": 50.3}, {"sangwonCode": 3110633, "sangwonName": "개화산역 1번", "gu": "강서구", "lat": 37.57277331235714, "lon": 126.81020968720401, "survivalProbability": 0.6326, "monthlyEstimateKRW": 148086776, "salesPercentile": 42.0}, {"sangwonCode": 3110564, "sangwonName": "홍대입구역 3번", "gu": "마포구", "lat": 37.55992809983832, "lon": 126.92561802009868, "survivalProbability": 0.6326, "monthlyEstimateKRW": 132225309, "salesPercentile": 7.4}, {"sangwonCode": 3110308, "sangwonName": "길음역 8번", "gu": "성북구", "lat": 37.607269174073934, "lon": 127.02441709427482, "survivalProbability": 0.6326, "monthlyEstimateKRW": 135140113, "salesPercentile": 28.1}, {"sangwonCode": 3110426, "sangwonName": "상계2동주민센터", "gu": "노원구", "lat": 37.65639990821615, "lon": 127.06967307359568, "survivalProbability": 0.6326, "monthlyEstimateKRW": 132344562, "salesPercentile": 9.7}, {"sangwonCode": 3110407, "sangwonName": "도봉역 2번", "gu": "도봉구", "lat": 37.675496140869164, "lon": 127.04096665862696, "survivalProbability": 0.6326, "monthlyEstimateKRW": 132316015, "salesPercentile": 8.3}, {"sangwonCode": 3120096, "sangwonName": "이화여대(이대역, 이대)", "gu": "서대문구", "lat": 37.558423971816815, "lon": 126.94274332269038, "survivalProbability": 0.6326, "monthlyEstimateKRW": 165499270, "salesPercentile": 57.7}, {"sangwonCode": 3110527, "sangwonName": "홍제역 2번", "gu": "서대문구", "lat": 37.589059800906874, "lon": 126.94704502804785, "survivalProbability": 0.6326, "monthlyEstimateKRW": 131836436, "salesPercentile": 2.1}, {"sangwonCode": 3120091, "sangwonName": "본서부병원", "gu": "은평구", "lat": 37.600560629824955, "lon": 126.92207842001997, "survivalProbability": 0.6326, "monthlyEstimateKRW": 161407088, "salesPercentile": 51.3}, {"sangwonCode": 3120233, "sangwonName": "몽촌토성역", "gu": "송파구", "lat": 37.51596426713219, "lon": 127.11345302908573, "survivalProbability": 0.6326, "monthlyEstimateKRW": 165865967, "salesPercentile": 59.3}, {"sangwonCode": 3120017, "sangwonName": "동묘앞역(동묘)", "gu": "종로구", "lat": 37.572744764086856, "lon": 127.01464801900576, "survivalProbability": 0.6326, "monthlyEstimateKRW": 164503949, "salesPercentile": 55.2}, {"sangwonCode": 3110660, "sangwonName": "등촌3동주민센터", "gu": "강서구", "lat": 37.55832107704375, "lon": 126.84728936932454, "survivalProbability": 0.6326, "monthlyEstimateKRW": 242845401, "salesPercentile": 74.6}, {"sangwonCode": 3110166, "sangwonName": "구의1동주민센터", "gu": "광진구", "lat": 37.54099058656442, "lon": 127.08551989838477, "survivalProbability": 0.6326, "monthlyEstimateKRW": 135906686, "salesPercentile": 33.2}, {"sangwonCode": 3111066, "sangwonName": "암사동성당(효정하나플러스아파트)", "gu": "강동구", "lat": 37.54923425244234, "lon": 127.1344048084421, "survivalProbability": 0.6326, "monthlyEstimateKRW": 132577161, "salesPercentile": 14.1}, {"sangwonCode": 3130159, "sangwonName": "공릉동 도깨비시장", "gu": "노원구", "lat": 37.62232979846501, "lon": 127.07596198989835, "survivalProbability": 0.6326, "monthlyEstimateKRW": 155282752, "salesPercentile": 44.2}, {"sangwonCode": 3130213, "sangwonName": "방신전통시장", "gu": "강서구", "lat": 37.571632474906465, "lon": 126.81235201849918, "survivalProbability": 0.6326, "monthlyEstimateKRW": 160569849, "salesPercentile": 49.5}, {"sangwonCode": 3130223, "sangwonName": "고척근린시장", "gu": "구로구", "lat": 37.50212891474886, "lon": 126.84982407297842, "survivalProbability": 0.6326, "monthlyEstimateKRW": 159464722, "salesPercentile": 48.8}, {"sangwonCode": 3130235, "sangwonName": "대명여울빛거리시장(대명시장)", "gu": "금천구", "lat": 37.45356538993804, "lon": 126.90214758052595, "survivalProbability": 0.6326, "monthlyEstimateKRW": 161461765, "salesPercentile": 51.7}, {"sangwonCode": 3130260, "sangwonName": "신대방1동골목상권", "gu": "동작구", "lat": 37.4902598990672, "lon": 126.90887291955043, "survivalProbability": 0.6326, "monthlyEstimateKRW": 159386493, "salesPercentile": 48.6}, {"sangwonCode": 3110827, "sangwonName": "NH농협은행 상도동지점", "gu": "동작구", "lat": 37.5012784070823, "lon": 126.93491581693598, "survivalProbability": 0.6326, "monthlyEstimateKRW": 132154033, "salesPercentile": 5.9}, {"sangwonCode": 3110849, "sangwonName": "이수역 10번", "gu": "동작구", "lat": 37.48589591263276, "lon": 126.97713757819878, "survivalProbability": 0.6326, "monthlyEstimateKRW": 132577161, "salesPercentile": 14.1}, {"sangwonCode": 3110900, "sangwonName": "낙성대역 1번(관악구민 종합체육센터)", "gu": "관악구", "lat": 37.474332513851415, "lon": 126.96341671782614, "survivalProbability": 0.6326, "monthlyEstimateKRW": 132387290, "salesPercentile": 11.1}, {"sangwonCode": 3110790, "sangwonName": "대림1동주민센터", "gu": "영등포구", "lat": 37.497619252474074, "lon": 126.90647786314138, "survivalProbability": 0.6326, "monthlyEstimateKRW": 135026264, "salesPercentile": 24.0}, {"sangwonCode": 3110745, "sangwonName": "독산동정훈단지", "gu": "금천구", "lat": 37.46594683806725, "lon": 126.90403048852814, "survivalProbability": 0.6326, "monthlyEstimateKRW": 132154033, "salesPercentile": 5.9}, {"sangwonCode": 3110738, "sangwonName": "문성초등학교", "gu": "금천구", "lat": 37.472305721353386, "lon": 126.90129790602968, "survivalProbability": 0.6326, "monthlyEstimateKRW": 131891516, "salesPercentile": 2.9}, {"sangwonCode": 3111038, "sangwonName": "보인중학교", "gu": "송파구", "lat": 37.49972782218089, "lon": 127.13906576695737, "survivalProbability": 0.6326, "monthlyEstimateKRW": 132154033, "salesPercentile": 5.9}, {"sangwonCode": 3120226, "sangwonName": "석촌고분역", "gu": "송파구", "lat": 37.5033197760243, "lon": 127.09704648858848, "survivalProbability": 0.6326, "monthlyEstimateKRW": 164930067, "salesPercentile": 56.2}, {"sangwonCode": 3110694, "sangwonName": "세곡초등학교", "gu": "구로구", "lat": 37.50475669640574, "lon": 126.84736461127714, "survivalProbability": 0.6326, "monthlyEstimateKRW": 135140113, "salesPercentile": 28.1}, {"sangwonCode": 3110686, "sangwonName": "수궁동주민센터", "gu": "구로구", "lat": 37.494638620747644, "lon": 126.83415467880374, "survivalProbability": 0.6326, "monthlyEstimateKRW": 132891659, "salesPercentile": 16.4}, {"sangwonCode": 3120021, "sangwonName": "시청역_8번", "gu": "중구", "lat": 37.561759723268, "lon": 126.97423957068088, "survivalProbability": 0.6326, "monthlyEstimateKRW": 164930067, "salesPercentile": 56.2}, {"sangwonCode": 3110399, "sangwonName": "창2동주민센터", "gu": "도봉구", "lat": 37.64157479754697, "lon": 127.03913516200645, "survivalProbability": 0.6326, "monthlyEstimateKRW": 135140113, "salesPercentile": 28.1}, {"sangwonCode": 3120144, "sangwonName": "영중로", "gu": "영등포구", "lat": 37.527089960245775, "lon": 126.9050608920636, "survivalProbability": 0.6326, "monthlyEstimateKRW": 166915261, "salesPercentile": 61.0}, {"sangwonCode": 3110432, "sangwonName": "대진고등학교", "gu": "노원구", "lat": 37.6361436126196, "lon": 127.07327961483666, "survivalProbability": 0.6326, "monthlyEstimateKRW": 135135695, "salesPercentile": 26.2}, {"sangwonCode": 3110465, "sangwonName": "연신내역 7번", "gu": "은평구", "lat": 37.62142443927846, "lon": 126.9175257181981, "survivalProbability": 0.6326, "monthlyEstimateKRW": 132489426, "salesPercentile": 12.5}, {"sangwonCode": 3110861, "sangwonName": "관악구신사동주민센터", "gu": "관악구", "lat": 37.483905325185546, "lon": 126.91779018557327, "survivalProbability": 0.6326, "monthlyEstimateKRW": 136481609, "salesPercentile": 37.6}, {"sangwonCode": 3110876, "sangwonName": "서원동주민센터(신관중학교)", "gu": "관악구", "lat": 37.479382566439355, "lon": 126.9324927479113, "survivalProbability": 0.6326, "monthlyEstimateKRW": 135026264, "salesPercentile": 24.0}, {"sangwonCode": 3110891, "sangwonName": "구암초등학교", "gu": "관악구", "lat": 37.488373527251575, "lon": 126.94814514042771, "survivalProbability": 0.6326, "monthlyEstimateKRW": 134142675, "salesPercentile": 21.4}, {"sangwonCode": 3110160, "sangwonName": "광진경찰서", "gu": "광진구", "lat": 37.543758173937306, "lon": 127.08339573336079, "survivalProbability": 0.6326, "monthlyEstimateKRW": 131891516, "salesPercentile": 2.9}, {"sangwonCode": 3111015, "sangwonName": "석촌역 3번", "gu": "송파구", "lat": 37.50603667404324, "lon": 127.11191117169507, "survivalProbability": 0.6326, "monthlyEstimateKRW": 131497540, "salesPercentile": 1.3}, {"sangwonCode": 3120016, "sangwonName": "동대문역", "gu": "종로구", "lat": 37.571231452916095, "lon": 127.01137632245057, "survivalProbability": 0.6326, "monthlyEstimateKRW": 165499270, "salesPercentile": 57.7}, {"sangwonCode": 3110376, "sangwonName": "수송초등학교", "gu": "강북구", "lat": 37.63939671921139, "lon": 127.03142958043486, "survivalProbability": 0.6326, "monthlyEstimateKRW": 132577161, "salesPercentile": 14.1}, {"sangwonCode": 3110373, "sangwonName": "수유역 2번", "gu": "강북구", "lat": 37.63691069400108, "lon": 127.02870941001596, "survivalProbability": 0.6326, "monthlyEstimateKRW": 135526455, "salesPercentile": 31.7}, {"sangwonCode": 3110252, "sangwonName": "장안제일시장", "gu": "중랑구", "lat": 37.58527730400473, "lon": 127.0816305342528, "survivalProbability": 0.6326, "monthlyEstimateKRW": 132193997, "salesPercentile": 6.9}, {"sangwonCode": 3110291, "sangwonName": "한성대입구역 3번", "gu": "성북구", "lat": 37.58566550742506, "lon": 127.00995195817097, "survivalProbability": 0.6326, "monthlyEstimateKRW": 135140113, "salesPercentile": 28.1}, {"sangwonCode": 3110701, "sangwonName": "고척동성당", "gu": "구로구", "lat": 37.505447814423974, "lon": 126.85975871674793, "survivalProbability": 0.6326, "monthlyEstimateKRW": 131891516, "salesPercentile": 2.9}, {"sangwonCode": 3111073, "sangwonName": "둔촌동역 1번(한산중학교)", "gu": "강동구", "lat": 37.53115405950385, "lon": 127.13970109005331, "survivalProbability": 0.6326, "monthlyEstimateKRW": 133562866, "salesPercentile": 20.4}, {"sangwonCode": 3120215, "sangwonName": "포스코사거리", "gu": "강남구", "lat": 37.50682411890163, "lon": 127.05626720528876, "survivalProbability": 0.6326, "monthlyEstimateKRW": 335979370, "salesPercentile": 84.0}, {"sangwonCode": 3120213, "sangwonName": "삼성중앙역", "gu": "강남구", "lat": 37.51155556604917, "lon": 127.05374846991917, "survivalProbability": 0.6326, "monthlyEstimateKRW": 421175292, "salesPercentile": 91.9}, {"sangwonCode": 3110294, "sangwonName": "서경대학교", "gu": "성북구", "lat": 37.61092006857486, "lon": 127.01227709840207, "survivalProbability": 0.6326, "monthlyEstimateKRW": 135140113, "salesPercentile": 28.1}, {"sangwonCode": 3110703, "sangwonName": "개봉역", "gu": "구로구", "lat": 37.495184430322844, "lon": 126.85897502647666, "survivalProbability": 0.6326, "monthlyEstimateKRW": 132317137, "salesPercentile": 8.7}, {"sangwonCode": 3120212, "sangwonName": "한티역", "gu": "강남구", "lat": 37.49742786864853, "lon": 127.05360263990124, "survivalProbability": 0.6326, "monthlyEstimateKRW": 435218601, "salesPercentile": 93.0}, {"sangwonCode": 3120217, "sangwonName": "대치사거리", "gu": "강남구", "lat": 37.503038855171134, "lon": 127.05841315411669, "survivalProbability": 0.6326, "monthlyEstimateKRW": 335258842, "salesPercentile": 83.8}, {"sangwonCode": 3111077, "sangwonName": "길동주민센터(강동도서관)", "gu": "강동구", "lat": 37.537195500867774, "lon": 127.14326513418865, "survivalProbability": 0.6326, "monthlyEstimateKRW": 132338452, "salesPercentile": 8.8}, {"sangwonCode": 3111069, "sangwonName": "천호1동주민센터", "gu": "강동구", "lat": 37.544474825181176, "lon": 127.13628598009838, "survivalProbability": 0.6326, "monthlyEstimateKRW": 135140113, "salesPercentile": 28.1}, {"sangwonCode": 3110706, "sangwonName": "그라운드 고척", "gu": "구로구", "lat": 37.501246978346835, "lon": 126.86565863686842, "survivalProbability": 0.6326, "monthlyEstimateKRW": 257855212, "salesPercentile": 75.3}, {"sangwonCode": 3120210, "sangwonName": "선릉역", "gu": "강남구", "lat": 37.50461073634166, "lon": 127.04935534409961, "survivalProbability": 0.6326, "monthlyEstimateKRW": 476658818, "salesPercentile": 95.2}, {"sangwonCode": 3120219, "sangwonName": "은마아파트", "gu": "강남구", "lat": 37.49884807441995, "lon": 127.06060379417535, "survivalProbability": 0.6326, "monthlyEstimateKRW": 447877419, "salesPercentile": 94.7}, {"sangwonCode": 3110707, "sangwonName": "구로창업지원센터", "gu": "구로구", "lat": 37.50981240722824, "lon": 126.87946463909495, "survivalProbability": 0.6326, "monthlyEstimateKRW": 136293028, "salesPercentile": 35.7}, {"sangwonCode": 3110299, "sangwonName": "정릉역 1번", "gu": "성북구", "lat": 37.60190042877038, "lon": 127.01798309800381, "survivalProbability": 0.6326, "monthlyEstimateKRW": 176428744, "salesPercentile": 65.8}, {"sangwonCode": 3110274, "sangwonName": "서일대학교", "gu": "중랑구", "lat": 37.58956195338933, "lon": 127.09875482708568, "survivalProbability": 0.6326, "monthlyEstimateKRW": 132459924, "salesPercentile": 12.2}, {"sangwonCode": 3120220, "sangwonName": "대치역", "gu": "강남구", "lat": 37.494188996315316, "lon": 127.06228493383824, "survivalProbability": 0.6326, "monthlyEstimateKRW": 165626652, "salesPercentile": 58.6}, {"sangwonCode": 3110695, "sangwonName": "개봉1동주민센터", "gu": "구로구", "lat": 37.50051860479138, "lon": 126.8517950693802, "survivalProbability": 0.6326, "monthlyEstimateKRW": 122994394, "salesPercentile": 0.7}, {"sangwonCode": 3111078, "sangwonName": "굽은다리역 4번", "gu": "강동구", "lat": 37.54284297310578, "lon": 127.14473562941309, "survivalProbability": 0.6326, "monthlyEstimateKRW": 241475413, "salesPercentile": 74.0}, {"sangwonCode": 3120221, "sangwonName": "봉은사역", "gu": "강남구", "lat": 37.51446155948791, "lon": 127.06239226670147, "survivalProbability": 0.6326, "monthlyEstimateKRW": 406731586, "salesPercentile": 89.1}, {"sangwonCode": 3120208, "sangwonName": "청담사거리(청담동명품거리)", "gu": "강남구", "lat": 37.524829939190084, "lon": 127.04770569306329, "survivalProbability": 0.6326, "monthlyEstimateKRW": 161572821, "salesPercentile": 52.4}, {"sangwonCode": 3111064, "sangwonName": "둔촌동역 4번", "gu": "강동구", "lat": 37.52761260530839, "lon": 127.13232964353003, "survivalProbability": 0.6326, "monthlyEstimateKRW": 181521723, "salesPercentile": 69.4}, {"sangwonCode": 3110272, "sangwonName": "신내1동주민센터", "gu": "중랑구", "lat": 37.60615847906632, "lon": 127.09842568909319, "survivalProbability": 0.6326, "monthlyEstimateKRW": 180776032, "salesPercentile": 67.9}, {"sangwonCode": 3120222, "sangwonName": "삼성역", "gu": "강남구", "lat": 37.508667696206736, "lon": 127.06315654228577, "survivalProbability": 0.6326, "monthlyEstimateKRW": 301429173, "salesPercentile": 79.9}, {"sangwonCode": 3111080, "sangwonName": "굽은다리역 3번", "gu": "강동구", "lat": 37.54799505551849, "lon": 127.14605826969836, "survivalProbability": 0.6326, "monthlyEstimateKRW": 132154033, "salesPercentile": 5.9}, {"sangwonCode": 3110710, "sangwonName": "남구로역 3번", "gu": "구로구", "lat": 37.486886294270526, "lon": 126.88394512624056, "survivalProbability": 0.6326, "monthlyEstimateKRW": 132577161, "salesPercentile": 14.1}, {"sangwonCode": 3120207, "sangwonName": "선정릉역", "gu": "강남구", "lat": 37.511468934172726, "lon": 127.04549160322158, "survivalProbability": 0.6326, "monthlyEstimateKRW": 172028590, "salesPercentile": 64.4}, {"sangwonCode": 3111083, "sangwonName": "GS강동자이아파트", "gu": "강동구", "lat": 37.538289959838245, "lon": 127.14713686672866, "survivalProbability": 0.6326, "monthlyEstimateKRW": 180776032, "salesPercentile": 67.9}, {"sangwonCode": 3110269, "sangwonName": "용마문화복지센터", "gu": "중랑구", "lat": 37.5882316079015, "lon": 127.09494877873335, "survivalProbability": 0.6326, "monthlyEstimateKRW": 132032016, "salesPercentile": 4.1}, {"sangwonCode": 3110306, "sangwonName": "미아초등학교", "gu": "성북구", "lat": 37.6085309312644, "lon": 127.02254882002873, "survivalProbability": 0.6326, "monthlyEstimateKRW": 149753323, "salesPercentile": 42.4}, {"sangwonCode": 3120224, "sangwonName": "수서역", "gu": "강남구", "lat": 37.487781357677065, "lon": 127.10303046246761, "survivalProbability": 0.6326, "monthlyEstimateKRW": 162355012, "salesPercentile": 53.8}, {"sangwonCode": 3120206, "sangwonName": "개나리아파트", "gu": "강남구", "lat": 37.49725157451181, "lon": 127.04415987749276, "survivalProbability": 0.6326, "monthlyEstimateKRW": 161641103, "salesPercentile": 53.4}, {"sangwonCode": 3110267, "sangwonName": "망우역 2번", "gu": "중랑구", "lat": 37.60077772897528, "lon": 127.08941586511447, "survivalProbability": 0.6326, "monthlyEstimateKRW": 135906686, "salesPercentile": 33.2}, {"sangwonCode": 3111085, "sangwonName": "묘곡초등학교(고덕아이파크아파트)", "gu": "강동구", "lat": 37.56094142583823, "lon": 127.1539043851388, "survivalProbability": 0.6326, "monthlyEstimateKRW": 182576816, "salesPercentile": 70.3}, {"sangwonCode": 3120205, "sangwonName": "매봉역", "gu": "강남구", "lat": 37.48435825746537, "lon": 127.04389223582503, "survivalProbability": 0.6326, "monthlyEstimateKRW": 164957382, "salesPercentile": 56.9}, {"sangwonCode": 3110266, "sangwonName": "면목동우체국", "gu": "중랑구", "lat": 37.5831706467708, "lon": 127.09163646470414, "survivalProbability": 0.6326, "monthlyEstimateKRW": 135140113, "salesPercentile": 28.1}, {"sangwonCode": 3120225, "sangwonName": "잠실새내역(신천)", "gu": "송파구", "lat": 37.51048475437836, "lon": 127.0825782728224, "survivalProbability": 0.6326, "monthlyEstimateKRW": 644453068, "salesPercentile": 98.0}, {"sangwonCode": 3111060, "sangwonName": "암사역 2번(서울강동초등학교)", "gu": "강동구", "lat": 37.54699551295604, "lon": 127.13016858602187, "survivalProbability": 0.6326, "monthlyEstimateKRW": 136481609, "salesPercentile": 37.6}, {"sangwonCode": 3120204, "sangwonName": "르네상스호텔사거리", "gu": "강남구", "lat": 37.50309058777553, "lon": 127.04281749442562, "survivalProbability": 0.6326, "monthlyEstimateKRW": 161572821, "salesPercentile": 52.4}, {"sangwonCode": 3111086, "sangwonName": "한영중고", "gu": "강동구", "lat": 37.5479481533716, "lon": 127.15459058686204, "survivalProbability": 0.6326, "monthlyEstimateKRW": 137323761, "salesPercentile": 40.0}, {"sangwonCode": 3110313, "sangwonName": "안암역 3번", "gu": "성북구", "lat": 37.58398634417268, "lon": 127.02969670042593, "survivalProbability": 0.6326, "monthlyEstimateKRW": 132891659, "salesPercentile": 16.4}, {"sangwonCode": 3110712, "sangwonName": "남구로역 5번", "gu": "구로구", "lat": 37.487447465830186, "lon": 126.88656749689855, "survivalProbability": 0.6326, "monthlyEstimateKRW": 132344562, "salesPercentile": 9.7}, {"sangwonCode": 3110690, "sangwonName": "오류2동버들시장", "gu": "구로구", "lat": 37.49227211395636, "lon": 126.84304783057685, "survivalProbability": 0.6326, "monthlyEstimateKRW": 140780981, "salesPercentile": 40.9}, {"sangwonCode": 3110264, "sangwonName": "면목역 2번", "gu": "중랑구", "lat": 37.58726118530816, "lon": 127.09159619054651, "survivalProbability": 0.6326, "monthlyEstimateKRW": 135526455, "salesPercentile": 31.7}, {"sangwonCode": 3120203, "sangwonName": "강남구청역", "gu": "강남구", "lat": 37.51624600772093, "lon": 127.04068715258765, "survivalProbability": 0.6326, "monthlyEstimateKRW": 435434834, "salesPercentile": 93.2}, {"sangwonCode": 3111087, "sangwonName": "고덕중학교(고덕2동주민센터)", "gu": "강동구", "lat": 37.56143419088499, "lon": 127.16269966363117, "survivalProbability": 0.6326, "monthlyEstimateKRW": 183650023, "salesPercentile": 70.9}, {"sangwonCode": 3120227, "sangwonName": "잠실역", "gu": "송파구", "lat": 37.51398412500385, "lon": 127.10126801274058, "survivalProbability": 0.6326, "monthlyEstimateKRW": 408076942, "salesPercentile": 89.5}, {"sangwonCode": 3111088, "sangwonName": "고덕동성당", "gu": "강동구", "lat": 37.559955368246186, "lon": 127.16993997135829, "survivalProbability": 0.6326, "monthlyEstimateKRW": 138035941, "salesPercentile": 40.7}, {"sangwonCode": 3111059, "sangwonName": "강동역 4번(강풀만화거리)", "gu": "강동구", "lat": 37.533876788109865, "lon": 127.13032680682069, "survivalProbability": 0.6326, "monthlyEstimateKRW": 243048825, "salesPercentile": 74.8}, {"sangwonCode": 3110314, "sangwonName": "종암경찰서", "gu": "성북구", "lat": 37.60114052292245, "lon": 127.03238736566581, "survivalProbability": 0.6326, "monthlyEstimateKRW": 184602211, "salesPercentile": 71.5}, {"sangwonCode": 3120202, "sangwonName": "압구정로데오역(압구정로데오)", "gu": "강남구", "lat": 37.526769907891094, "lon": 127.04013853060529, "survivalProbability": 0.6326, "monthlyEstimateKRW": 166979414, "salesPercentile": 61.1}, {"sangwonCode": 3110262, "sangwonName": "상봉역 3번", "gu": "중랑구", "lat": 37.5943810926847, "lon": 127.08888734246219, "survivalProbability": 0.6326, "monthlyEstimateKRW": 135906686, "salesPercentile": 33.2}, {"sangwonCode": 3110315, "sangwonName": "종암아이파크2차", "gu": "성북구", "lat": 37.59732899315395, "lon": 127.03359734683603, "survivalProbability": 0.6326, "monthlyEstimateKRW": 133081530, "salesPercentile": 17.8}, {"sangwonCode": 3110713, "sangwonName": "구로보건소", "gu": "구로구", "lat": 37.50126053635339, "lon": 126.88723646192494, "survivalProbability": 0.6326, "monthlyEstimateKRW": 99650526, "salesPercentile": 0.2}, {"sangwonCode": 3111089, "sangwonName": "상일여고(상일초등학교)", "gu": "강동구", "lat": 37.54811423179494, "lon": 127.17135024456684, "survivalProbability": 0.6326, "monthlyEstimateKRW": 183517075, "salesPercentile": 70.7}, {"sangwonCode": 3120229, "sangwonName": "방이동먹자골목", "gu": "송파구", "lat": 37.51438248056646, "lon": 127.10923158441152, "survivalProbability": 0.6326, "monthlyEstimateKRW": 409877302, "salesPercentile": 90.4}, {"sangwonCode": 3111057, "sangwonName": "천호공원(해공체육문화센터)", "gu": "강동구", "lat": 37.54332876710307, "lon": 127.12987932321663, "survivalProbability": 0.6326, "monthlyEstimateKRW": 135026264, "salesPercentile": 24.0}, {"sangwonCode": 3110316, "sangwonName": "숭곡초등학교", "gu": "성북구", "lat": 37.60814966101142, "lon": 127.03438366024915, "survivalProbability": 0.6326, "monthlyEstimateKRW": 239024896, "salesPercentile": 72.9}, {"sangwonCode": 3110259, "sangwonName": "사가정역 1번", "gu": "중랑구", "lat": 37.582264812341826, "lon": 127.08609919438236, "survivalProbability": 0.6326, "monthlyEstimateKRW": 136293028, "salesPercentile": 35.7}, {"sangwonCode": 3111090, "sangwonName": "강일동주민센터", "gu": "강동구", "lat": 37.565085473474284, "lon": 127.17376605352426, "survivalProbability": 0.6326, "monthlyEstimateKRW": 295539094, "salesPercentile": 77.9}, {"sangwonCode": 3110319, "sangwonName": "종암동주민센터", "gu": "성북구", "lat": 37.59923839992779, "lon": 127.03595359013545, "survivalProbability": 0.6326, "monthlyEstimateKRW": 176428744, "salesPercentile": 65.8}, {"sangwonCode": 3110714, "sangwonName": "구로4동주민센터", "gu": "구로구", "lat": 37.49132429193936, "lon": 126.88919631652536, "survivalProbability": 0.6326, "monthlyEstimateKRW": 133942670, "salesPercentile": 21.2}, {"sangwonCode": 3110256, "sangwonName": "면목2동체육관", "gu": "중랑구", "lat": 37.589871676851374, "lon": 127.0826206130532, "survivalProbability": 0.6326, "monthlyEstimateKRW": 133190551, "salesPercentile": 18.8}, {"sangwonCode": 3120198, "sangwonName": "구역삼세무서", "gu": "강남구", "lat": 37.49553304713569, "lon": 127.03720426859347, "survivalProbability": 0.6326, "monthlyEstimateKRW": 462951693, "salesPercentile": 94.8}, {"sangwonCode": 3120001, "sangwonName": "서대문역", "gu": "종로구", "lat": 37.566677102939934, "lon": 126.96608817274021, "survivalProbability": 0.6326, "monthlyEstimateKRW": 379545311, "salesPercentile": 86.0}, {"sangwonCode": 3110255, "sangwonName": "상봉역 4번", "gu": "중랑구", "lat": 37.593691768235416, "lon": 127.0827833599205, "survivalProbability": 0.6326, "monthlyEstimateKRW": 176428744, "salesPercentile": 65.8}, {"sangwonCode": 3120197, "sangwonName": "역삼역", "gu": "강남구", "lat": 37.500398869563554, "lon": 127.03595138126002, "survivalProbability": 0.6326, "monthlyEstimateKRW": 1212559412, "salesPercentile": 99.6}, {"sangwonCode": 3120234, "sangwonName": "가락시장역", "gu": "송파구", "lat": 37.494695372813744, "lon": 127.11872437303792, "survivalProbability": 0.6326, "monthlyEstimateKRW": 316731835, "salesPercentile": 83.2}, {"sangwonCode": 3110254, "sangwonName": "오거리공원", "gu": "중랑구", "lat": 37.57668988738031, "lon": 127.08299094516109, "survivalProbability": 0.6326, "monthlyEstimateKRW": 132344562, "salesPercentile": 9.7}, {"sangwonCode": 3110675, "sangwonName": "화곡4동주민센터", "gu": "강서구", "lat": 37.53623598406385, "lon": 126.86053834758106, "survivalProbability": 0.6326, "monthlyEstimateKRW": 132344562, "salesPercentile": 9.7}, {"sangwonCode": 3120235, "sangwonName": "문정역", "gu": "송파구", "lat": 37.48551288001509, "lon": 127.11994227871679, "survivalProbability": 0.6326, "monthlyEstimateKRW": 400585637, "salesPercentile": 88.6}, {"sangwonCode": 3120196, "sangwonName": "서울세관", "gu": "강남구", "lat": 37.515328702568155, "lon": 127.03534773317885, "survivalProbability": 0.6326, "monthlyEstimateKRW": 161615796, "salesPercentile": 53.0}, {"sangwonCode": 3110673, "sangwonName": "뜸부기어린이공원", "gu": "강서구", "lat": 37.53041452973515, "lon": 126.85970067142665, "survivalProbability": 0.6326, "monthlyEstimateKRW": 135026264, "salesPercentile": 24.0}, {"sangwonCode": 3120003, "sangwonName": "광화문역", "gu": "종로구", "lat": 37.57196808426292, "lon": 126.97459828971189, "survivalProbability": 0.6326, "monthlyEstimateKRW": 409156549, "salesPercentile": 90.2}, {"sangwonCode": 3110717, "sangwonName": "남구로역 2번", "gu": "구로구", "lat": 37.48428725232738, "lon": 126.88901449779476, "survivalProbability": 0.6326, "monthlyEstimateKRW": 120000713, "salesPercentile": 0.6}, {"sangwonCode": 3110333, "sangwonName": "돌곶이역 5번", "gu": "성북구", "lat": 37.60947324115329, "lon": 127.0592890795929, "survivalProbability": 0.6326, "monthlyEstimateKRW": 135026264, "salesPercentile": 24.0}, {"sangwonCode": 3111046, "sangwonName": "마천역(마천초등학교)", "gu": "송파구", "lat": 37.495999240540726, "lon": 127.15239139655954, "survivalProbability": 0.6326, "monthlyEstimateKRW": 147665708, "salesPercentile": 41.6}, {"sangwonCode": 3120237, "sangwonName": "경찰병원역", "gu": "송파구", "lat": 37.49717102650773, "lon": 127.12080906154488, "survivalProbability": 0.6326, "monthlyEstimateKRW": 419488201, "salesPercentile": 91.7}, {"sangwonCode": 3110671, "sangwonName": "등촌1동주민센터", "gu": "강서구", "lat": 37.55565994906193, "lon": 126.8592232956464, "survivalProbability": 0.6326, "monthlyEstimateKRW": 132577161, "salesPercentile": 14.1}, {"sangwonCode": 3110335, "sangwonName": "석계역 7번", "gu": "성북구", "lat": 37.612849524067954, "lon": 127.06393543121227, "survivalProbability": 0.6326, "monthlyEstimateKRW": 133562866, "salesPercentile": 20.4}, {"sangwonCode": 3110718, "sangwonName": "한국SGI본부", "gu": "구로구", "lat": 37.503462343662285, "lon": 126.89080694582884, "survivalProbability": 0.6326, "monthlyEstimateKRW": 180791955, "salesPercentile": 68.3}, {"sangwonCode": 3120192, "sangwonName": "뱅뱅사거리", "gu": "강남구", "lat": 37.4902548060724, "lon": 127.03149136697971, "survivalProbability": 0.6326, "monthlyEstimateKRW": 467286164, "salesPercentile": 95.0}, {"sangwonCode": 3120239, "sangwonName": "오금역", "gu": "송파구", "lat": 37.50177860016498, "lon": 127.12614312912417, "survivalProbability": 0.6326, "monthlyEstimateKRW": 170539890, "salesPercentile": 63.3}, {"sangwonCode": 3111044, "sangwonName": "남천초등학교", "gu": "송파구", "lat": 37.49924726592884, "lon": 127.14893749244365, "survivalProbability": 0.6326, "monthlyEstimateKRW": 135140113, "salesPercentile": 28.1}, {"sangwonCode": 3120240, "sangwonName": "개롱역", "gu": "송파구", "lat": 37.49604787721762, "lon": 127.13460345002983, "survivalProbability": 0.6326, "monthlyEstimateKRW": 307430477, "salesPercentile": 82.9}, {"sangwonCode": 3120191, "sangwonName": "학동역", "gu": "강남구", "lat": 37.51355518491261, "lon": 127.03007596762794, "survivalProbability": 0.6326, "monthlyEstimateKRW": 169328848, "salesPercentile": 62.2}, {"sangwonCode": 3110244, "sangwonName": "중화역 4번", "gu": "중랑구", "lat": 37.60341653482143, "lon": 127.07827562121437, "survivalProbability": 0.6326, "monthlyEstimateKRW": 135026264, "salesPercentile": 24.0}, {"sangwonCode": 3111042, "sangwonName": "거여역 1번(거여공원)", "gu": "송파구", "lat": 37.49713654406891, "lon": 127.14357306164347, "survivalProbability": 0.6326, "monthlyEstimateKRW": 136293028, "salesPercentile": 35.7}, {"sangwonCode": 3110346, "sangwonName": "4.19민주묘지역 2번", "gu": "강북구", "lat": 37.64943719463744, "lon": 127.01260072039511, "survivalProbability": 0.6326, "monthlyEstimateKRW": 135026264, "salesPercentile": 24.0}, {"sangwonCode": 3120241, "sangwonName": "거여역", "gu": "송파구", "lat": 37.49283633341059, "lon": 127.1455437075945, "survivalProbability": 0.6326, "monthlyEstimateKRW": 169199030, "salesPercentile": 62.1}, {"sangwonCode": 3120190, "sangwonName": "강남을지병원", "gu": "강남구", "lat": 37.520006819268275, "lon": 127.02825732811267, "survivalProbability": 0.6326, "monthlyEstimateKRW": 168882489, "salesPercentile": 61.7}, {"sangwonCode": 3110243, "sangwonName": "중랑노인종합복지관", "gu": "중랑구", "lat": 37.58811789372319, "lon": 127.0779878628827, "survivalProbability": 0.6326, "monthlyEstimateKRW": 135792837, "salesPercentile": 32.1}, {"sangwonCode": 3120006, "sangwonName": "종각역", "gu": "종로구", "lat": 37.57037490191488, "lon": 126.98349603169189, "survivalProbability": 0.6326, "monthlyEstimateKRW": 899308032, "salesPercentile": 98.9}, {"sangwonCode": 3110668, "sangwonName": "화곡2동주민센터", "gu": "강서구", "lat": 37.53247006333166, "lon": 126.85331580752785, "survivalProbability": 0.6326, "monthlyEstimateKRW": 182493778, "salesPercentile": 70.2}, {"sangwonCode": 3120189, "sangwonName": "강남역", "gu": "서초구", "lat": 37.497571920870165, "lon": 127.02775129423334, "survivalProbability": 0.6326, "monthlyEstimateKRW": 975209780, "salesPercentile": 99.1}, {"sangwonCode": 3110725, "sangwonName": "가산동주민센터", "gu": "금천구", "lat": 37.47775628898691, "lon": 126.89045996878538, "survivalProbability": 0.6326, "monthlyEstimateKRW": 137009082, "salesPercentile": 39.4}, {"sangwonCode": 3120007, "sangwonName": "북촌(안국역)", "gu": "종로구", "lat": 37.57915989328047, "lon": 126.98574695667236, "survivalProbability": 0.6326, "monthlyEstimateKRW": 159906359, "salesPercentile": 49.0}, {"sangwonCode": 3120243, "sangwonName": "천호역", "gu": "강동구", "lat": 37.53952339599033, "lon": 127.12444156010653, "survivalProbability": 0.6326, "monthlyEstimateKRW": 441779548, "salesPercentile": 94.1}, {"sangwonCode": 3110240, "sangwonName": "태릉시장 특화거리", "gu": "중랑구", "lat": 37.598056612126726, "lon": 127.07679791399993, "survivalProbability": 0.6326, "monthlyEstimateKRW": 132891659, "salesPercentile": 16.4}, {"sangwonCode": 3110726, "sangwonName": "금천철쭉어린이공원(금하마을)", "gu": "금천구", "lat": 37.45329404179641, "lon": 126.8906764836956, "survivalProbability": 0.6326, "monthlyEstimateKRW": 132307883, "salesPercentile": 7.8}, {"sangwonCode": 3120188, "sangwonName": "압구정역", "gu": "강남구", "lat": 37.52546693782541, "lon": 127.02807838256531, "survivalProbability": 0.6326, "monthlyEstimateKRW": 172028590, "salesPercentile": 64.4}, {"sangwonCode": 3120244, "sangwonName": "암사역", "gu": "강동구", "lat": 37.55137688969368, "lon": 127.12785627932669, "survivalProbability": 0.6326, "monthlyEstimateKRW": 169750169, "salesPercentile": 62.4}, {"sangwonCode": 3110237, "sangwonName": "메가박스 상봉", "gu": "중랑구", "lat": 37.591408615387756, "lon": 127.07474165969481, "survivalProbability": 0.6326, "monthlyEstimateKRW": 135026264, "salesPercentile": 24.0}, {"sangwonCode": 3110357, "sangwonName": "가오리역 1번", "gu": "강북구", "lat": 37.643417950047436, "lon": 127.01782314180417, "survivalProbability": 0.6326, "monthlyEstimateKRW": 135026264, "salesPercentile": 24.0}, {"sangwonCode": 3120187, "sangwonName": "신논현역", "gu": "강남구", "lat": 37.50502379497898, "lon": 127.02527722374786, "survivalProbability": 0.6326, "monthlyEstimateKRW": 511870779, "salesPercentile": 96.1}, {"sangwonCode": 3110236, "sangwonName": "신묵초등학교", "gu": "중랑구", "lat": 37.60887870447146, "lon": 127.07492901956759, "survivalProbability": 0.6326, "monthlyEstimateKRW": 135906686, "salesPercentile": 33.2}, {"sangwonCode": 3120245, "sangwonName": "둔촌역", "gu": "강동구", "lat": 37.526339264817906, "lon": 127.13491805500612, "survivalProbability": 0.6326, "monthlyEstimateKRW": 446787552, "salesPercentile": 94.5}, {"sangwonCode": 3110359, "sangwonName": "수유시장옆", "gu": "강북구", "lat": 37.63881357448498, "lon": 127.01997473599367, "survivalProbability": 0.6326, "monthlyEstimateKRW": 135140113, "salesPercentile": 28.1}, {"sangwonCode": 3110729, "sangwonName": "가산동우체국", "gu": "금천구", "lat": 37.47802914720058, "lon": 126.8932520648618, "survivalProbability": 0.6326, "monthlyEstimateKRW": 172831284, "salesPercentile": 65.0}, {"sangwonCode": 3120186, "sangwonName": "가로수길", "gu": "강남구", "lat": 37.52077389382864, "lon": 127.0225789449648, "survivalProbability": 0.6326, "monthlyEstimateKRW": 302932729, "salesPercentile": 81.4}, {"sangwonCode": 3120246, "sangwonName": "길동역", "gu": "강동구", "lat": 37.536471614031555, "lon": 127.13829670196402, "survivalProbability": 0.6326, "monthlyEstimateKRW": 534048552, "salesPercentile": 96.7}, {"sangwonCode": 3110232, "sangwonName": "동대부고", "gu": "동대문구", "lat": 37.577299862320345, "lon": 127.07347096415802, "survivalProbability": 0.6326, "monthlyEstimateKRW": 180859070, "salesPercentile": 68.5}, {"sangwonCode": 3120009, "sangwonName": "종로3가역", "gu": "종로구", "lat": 37.57165510209864, "lon": 126.99069513429947, "survivalProbability": 0.6326, "monthlyEstimateKRW": 845092922, "salesPercentile": 98.7}, {"sangwonCode": 3110662, "sangwonName": "까치산역 1번", "gu": "강서구", "lat": 37.53485244846705, "lon": 126.84913619684757, "survivalProbability": 0.6326, "monthlyEstimateKRW": 179907761, "salesPercentile": 66.9}, {"sangwonCode": 3120185, "sangwonName": "논현역", "gu": "강남구", "lat": 37.51104318245634, "lon": 127.02189737579353, "survivalProbability": 0.6326, "monthlyEstimateKRW": 568137970, "salesPercentile": 97.6}, {"sangwonCode": 3110365, "sangwonName": "미아역 5번", "gu": "강북구", "lat": 37.623703424347134, "lon": 127.02332368413528, "survivalProbability": 0.6326, "monthlyEstimateKRW": 136293028, "salesPercentile": 35.7}, {"sangwonCode": 3110366, "sangwonName": "광산사거리", "gu": "강북구", "lat": 37.64358795179582, "lon": 127.02444030791094, "survivalProbability": 0.6326, "monthlyEstimateKRW": 136923860, "salesPercentile": 38.7}, {"sangwonCode": 3120248, "sangwonName": "명일역", "gu": "강동구", "lat": 37.55124972345866, "lon": 127.1443784336575, "survivalProbability": 0.6326, "monthlyEstimateKRW": 442105298, "salesPercentile": 94.3}, {"sangwonCode": 3111028, "sangwonName": "문현중학교(장지역 1번)", "gu": "송파구", "lat": 37.48182002557716, "lon": 127.12733063992445, "survivalProbability": 0.6326, "monthlyEstimateKRW": 136958878, "salesPercentile": 39.0}, {"sangwonCode": 3120184, "sangwonName": "포이사거리(삼호물산)", "gu": "서초구", "lat": 37.47696053249972, "lon": 127.04506367970757, "survivalProbability": 0.6326, "monthlyEstimateKRW": 417523626, "salesPercentile": 91.5}, {"sangwonCode": 3110368, "sangwonName": "송천초등학교", "gu": "강북구", "lat": 37.61467534388805, "lon": 127.02422696852264, "survivalProbability": 0.6326, "monthlyEstimateKRW": 132577161, "salesPercentile": 14.1}, {"sangwonCode": 3110369, "sangwonName": "성신여대운정그린캠퍼스", "gu": "강북구", "lat": 37.633154257577395, "lon": 127.02579638357507, "survivalProbability": 0.6326, "monthlyEstimateKRW": 143262558, "salesPercentile": 41.1}, {"sangwonCode": 3120012, "sangwonName": "대학로(혜화역)", "gu": "종로구", "lat": 37.5827467014045, "lon": 127.00132461165737, "survivalProbability": 0.6326, "monthlyEstimateKRW": 436079960, "salesPercentile": 93.4}, {"sangwonCode": 3110226, "sangwonName": "장안1동주민센터", "gu": "동대문구", "lat": 37.568960725192056, "lon": 127.06660322921046, "survivalProbability": 0.6326, "monthlyEstimateKRW": 144795679, "salesPercentile": 41.4}, {"sangwonCode": 3120182, "sangwonName": "양재시민의숲역(양재동꽃시장, aT센터)", "gu": "서초구", "lat": 37.469384734597455, "lon": 127.04036782735055, "survivalProbability": 0.6326, "monthlyEstimateKRW": 381469284, "salesPercentile": 86.4}, {"sangwonCode": 3110371, "sangwonName": "삼양입구사거리", "gu": "강북구", "lat": 37.6164314927593, "lon": 127.02776142881001, "survivalProbability": 0.6326, "monthlyEstimateKRW": 133528935, "salesPercentile": 19.9}, {"sangwonCode": 3130015, "sangwonName": "창신골목시장", "gu": "종로구", "lat": 37.57325869940521, "lon": 127.01129739060529, "survivalProbability": 0.6326, "monthlyEstimateKRW": 156581831, "salesPercentile": 45.1}, {"sangwonCode": 3120179, "sangwonName": "양재역", "gu": "서초구", "lat": 37.484496660060245, "lon": 127.03403294046717, "survivalProbability": 0.6326, "monthlyEstimateKRW": 434527435, "salesPercentile": 92.8}, {"sangwonCode": 3110659, "sangwonName": "화곡역 4번", "gu": "강서구", "lat": 37.54056131421404, "lon": 126.84644302224991, "survivalProbability": 0.6326, "monthlyEstimateKRW": 132976387, "salesPercentile": 17.5}, {"sangwonCode": 3110374, "sangwonName": "송중초등학교", "gu": "강북구", "lat": 37.61982748768701, "lon": 127.0307077341858, "survivalProbability": 0.6326, "monthlyEstimateKRW": 132577161, "salesPercentile": 14.1}, {"sangwonCode": 3110220, "sangwonName": "외대앞역 1번", "gu": "동대문구", "lat": 37.59521860885541, "lon": 127.06118009171786, "survivalProbability": 0.6326, "monthlyEstimateKRW": 176902296, "salesPercentile": 66.3}, {"sangwonCode": 3120014, "sangwonName": "종로5가역", "gu": "종로구", "lat": 37.571907724627984, "lon": 127.00232056437183, "survivalProbability": 0.6326, "monthlyEstimateKRW": 433448854, "salesPercentile": 92.4}, {"sangwonCode": 3111021, "sangwonName": "방이역 4번", "gu": "송파구", "lat": 37.51121564107836, "lon": 127.12279974688528, "survivalProbability": 0.6326, "monthlyEstimateKRW": 135906686, "salesPercentile": 33.2}, {"sangwonCode": 3120178, "sangwonName": "신사역", "gu": "서초구", "lat": 37.515963075171285, "lon": 127.01955735958383, "survivalProbability": 0.6326, "monthlyEstimateKRW": 437139550, "salesPercentile": 93.6}, {"sangwonCode": 3110219, "sangwonName": "삼육보건대학교", "gu": "동대문구", "lat": 37.587713860831755, "lon": 127.06017759350853, "survivalProbability": 0.6326, "monthlyEstimateKRW": 172290466, "salesPercentile": 64.8}, {"sangwonCode": 3130024, "sangwonName": "남대문시장(자유상가)", "gu": "중구", "lat": 37.55957999880267, "lon": 126.97761307341452, "survivalProbability": 0.6326, "monthlyEstimateKRW": 156662048, "salesPercentile": 45.7}, {"sangwonCode": 3110381, "sangwonName": "번동주공2단지", "gu": "강북구", "lat": 37.628022144194425, "lon": 127.04431643020384, "survivalProbability": 0.6326, "monthlyEstimateKRW": 149249631, "salesPercentile": 42.2}, {"sangwonCode": 3120177, "sangwonName": "신논현역 1번", "gu": "서초구", "lat": 37.50543027854698, "lon": 127.01988259526811, "survivalProbability": 0.6326, "monthlyEstimateKRW": 165128435, "salesPercentile": 57.3}, {"sangwonCode": 3120175, "sangwonName": "남부터미널역", "gu": "서초구", "lat": 37.48511285891225, "lon": 127.01811336179759, "survivalProbability": 0.6326, "monthlyEstimateKRW": 415805037, "salesPercentile": 91.2}, {"sangwonCode": 3110657, "sangwonName": "양천향교역 5번", "gu": "강서구", "lat": 37.56653329038731, "lon": 126.84357129242574, "survivalProbability": 0.6326, "monthlyEstimateKRW": 135408248, "salesPercentile": 30.2}, {"sangwonCode": 3110387, "sangwonName": "쌍문초등학교", "gu": "도봉구", "lat": 37.650408392580964, "lon": 127.02446520633931, "survivalProbability": 0.6326, "monthlyEstimateKRW": 132264344, "salesPercentile": 7.6}, {"sangwonCode": 3130042, "sangwonName": "약수시장", "gu": "중구", "lat": 37.55285116043482, "lon": 127.01096611803986, "survivalProbability": 0.6326, "monthlyEstimateKRW": 156847387, "salesPercentile": 46.3}, {"sangwonCode": 3120174, "sangwonName": "논현역 5번", "gu": "서초구", "lat": 37.510602546601746, "lon": 127.01664914657664, "survivalProbability": 0.6326, "monthlyEstimateKRW": 164503949, "salesPercentile": 55.2}, {"sangwonCode": 3110741, "sangwonName": "독산2동주민센터", "gu": "금천구", "lat": 37.46383656022357, "lon": 126.9017046630445, "survivalProbability": 0.6326, "monthlyEstimateKRW": 131891516, "salesPercentile": 2.9}, {"sangwonCode": 3110212, "sangwonName": "답십리초등학교", "gu": "동대문구", "lat": 37.570011170999635, "lon": 127.05645053947013, "survivalProbability": 0.6326, "monthlyEstimateKRW": 240891299, "salesPercentile": 73.5}, {"sangwonCode": 3111016, "sangwonName": "송파역 2번", "gu": "송파구", "lat": 37.500681404240055, "lon": 127.11534113261456, "survivalProbability": 0.6326, "monthlyEstimateKRW": 136367760, "salesPercentile": 36.7}, {"sangwonCode": 3110656, "sangwonName": "까치산역 3번", "gu": "강서구", "lat": 37.52876264452878, "lon": 126.84296009158733, "survivalProbability": 0.6326, "monthlyEstimateKRW": 131606761, "salesPercentile": 1.7}, {"sangwonCode": 3120173, "sangwonName": "교대역(법원.검찰청)", "gu": "서초구", "lat": 37.49370893679033, "lon": 127.0147795736092, "survivalProbability": 0.6326, "monthlyEstimateKRW": 797939271, "salesPercentile": 98.3}, {"sangwonCode": 3110211, "sangwonName": "전곡마을마당공원", "gu": "동대문구", "lat": 37.5798238453243, "lon": 127.05465790447084, "survivalProbability": 0.6326, "monthlyEstimateKRW": 135140113, "salesPercentile": 28.1}, {"sangwonCode": 3130051, "sangwonName": "동화동 골목형상점가", "gu": "중구", "lat": 37.56240094950935, "lon": 127.01746427209717, "survivalProbability": 0.6326, "monthlyEstimateKRW": 156847387, "salesPercentile": 46.3}, {"sangwonCode": 3120018, "sangwonName": "중림동", "gu": "중구", "lat": 37.55949660361493, "lon": 126.96766462208775, "survivalProbability": 0.6326, "monthlyEstimateKRW": 163226213, "salesPercentile": 54.5}, {"sangwonCode": 3120172, "sangwonName": "교대입구교차로", "gu": "서초구", "lat": 37.48774452227515, "lon": 127.01257351118738, "survivalProbability": 0.6326, "monthlyEstimateKRW": 304601258, "salesPercentile": 82.1}, {"sangwonCode": 3130053, "sangwonName": "백학시장", "gu": "중구", "lat": 37.564148546707614, "lon": 127.01960390526173, "survivalProbability": 0.6326, "monthlyEstimateKRW": 298324812, "salesPercentile": 78.6}, {"sangwonCode": 3110205, "sangwonName": "경희대삼거리", "gu": "동대문구", "lat": 37.59099765389255, "lon": 127.0513258738915, "survivalProbability": 0.6326, "monthlyEstimateKRW": 132069693, "salesPercentile": 4.7}, {"sangwonCode": 3130056, "sangwonName": "용산용문시장", "gu": "용산구", "lat": 37.53643776809258, "lon": 126.96020703642986, "survivalProbability": 0.6326, "monthlyEstimateKRW": 278708243, "salesPercentile": 76.4}, {"sangwonCode": 3110654, "sangwonName": "까치산역 4번", "gu": "강서구", "lat": 37.53303109083655, "lon": 126.8412427376533, "survivalProbability": 0.6326, "monthlyEstimateKRW": 250661452, "salesPercentile": 75.0}, {"sangwonCode": 3110204, "sangwonName": "간데메공원", "gu": "동대문구", "lat": 37.573518572379605, "lon": 127.05088371301225, "survivalProbability": 0.6326, "monthlyEstimateKRW": 136293028, "salesPercentile": 35.7}, {"sangwonCode": 3130058, "sangwonName": "이촌종합시장", "gu": "용산구", "lat": 37.52061117520384, "lon": 126.97476276716449, "survivalProbability": 0.6326, "monthlyEstimateKRW": 163012438, "salesPercentile": 54.3}, {"sangwonCode": 3110744, "sangwonName": "독산동성당", "gu": "금천구", "lat": 37.47067726744691, "lon": 126.90418270467585, "survivalProbability": 0.6326, "monthlyEstimateKRW": 132577161, "salesPercentile": 14.1}, {"sangwonCode": 3110397, "sangwonName": "도봉산입구", "gu": "도봉구", "lat": 37.684497981920416, "lon": 127.03777459924743, "survivalProbability": 0.6326, "monthlyEstimateKRW": 241044868, "salesPercentile": 73.8}, {"sangwonCode": 3110199, "sangwonName": "홍릉시장", "gu": "동대문구", "lat": 37.58473921335797, "lon": 127.04263778068552, "survivalProbability": 0.6326, "monthlyEstimateKRW": 131990286, "salesPercentile": 3.5}, {"sangwonCode": 3130063, "sangwonName": "신금호역 골목형상점가", "gu": "성동구", "lat": 37.55379600299772, "lon": 127.02012177910736, "survivalProbability": 0.6326, "monthlyEstimateKRW": 171143645, "salesPercentile": 63.5}, {"sangwonCode": 3130064, "sangwonName": "금남시장", "gu": "성동구", "lat": 37.54854279302089, "lon": 127.02229309489861, "survivalProbability": 0.6326, "monthlyEstimateKRW": 161402529, "salesPercentile": 51.0}, {"sangwonCode": 3120022, "sangwonName": "북창동(시청역_6번)", "gu": "중구", "lat": 37.56302181255746, "lon": 126.97764599900339, "survivalProbability": 0.6326, "monthlyEstimateKRW": 171475790, "salesPercentile": 63.9}, {"sangwonCode": 3111010, "sangwonName": "석촌역 7번", "gu": "송파구", "lat": 37.5054062634517, "lon": 127.10161833772673, "survivalProbability": 0.6326, "monthlyEstimateKRW": 136293028, "salesPercentile": 35.7}, {"sangwonCode": 3110398, "sangwonName": "쌍문2동우체국", "gu": "도봉구", "lat": 37.654891974674136, "lon": 127.03714764587913, "survivalProbability": 0.6326, "monthlyEstimateKRW": 132387290, "salesPercentile": 11.1}, {"sangwonCode": 3130065, "sangwonName": "무학봉상점가", "gu": "성동구", "lat": 37.56179460093203, "lon": 127.0306273084275, "survivalProbability": 0.6326, "monthlyEstimateKRW": 156847387, "salesPercentile": 46.3}, {"sangwonCode": 3120167, "sangwonName": "고속터미널(고속터미널역)", "gu": "서초구", "lat": 37.50505341252054, "lon": 127.00525902182616, "survivalProbability": 0.6326, "monthlyEstimateKRW": 165554349, "salesPercentile": 58.0}, {"sangwonCode": 3130066, "sangwonName": "행당시장상점가", "gu": "성동구", "lat": 37.56119020691093, "lon": 127.0333094753789, "survivalProbability": 0.6326, "monthlyEstimateKRW": 278563226, "salesPercentile": 76.0}, {"sangwonCode": 3120166, "sangwonName": "방배역", "gu": "서초구", "lat": 37.48166335251674, "lon": 126.99726390009168, "survivalProbability": 0.6326, "monthlyEstimateKRW": 302475983, "salesPercentile": 80.9}, {"sangwonCode": 3110191, "sangwonName": "고려대역 6번", "gu": "동대문구", "lat": 37.58771469603436, "lon": 127.03601597985491, "survivalProbability": 0.6326, "monthlyEstimateKRW": 132891659, "salesPercentile": 16.4}, {"sangwonCode": 3130067, "sangwonName": "왕십리도선동상점가", "gu": "성동구", "lat": 37.564235292738104, "lon": 127.03429555496496, "survivalProbability": 0.6326, "monthlyEstimateKRW": 384956332, "salesPercentile": 86.9}, {"sangwonCode": 3110400, "sangwonName": "도봉구보건소", "gu": "도봉구", "lat": 37.6590088057298, "lon": 127.03917831065678, "survivalProbability": 0.6326, "monthlyEstimateKRW": 233169116, "salesPercentile": 72.0}, {"sangwonCode": 3110651, "sangwonName": "화원중학교", "gu": "강서구", "lat": 37.53644305357173, "lon": 126.83915364557924, "survivalProbability": 0.6326, "monthlyEstimateKRW": 132154033, "salesPercentile": 5.9}, {"sangwonCode": 3111007, "sangwonName": "석촌고분역 4번", "gu": "송파구", "lat": 37.499943567584296, "lon": 127.09387561308928, "survivalProbability": 0.6326, "monthlyEstimateKRW": 132387290, "salesPercentile": 11.1}, {"sangwonCode": 3130069, "sangwonName": "한양대앞상점가(한양시장, 왕십리맛골목)", "gu": "성동구", "lat": 37.55958418644961, "lon": 127.04049566562402, "survivalProbability": 0.6326, "monthlyEstimateKRW": 291676027, "salesPercentile": 77.2}, {"sangwonCode": 3110402, "sangwonName": "도봉구 정병원", "gu": "도봉구", "lat": 37.6617477362968, "lon": 127.03933841839088, "survivalProbability": 0.6326, "monthlyEstimateKRW": 136003438, "salesPercentile": 34.3}, {"sangwonCode": 3110748, "sangwonName": "백산초등학교", "gu": "금천구", "lat": 37.44853971878937, "lon": 126.90457258515943, "survivalProbability": 0.6326, "monthlyEstimateKRW": 137835224, "salesPercentile": 40.3}, {"sangwonCode": 3110403, "sangwonName": "방학1동주민센터", "gu": "도봉구", "lat": 37.66485586862868, "lon": 127.0400880977698, "survivalProbability": 0.6326, "monthlyEstimateKRW": 179907761, "salesPercentile": 66.9}, {"sangwonCode": 3130070, "sangwonName": "뚝섬역상점가", "gu": "성동구", "lat": 37.548444588661376, "lon": 127.04910132457829, "survivalProbability": 0.6326, "monthlyEstimateKRW": 167192446, "salesPercentile": 61.3}, {"sangwonCode": 3130072, "sangwonName": "성동용답상가시장", "gu": "성동구", "lat": 37.56397605579394, "lon": 127.05309567240342, "survivalProbability": 0.6326, "monthlyEstimateKRW": 291676027, "salesPercentile": 77.2}, {"sangwonCode": 3120026, "sangwonName": "을지로입구역", "gu": "중구", "lat": 37.56741061226832, "lon": 126.98339481342215, "survivalProbability": 0.6326, "monthlyEstimateKRW": 164616482, "salesPercentile": 55.6}, {"sangwonCode": 3110404, "sangwonName": "신창초등학교", "gu": "도봉구", "lat": 37.63624951166753, "lon": 127.04051457750556, "survivalProbability": 0.6326, "monthlyEstimateKRW": 180776032, "salesPercentile": 67.9}, {"sangwonCode": 3120162, "sangwonName": "방배동카페골목", "gu": "서초구", "lat": 37.495754294560726, "lon": 126.98580805606072, "survivalProbability": 0.6326, "monthlyEstimateKRW": 164930067, "salesPercentile": 56.2}, {"sangwonCode": 3130073, "sangwonName": "뚝도시장", "gu": "성동구", "lat": 37.53821587578757, "lon": 127.05450305757522, "survivalProbability": 0.6326, "monthlyEstimateKRW": 325105304, "salesPercentile": 83.6}, {"sangwonCode": 3111005, "sangwonName": "삼전역 3번", "gu": "송파구", "lat": 37.501461266767535, "lon": 127.08868660012052, "survivalProbability": 0.6326, "monthlyEstimateKRW": 136962222, "salesPercentile": 39.2}, {"sangwonCode": 3110648, "sangwonName": "양천향교역 7번", "gu": "강서구", "lat": 37.566940159049786, "lon": 126.83794486723104, "survivalProbability": 0.6326, "monthlyEstimateKRW": 147790822, "salesPercentile": 41.8}, {"sangwonCode": 3130078, "sangwonName": "화양제일골목시장", "gu": "광진구", "lat": 37.54327199835248, "lon": 127.0688547838515, "survivalProbability": 0.6326, "monthlyEstimateKRW": 156634679, "salesPercentile": 45.3}, {"sangwonCode": 3110405, "sangwonName": "방학역 1번", "gu": "도봉구", "lat": 37.66914421552273, "lon": 127.04101983972981, "survivalProbability": 0.6326, "monthlyEstimateKRW": 180988842, "salesPercentile": 68.9}, {"sangwonCode": 3120160, "sangwonName": "사당역(사당)", "gu": "서초구", "lat": 37.47752639125283, "lon": 126.98206935862181, "survivalProbability": 0.6326, "monthlyEstimateKRW": 537479983, "salesPercentile": 96.9}, {"sangwonCode": 3110751, "sangwonName": "난곡중학교", "gu": "금천구", "lat": 37.478094765834626, "lon": 126.90692050938276, "survivalProbability": 0.6326, "monthlyEstimateKRW": 132387290, "salesPercentile": 11.1}, {"sangwonCode": 3130081, "sangwonName": "자양골목전통시장(자양골목시장)", "gu": "광진구", "lat": 37.534264211958636, "lon": 127.0796628112492, "survivalProbability": 0.6326, "monthlyEstimateKRW": 324510872, "salesPercentile": 83.4}, {"sangwonCode": 3110647, "sangwonName": "화곡역 5번", "gu": "강서구", "lat": 37.5386573219103, "lon": 126.8375535045462, "survivalProbability": 0.6326, "monthlyEstimateKRW": 135140113, "salesPercentile": 28.1}, {"sangwonCode": 3111004, "sangwonName": "삼전역 1번", "gu": "송파구", "lat": 37.50671672745682, "lon": 127.08515279573975, "survivalProbability": 0.6326, "monthlyEstimateKRW": 240408043, "salesPercentile": 73.3}, {"sangwonCode": 3130083, "sangwonName": "중곡제일시장(중곡제일골목시장, 광성시장)", "gu": "광진구", "lat": 37.56381589690654, "lon": 127.08122227894687, "survivalProbability": 0.6326, "monthlyEstimateKRW": 155274040, "salesPercentile": 44.0}, {"sangwonCode": 3120159, "sangwonName": "서울대입구역", "gu": "관악구", "lat": 37.48095081268923, "lon": 126.95191519812431, "survivalProbability": 0.6326, "monthlyEstimateKRW": 165925242, "salesPercentile": 59.5}, {"sangwonCode": 3110752, "sangwonName": "한울중학교", "gu": "금천구", "lat": 37.46170696090743, "lon": 126.90894149141734, "survivalProbability": 0.6326, "monthlyEstimateKRW": 132891659, "salesPercentile": 16.4}, {"sangwonCode": 3120028, "sangwonName": "명동(명동거리)", "gu": "중구", "lat": 37.56278854470051, "lon": 126.98370143738255, "survivalProbability": 0.6326, "monthlyEstimateKRW": 643499106, "salesPercentile": 97.8}, {"sangwonCode": 3120158, "sangwonName": "녹두거리(대학동)", "gu": "관악구", "lat": 37.47031189276306, "lon": 126.93701139594275, "survivalProbability": 0.6326, "monthlyEstimateKRW": 170176287, "salesPercentile": 63.0}, {"sangwonCode": 3110646, "sangwonName": "푸른들청소년도서관", "gu": "강서구", "lat": 37.54405127997964, "lon": 126.83536920594427, "survivalProbability": 0.6326, "monthlyEstimateKRW": 176428744, "salesPercentile": 65.8}, {"sangwonCode": 3110409, "sangwonName": "창동역 2번", "gu": "도봉구", "lat": 37.65508805919096, "lon": 127.0433919186031, "survivalProbability": 0.6326, "monthlyEstimateKRW": 135412606, "salesPercentile": 30.8}, {"sangwonCode": 3111003, "sangwonName": "삼전역 4번", "gu": "송파구", "lat": 37.504276899620265, "lon": 127.0824809580479, "survivalProbability": 0.6326, "monthlyEstimateKRW": 132651365, "salesPercentile": 15.5}, {"sangwonCode": 3110170, "sangwonName": "동대부여고", "gu": "광진구", "lat": 37.54176314249194, "lon": 127.08864379358764, "survivalProbability": 0.6326, "monthlyEstimateKRW": 136293028, "salesPercentile": 35.7}, {"sangwonCode": 3110753, "sangwonName": "시흥동 은행나무사거리", "gu": "금천구", "lat": 37.448849129363595, "lon": 126.90844852214423, "survivalProbability": 0.6326, "monthlyEstimateKRW": 131998418, "salesPercentile": 3.7}, {"sangwonCode": 3120157, "sangwonName": "신림역(신림)", "gu": "관악구", "lat": 37.484724238201885, "lon": 126.93023791719077, "survivalProbability": 0.6326, "monthlyEstimateKRW": 434332540, "salesPercentile": 92.6}, {"sangwonCode": 3110410, "sangwonName": "방학역 2번", "gu": "도봉구", "lat": 37.66910685916636, "lon": 127.04464688230316, "survivalProbability": 0.6326, "monthlyEstimateKRW": 184110719, "salesPercentile": 71.3}, {"sangwonCode": 3130095, "sangwonName": "청량리전통시장", "gu": "동대문구", "lat": 37.58190077942744, "lon": 127.04347394090428, "survivalProbability": 0.6326, "monthlyEstimateKRW": 155301688, "salesPercentile": 44.4}, {"sangwonCode": 3110167, "sangwonName": "용마초등학교", "gu": "광진구", "lat": 37.557956025147156, "lon": 127.08601462792421, "survivalProbability": 0.6326, "monthlyEstimateKRW": 135526455, "salesPercentile": 31.7}, {"sangwonCode": 3120156, "sangwonName": "총신대입구역(이수, 총신대)", "gu": "동작구", "lat": 37.48599581916168, "lon": 126.98170551541705, "survivalProbability": 0.6326, "monthlyEstimateKRW": 481987816, "salesPercentile": 95.4}, {"sangwonCode": 3110645, "sangwonName": "우장산역 4번", "gu": "강서구", "lat": 37.55222974420196, "lon": 126.83351789025177, "survivalProbability": 0.6326, "monthlyEstimateKRW": 136293028, "salesPercentile": 35.7}, {"sangwonCode": 3110999, "sangwonName": "윗방죽마을공원", "gu": "강남구", "lat": 37.47158947606482, "lon": 127.10388999835395, "survivalProbability": 0.6326, "monthlyEstimateKRW": 193462746, "salesPercentile": 71.6}, {"sangwonCode": 3120031, "sangwonName": "을지로3가역", "gu": "중구", "lat": 37.56623117746982, "lon": 126.99161264533976, "survivalProbability": 0.6326, "monthlyEstimateKRW": 311533976, "salesPercentile": 83.1}, {"sangwonCode": 3110415, "sangwonName": "수락산역 4번", "gu": "노원구", "lat": 37.67578860179999, "lon": 127.05315257704137, "survivalProbability": 0.6326, "monthlyEstimateKRW": 241602528, "salesPercentile": 74.2}, {"sangwonCode": 3130105, "sangwonName": "장미제일시장(중화동제일시장)", "gu": "중랑구", "lat": 37.60467045615055, "lon": 127.07591005475709, "survivalProbability": 0.6326, "monthlyEstimateKRW": 155193113, "salesPercentile": 43.3}, {"sangwonCode": 3110997, "sangwonName": "대청초등학교", "gu": "강남구", "lat": 37.491544188739695, "lon": 127.08459279952699, "survivalProbability": 0.6326, "monthlyEstimateKRW": 263871260, "salesPercentile": 75.7}, {"sangwonCode": 3130106, "sangwonName": "중랑동부시장", "gu": "중랑구", "lat": 37.592353303829555, "lon": 127.07684866751778, "survivalProbability": 0.6326, "monthlyEstimateKRW": 157083358, "salesPercentile": 47.7}, {"sangwonCode": 3120153, "sangwonName": "노량진역(노량진)", "gu": "동작구", "lat": 37.51400342189709, "lon": 126.94026621686946, "survivalProbability": 0.6326, "monthlyEstimateKRW": 416452536, "salesPercentile": 91.3}, {"sangwonCode": 3110417, "sangwonName": "월계역 3번", "gu": "노원구", "lat": 37.63272832724608, "lon": 127.05808401363569, "survivalProbability": 0.6326, "monthlyEstimateKRW": 136811607, "salesPercentile": 38.4}, {"sangwonCode": 3110163, "sangwonName": "성자초등학교", "gu": "광진구", "lat": 37.53069298250582, "lon": 127.08436546700541, "survivalProbability": 0.6326, "monthlyEstimateKRW": 135412606, "salesPercentile": 30.8}, {"sangwonCode": 3130110, "sangwonName": "면목골목시장(면목시장)", "gu": "중랑구", "lat": 37.57866134278171, "lon": 127.08540447332199, "survivalProbability": 0.6326, "monthlyEstimateKRW": 156872881, "salesPercentile": 46.8}, {"sangwonCode": 3120032, "sangwonName": "충무로역", "gu": "중구", "lat": 37.56140202648682, "lon": 126.99494074826379, "survivalProbability": 0.6326, "monthlyEstimateKRW": 304370173, "salesPercentile": 82.0}, {"sangwonCode": 3120152, "sangwonName": "신대방삼거리역", "gu": "동작구", "lat": 37.49943591770157, "lon": 126.92730654329986, "survivalProbability": 0.6326, "monthlyEstimateKRW": 399033046, "salesPercentile": 88.0}, {"sangwonCode": 3110419, "sangwonName": "수락산디자인거리", "gu": "노원구", "lat": 37.676426447476146, "lon": 127.05710918618395, "survivalProbability": 0.6326, "monthlyEstimateKRW": 256187594, "salesPercentile": 75.1}, {"sangwonCode": 3110161, "sangwonName": "중곡역 3번", "gu": "광진구", "lat": 37.56810291017622, "lon": 127.08369452966215, "survivalProbability": 0.6326, "monthlyEstimateKRW": 135412606, "salesPercentile": 30.8}, {"sangwonCode": 3130111, "sangwonName": "동원전통종합시장(동원시장, 동원전통시장 상점가)", "gu": "중랑구", "lat": 37.58989278841775, "lon": 127.09068228925835, "survivalProbability": 0.6326, "monthlyEstimateKRW": 363942161, "salesPercentile": 84.9}, {"sangwonCode": 3120151, "sangwonName": "보라매공원", "gu": "동작구", "lat": 37.49122632464743, "lon": 126.92503035748912, "survivalProbability": 0.6326, "monthlyEstimateKRW": 302475983, "salesPercentile": 80.9}, {"sangwonCode": 3110994, "sangwonName": "개포고등학교", "gu": "강남구", "lat": 37.48338636262938, "lon": 127.06142798105036, "survivalProbability": 0.6326, "monthlyEstimateKRW": 135026264, "salesPercentile": 24.0}, {"sangwonCode": 3110420, "sangwonName": "광운대역 1번", "gu": "노원구", "lat": 37.62105976995063, "lon": 127.05964942521172, "survivalProbability": 0.6326, "monthlyEstimateKRW": 132891659, "salesPercentile": 16.4}, {"sangwonCode": 3110159, "sangwonName": "구의역 4번", "gu": "광진구", "lat": 37.534966184561476, "lon": 127.0808515528512, "survivalProbability": 0.6326, "monthlyEstimateKRW": 180116032, "salesPercentile": 67.2}, {"sangwonCode": 3110421, "sangwonName": "석계역 1번", "gu": "노원구", "lat": 37.615823223737245, "lon": 127.06312247081314, "survivalProbability": 0.6326, "monthlyEstimateKRW": 137448882, "salesPercentile": 40.1}, {"sangwonCode": 3110759, "sangwonName": "문래예술촌(문래창작촌)", "gu": "영등포구", "lat": 37.51476153758128, "lon": 126.89145784534162, "survivalProbability": 0.6326, "monthlyEstimateKRW": 176234480, "salesPercentile": 65.2}, {"sangwonCode": 3120149, "sangwonName": "여의도역(여의도)", "gu": "영등포구", "lat": 37.5226811750762, "lon": 126.92625456940182, "survivalProbability": 0.6326, "monthlyEstimateKRW": 1251855800, "salesPercentile": 99.8}, {"sangwonCode": 3110423, "sangwonName": "석계역 2번", "gu": "노원구", "lat": 37.61705668079721, "lon": 127.06477720668221, "survivalProbability": 0.6326, "monthlyEstimateKRW": 134341863, "salesPercentile": 21.5}, {"sangwonCode": 3130117, "sangwonName": "정릉시장", "gu": "성북구", "lat": 37.60841561935929, "lon": 127.00892438114056, "survivalProbability": 0.6326, "monthlyEstimateKRW": 374461100, "salesPercentile": 85.5}, {"sangwonCode": 3110638, "sangwonName": "신방화역 2번", "gu": "강서구", "lat": 37.56875208070871, "lon": 126.81411374137508, "survivalProbability": 0.6326, "monthlyEstimateKRW": 233322685, "salesPercentile": 72.2}, {"sangwonCode": 3110424, "sangwonName": "상계초등학교", "gu": "노원구", "lat": 37.65878876746218, "lon": 127.06751070252072, "survivalProbability": 0.6326, "monthlyEstimateKRW": 116239321, "salesPercentile": 0.4}, {"sangwonCode": 3120148, "sangwonName": "국회의사당역(국회의사당)", "gu": "영등포구", "lat": 37.528552135513465, "lon": 126.92073922815948, "survivalProbability": 0.6326, "monthlyEstimateKRW": 438904391, "salesPercentile": 93.9}, {"sangwonCode": 3130118, "sangwonName": "정릉골 골목형상점가", "gu": "성북구", "lat": 37.61246098232057, "lon": 127.00991022394564, "survivalProbability": 0.6326, "monthlyEstimateKRW": 160662954, "salesPercentile": 49.7}, {"sangwonCode": 3120037, "sangwonName": "동대문역사문화공원역", "gu": "중구", "lat": 37.56545638813874, "lon": 127.00737989015032, "survivalProbability": 0.6326, "monthlyEstimateKRW": 646363534, "salesPercentile": 98.2}, {"sangwonCode": 3110157, "sangwonName": "자양동우체국", "gu": "광진구", "lat": 37.52999274825613, "lon": 127.08072173589979, "survivalProbability": 0.6326, "monthlyEstimateKRW": 133718805, "salesPercentile": 20.8}, {"sangwonCode": 3110425, "sangwonName": "계상초등학교", "gu": "노원구", "lat": 37.661320204941866, "lon": 127.06806833085822, "survivalProbability": 0.6326, "monthlyEstimateKRW": 137156352, "salesPercentile": 39.8}, {"sangwonCode": 3130128, "sangwonName": "돌곶이시장(석관황금시장)", "gu": "성북구", "lat": 37.60976016072055, "lon": 127.0620074415214, "survivalProbability": 0.6326, "monthlyEstimateKRW": 160850794, "salesPercentile": 49.9}, {"sangwonCode": 3120145, "sangwonName": "영등포역(영등포)", "gu": "영등포구", "lat": 37.51843182609498, "lon": 126.90568269638135, "survivalProbability": 0.6326, "monthlyEstimateKRW": 490301423, "salesPercentile": 95.9}, {"sangwonCode": 3130129, "sangwonName": "장미원골목시장", "gu": "강북구", "lat": 37.644995149082234, "lon": 127.0143222680271, "survivalProbability": 0.6326, "monthlyEstimateKRW": 157988623, "salesPercentile": 48.3}, {"sangwonCode": 3110154, "sangwonName": "광진정말공원", "gu": "광진구", "lat": 37.53307535534298, "lon": 127.07897139566221, "survivalProbability": 0.6326, "monthlyEstimateKRW": 132956911, "salesPercentile": 17.3}, {"sangwonCode": 3110762, "sangwonName": "선유도역 1번", "gu": "영등포구", "lat": 37.54030612628488, "lon": 126.89276731629242, "survivalProbability": 0.6326, "monthlyEstimateKRW": 135140113, "salesPercentile": 28.1}, {"sangwonCode": 3110981, "sangwonName": "국악고교사거리", "gu": "강남구", "lat": 37.475598470393415, "lon": 127.04892926875071, "survivalProbability": 0.6326, "monthlyEstimateKRW": 133278627, "salesPercentile": 19.2}, {"sangwonCode": 3110152, "sangwonName": "중곡어린이공원", "gu": "광진구", "lat": 37.56488120178216, "lon": 127.07806550149179, "survivalProbability": 0.6326, "monthlyEstimateKRW": 143716201, "salesPercentile": 41.3}, {"sangwonCode": 3130133, "sangwonName": "우이골목시장(우이시장)", "gu": "강북구", "lat": 37.64641790449734, "lon": 127.0198407987359, "survivalProbability": 0.6326, "monthlyEstimateKRW": 166402725, "salesPercentile": 60.5}, {"sangwonCode": 3110429, "sangwonName": "공릉동 국수거리", "gu": "노원구", "lat": 37.62103417354386, "lon": 127.07311752729491, "survivalProbability": 0.6326, "monthlyEstimateKRW": 234473371, "salesPercentile": 72.4}, {"sangwonCode": 3110151, "sangwonName": "자양한강도서관", "gu": "광진구", "lat": 37.531139452835596, "lon": 127.07707997341757, "survivalProbability": 0.6326, "monthlyEstimateKRW": 132344562, "salesPercentile": 9.7}, {"sangwonCode": 3120143, "sangwonName": "당산역", "gu": "영등포구", "lat": 37.53475425924634, "lon": 126.90113646243866, "survivalProbability": 0.6326, "monthlyEstimateKRW": 374426176, "salesPercentile": 85.3}, {"sangwonCode": 3120039, "sangwonName": "신당역", "gu": "중구", "lat": 37.565428542094914, "lon": 127.01572187665211, "survivalProbability": 0.6326, "monthlyEstimateKRW": 166267501, "salesPercentile": 59.9}, {"sangwonCode": 3110634, "sangwonName": "송정역 3번", "gu": "강서구", "lat": 37.557416444538866, "lon": 126.81340625888835, "survivalProbability": 0.6326, "monthlyEstimateKRW": 135140113, "salesPercentile": 28.1}, {"sangwonCode": 3120142, "sangwonName": "대림역", "gu": "영등포구", "lat": 37.494062057605184, "lon": 126.89775247469098, "survivalProbability": 0.6326, "monthlyEstimateKRW": 161351857, "salesPercentile": 50.8}, {"sangwonCode": 3110431, "sangwonName": "상계역", "gu": "노원구", "lat": 37.660775854840864, "lon": 127.07430115109656, "survivalProbability": 0.6326, "monthlyEstimateKRW": 258950544, "salesPercentile": 75.5}, {"sangwonCode": 3110972, "sangwonName": "강남세브란스병원미래의학연구센터", "gu": "강남구", "lat": 37.49455817070105, "lon": 127.04250730304766, "survivalProbability": 0.6326, "monthlyEstimateKRW": 132307883, "salesPercentile": 7.8}, {"sangwonCode": 3130139, "sangwonName": "강북종합전통시장(강북종합골목시장)", "gu": "강북구", "lat": 37.64202882933862, "lon": 127.02638863579223, "survivalProbability": 0.6326, "monthlyEstimateKRW": 297048221, "salesPercentile": 78.3}, {"sangwonCode": 3110147, "sangwonName": "능동우편취급국", "gu": "광진구", "lat": 37.55618033078989, "lon": 127.07377843003759, "survivalProbability": 0.6326, "monthlyEstimateKRW": 135140113, "salesPercentile": 28.1}, {"sangwonCode": 3110146, "sangwonName": "신자초등학교", "gu": "광진구", "lat": 37.531520314025855, "lon": 127.07324501528619, "survivalProbability": 0.6326, "monthlyEstimateKRW": 135412606, "salesPercentile": 30.8}, {"sangwonCode": 3110433, "sangwonName": "공릉역 2번", "gu": "노원구", "lat": 37.62447424820976, "lon": 127.07580558296289, "survivalProbability": 0.6326, "monthlyEstimateKRW": 132489426, "salesPercentile": 12.5}, {"sangwonCode": 3110434, "sangwonName": "태릉입구역 4번", "gu": "노원구", "lat": 37.62081600933059, "lon": 127.07616433988332, "survivalProbability": 0.6326, "monthlyEstimateKRW": 131891516, "salesPercentile": 2.9}, {"sangwonCode": 3120040, "sangwonName": "용산전자상가(용산역)", "gu": "용산구", "lat": 37.53327570203355, "lon": 126.96155508063566, "survivalProbability": 0.6326, "monthlyEstimateKRW": 161407088, "salesPercentile": 51.3}, {"sangwonCode": 3120139, "sangwonName": "대림3동사거리", "gu": "영등포구", "lat": 37.50016185253768, "lon": 126.89773284883364, "survivalProbability": 0.6326, "monthlyEstimateKRW": 161615796, "salesPercentile": 53.0}, {"sangwonCode": 3110435, "sangwonName": "서울과학기술대", "gu": "노원구", "lat": 37.62956456313447, "lon": 127.07620725251864, "survivalProbability": 0.6326, "monthlyEstimateKRW": 151323562, "salesPercentile": 42.7}, {"sangwonCode": 3110966, "sangwonName": "논현2동주민센터", "gu": "강남구", "lat": 37.518652484450016, "lon": 127.03830167448663, "survivalProbability": 0.6326, "monthlyEstimateKRW": 132606860, "salesPercentile": 15.3}, {"sangwonCode": 3130146, "sangwonName": "쌍문시장(쌍문역골목시장)", "gu": "도봉구", "lat": 37.6482621596876, "lon": 127.0323284968481, "survivalProbability": 0.6326, "monthlyEstimateKRW": 350684717, "salesPercentile": 84.3}, {"sangwonCode": 3110632, "sangwonName": "방화역 3번", "gu": "강서구", "lat": 37.57478402665346, "lon": 126.81114416473983, "survivalProbability": 0.6326, "monthlyEstimateKRW": 181731321, "salesPercentile": 69.6}, {"sangwonCode": 3120138, "sangwonName": "당산2동(영등포우체국)", "gu": "영등포구", "lat": 37.529597277291366, "lon": 126.89731933174514, "survivalProbability": 0.6326, "monthlyEstimateKRW": 164930067, "salesPercentile": 56.2}, {"sangwonCode": 3110437, "sangwonName": "당고개역 2번", "gu": "노원구", "lat": 37.667278815856335, "lon": 127.07759457818734, "survivalProbability": 0.6326, "monthlyEstimateKRW": 131606115, "salesPercentile": 1.5}, {"sangwonCode": 3110141, "sangwonName": "건대입구역 1번", "gu": "광진구", "lat": 37.54314724564189, "lon": 127.06643315762537, "survivalProbability": 0.6326, "monthlyEstimateKRW": 136955161, "salesPercentile": 38.9}, {"sangwonCode": 3130147, "sangwonName": "쌍문역동측상점가", "gu": "도봉구", "lat": 37.64680180347365, "lon": 127.0350020228868, "survivalProbability": 0.6326, "monthlyEstimateKRW": 166402725, "salesPercentile": 60.5}, {"sangwonCode": 3120041, "sangwonName": "신용산역(용산역)", "gu": "용산구", "lat": 37.52899651132542, "lon": 126.96333347099194, "survivalProbability": 0.6326, "monthlyEstimateKRW": 431306262, "salesPercentile": 92.3}, {"sangwonCode": 3110140, "sangwonName": "건대입구역 6번", "gu": "광진구", "lat": 37.538597604470354, "lon": 127.06570497470408, "survivalProbability": 0.6326, "monthlyEstimateKRW": 133562866, "salesPercentile": 20.4}, {"sangwonCode": 3130148, "sangwonName": "방학동도깨비시장", "gu": "도봉구", "lat": 37.665172753982645, "lon": 127.03525999517794, "survivalProbability": 0.6326, "monthlyEstimateKRW": 159153361, "salesPercentile": 48.4}, {"sangwonCode": 3120136, "sangwonName": "영등포구청역", "gu": "영등포구", "lat": 37.5253946047632, "lon": 126.89281128917447, "survivalProbability": 0.6326, "monthlyEstimateKRW": 422789678, "salesPercentile": 92.1}, {"sangwonCode": 3110438, "sangwonName": "경춘선숲길 우측", "gu": "노원구", "lat": 37.625932128128525, "lon": 127.07843516211, "survivalProbability": 0.6326, "monthlyEstimateKRW": 362557714, "salesPercentile": 84.7}, {"sangwonCode": 3130149, "sangwonName": "창동신창시장", "gu": "도봉구", "lat": 37.6397193964298, "lon": 127.03719674055571, "survivalProbability": 0.6326, "monthlyEstimateKRW": 155405445, "salesPercentile": 44.6}, {"sangwonCode": 3130150, "sangwonName": "창동골목시장", "gu": "도봉구", "lat": 37.638565494331445, "lon": 127.03917890321948, "survivalProbability": 0.6326, "monthlyEstimateKRW": 159930058, "salesPercentile": 49.2}, {"sangwonCode": 3120134, "sangwonName": "구로전화국", "gu": "금천구", "lat": 37.47993162827735, "lon": 126.9054145419079, "survivalProbability": 0.6326, "monthlyEstimateKRW": 382080297, "salesPercentile": 86.6}, {"sangwonCode": 3110441, "sangwonName": "영신여고", "gu": "노원구", "lat": 37.650445067206704, "lon": 127.08261968164804, "survivalProbability": 0.6326, "monthlyEstimateKRW": 132505707, "salesPercentile": 12.9}, {"sangwonCode": 3110138, "sangwonName": "송정체육공원", "gu": "성동구", "lat": 37.550787295336974, "lon": 127.06717551903371, "survivalProbability": 0.6326, "monthlyEstimateKRW": 131459686, "salesPercentile": 1.1}, {"sangwonCode": 3120042, "sangwonName": "숙대입구역(남영역, 남영동)", "gu": "용산구", "lat": 37.54225254838164, "lon": 126.97176822424127, "survivalProbability": 0.6326, "monthlyEstimateKRW": 161285385, "salesPercentile": 50.6}, {"sangwonCode": 3110627, "sangwonName": "신정롯데캐슬아파트", "gu": "양천구", "lat": 37.519996696799005, "lon": 126.87366784052162, "survivalProbability": 0.6326, "monthlyEstimateKRW": 179907761, "salesPercentile": 66.9}, {"sangwonCode": 3130153, "sangwonName": "창동역상점가", "gu": "도봉구", "lat": 37.65291437249457, "lon": 127.04929468332354, "survivalProbability": 0.6326, "monthlyEstimateKRW": 298769841, "salesPercentile": 78.8}, {"sangwonCode": 3110776, "sangwonName": "도신초등학교", "gu": "영등포구", "lat": 37.49754391638084, "lon": 126.90245209989303, "survivalProbability": 0.6326, "monthlyEstimateKRW": 135026264, "salesPercentile": 24.0}, {"sangwonCode": 3120133, "sangwonName": "서울시흥동우체국(홈플러스시흥점)", "gu": "금천구", "lat": 37.45251953006894, "lon": 126.90132391118351, "survivalProbability": 0.6326, "monthlyEstimateKRW": 300822354, "salesPercentile": 79.7}, {"sangwonCode": 3120132, "sangwonName": "독산동", "gu": "금천구", "lat": 37.470740558781436, "lon": 126.89389548521771, "survivalProbability": 0.6326, "monthlyEstimateKRW": 390592576, "salesPercentile": 87.5}, {"sangwonCode": 3130163, "sangwonName": "응암오거리상점가", "gu": "은평구", "lat": 37.589005588687364, "lon": 126.9157725618011, "survivalProbability": 0.6326, "monthlyEstimateKRW": 376407231, "salesPercentile": 85.6}, {"sangwonCode": 3120043, "sangwonName": "서울역", "gu": "중구", "lat": 37.556353450145394, "lon": 126.97293992249331, "survivalProbability": 0.6326, "monthlyEstimateKRW": 302858476, "salesPercentile": 81.2}, {"sangwonCode": 3110134, "sangwonName": "성수119안전센터", "gu": "성동구", "lat": 37.536070183843606, "lon": 127.05727352526394, "survivalProbability": 0.6326, "monthlyEstimateKRW": 132577161, "salesPercentile": 14.1}, {"sangwonCode": 3110450, "sangwonName": "시립서북병원", "gu": "은평구", "lat": 37.60544380707197, "lon": 126.90920823667845, "survivalProbability": 0.6326, "monthlyEstimateKRW": 135906686, "salesPercentile": 33.2}, {"sangwonCode": 3130165, "sangwonName": "대림골목시장(대림시장, 양지시장)", "gu": "은평구", "lat": 37.58696146585945, "lon": 126.91737128158225, "survivalProbability": 0.6326, "monthlyEstimateKRW": 155179992, "salesPercentile": 43.1}, {"sangwonCode": 3120131, "sangwonName": "가산디지털단지", "gu": "금천구", "lat": 37.47710029831843, "lon": 126.88288623812605, "survivalProbability": 0.6326, "monthlyEstimateKRW": 1082569236, "salesPercentile": 99.4}, {"sangwonCode": 3110625, "sangwonName": "신정2동주민센터", "gu": "양천구", "lat": 37.518444828950926, "lon": 126.87167959095326, "survivalProbability": 0.6326, "monthlyEstimateKRW": 133528935, "salesPercentile": 19.9}, {"sangwonCode": 3110451, "sangwonName": "증산역 4번", "gu": "은평구", "lat": 37.586867310443004, "lon": 126.91176695211742, "survivalProbability": 0.6326, "monthlyEstimateKRW": 131836436, "salesPercentile": 2.1}, {"sangwonCode": 3120044, "sangwonName": "삼각지역", "gu": "용산구", "lat": 37.53391864671039, "lon": 126.97327613890431, "survivalProbability": 0.6326, "monthlyEstimateKRW": 161495862, "salesPercentile": 52.1}, {"sangwonCode": 3130167, "sangwonName": "연신내상점가(연빛거리)", "gu": "은평구", "lat": 37.620010847855006, "lon": 126.91890918747656, "survivalProbability": 0.6326, "monthlyEstimateKRW": 302033223, "salesPercentile": 80.7}, {"sangwonCode": 3110452, "sangwonName": "새절역 3번", "gu": "은평구", "lat": 37.59016549565589, "lon": 126.91251034948718, "survivalProbability": 0.6326, "monthlyEstimateKRW": 135026264, "salesPercentile": 24.0}, {"sangwonCode": 3110781, "sangwonName": "대림한신아파트", "gu": "영등포구", "lat": 37.4943552577109, "lon": 126.90355313361495, "survivalProbability": 0.6326, "monthlyEstimateKRW": 132891659, "salesPercentile": 16.4}, {"sangwonCode": 3120130, "sangwonName": "구로디지털단지역", "gu": "구로구", "lat": 37.48321674132804, "lon": 126.9010574261167, "survivalProbability": 0.6326, "monthlyEstimateKRW": 413135314, "salesPercentile": 90.8}, {"sangwonCode": 3120045, "sangwonName": "남영동 먹자골목", "gu": "용산구", "lat": 37.54286558593868, "lon": 126.9733068920239, "survivalProbability": 0.6326, "monthlyEstimateKRW": 294334404, "salesPercentile": 77.5}, {"sangwonCode": 3130169, "sangwonName": "대조시장", "gu": "은평구", "lat": 37.609483334764015, "lon": 126.92661064407342, "survivalProbability": 0.6326, "monthlyEstimateKRW": 156636910, "salesPercentile": 45.5}, {"sangwonCode": 3110128, "sangwonName": "성원중학교", "gu": "성동구", "lat": 37.53816384184272, "lon": 127.04992055728603, "survivalProbability": 0.6326, "monthlyEstimateKRW": 183377972, "salesPercentile": 70.5}, {"sangwonCode": 3110454, "sangwonName": "선정중학교", "gu": "은평구", "lat": 37.61729449862414, "lon": 126.91277306605426, "survivalProbability": 0.6326, "monthlyEstimateKRW": 132455143, "salesPercentile": 12.0}, {"sangwonCode": 3110939, "sangwonName": "양재역 8번(양재동우체국)", "gu": "서초구", "lat": 37.482044176111465, "lon": 127.03961711792392, "survivalProbability": 0.6326, "monthlyEstimateKRW": 135906686, "salesPercentile": 33.2}, {"sangwonCode": 3120129, "sangwonName": "구로디지털단지", "gu": "구로구", "lat": 37.48404057803035, "lon": 126.89515431983698, "survivalProbability": 0.6326, "monthlyEstimateKRW": 299767894, "salesPercentile": 79.3}, {"sangwonCode": 3130171, "sangwonName": "불광먹자골목 골목형상점가", "gu": "은평구", "lat": 37.61042307337391, "lon": 126.9311060072656, "survivalProbability": 0.6326, "monthlyEstimateKRW": 165608838, "salesPercentile": 58.2}, {"sangwonCode": 3120128, "sangwonName": "신도림역", "gu": "구로구", "lat": 37.50819222492761, "lon": 126.89038157947542, "survivalProbability": 0.6326, "monthlyEstimateKRW": 300515866, "salesPercentile": 79.6}, {"sangwonCode": 3110785, "sangwonName": "영등포푸르지오아파트", "gu": "영등포구", "lat": 37.5091772342772, "lon": 126.90408827327902, "survivalProbability": 0.6326, "monthlyEstimateKRW": 135140113, "salesPercentile": 28.1}, {"sangwonCode": 3110457, "sangwonName": "예일여고", "gu": "은평구", "lat": 37.611717602893464, "lon": 126.91307405227352, "survivalProbability": 0.6326, "monthlyEstimateKRW": 132032016, "salesPercentile": 4.1}, {"sangwonCode": 3110620, "sangwonName": "목동보건지소", "gu": "양천구", "lat": 37.539081745942845, "lon": 126.86714092211024, "survivalProbability": 0.6326, "monthlyEstimateKRW": 130975089, "salesPercentile": 0.9}, {"sangwonCode": 3120047, "sangwonName": "한남오거리", "gu": "용산구", "lat": 37.53301141680184, "lon": 127.0075690290704, "survivalProbability": 0.6326, "monthlyEstimateKRW": 161230306, "salesPercentile": 50.5}, {"sangwonCode": 3110458, "sangwonName": "선일여고", "gu": "은평구", "lat": 37.62118756887732, "lon": 126.9138672649344, "survivalProbability": 0.6326, "monthlyEstimateKRW": 135026264, "salesPercentile": 24.0}, {"sangwonCode": 3130179, "sangwonName": "이화여대 3,5,7길 상점가", "gu": "서대문구", "lat": 37.55821781854949, "lon": 126.94500703113266, "survivalProbability": 0.6326, "monthlyEstimateKRW": 299449822, "salesPercentile": 79.0}, {"sangwonCode": 3110787, "sangwonName": "신길3동주민센터", "gu": "영등포구", "lat": 37.50674580845403, "lon": 126.90568609063068, "survivalProbability": 0.6326, "monthlyEstimateKRW": 135140113, "salesPercentile": 28.1}, {"sangwonCode": 3110117, "sangwonName": "성동구보건소", "gu": "성동구", "lat": 37.567073116003144, "lon": 127.03536085082358, "survivalProbability": 0.6326, "monthlyEstimateKRW": 131891516, "salesPercentile": 2.9}, {"sangwonCode": 3110460, "sangwonName": "구산역 4번", "gu": "은평구", "lat": 37.614521102015296, "lon": 126.91503023530422, "survivalProbability": 0.6326, "monthlyEstimateKRW": 133305395, "salesPercentile": 19.3}, {"sangwonCode": 3120124, "sangwonName": "개봉동 현대아파트", "gu": "구로구", "lat": 37.4888917210359, "lon": 126.85592258479969, "survivalProbability": 0.6326, "monthlyEstimateKRW": 401010948, "salesPercentile": 88.8}, {"sangwonCode": 3120048, "sangwonName": "금호역", "gu": "성동구", "lat": 37.54829999550683, "lon": 127.01963370266444, "survivalProbability": 0.6326, "monthlyEstimateKRW": 301866089, "salesPercentile": 80.5}, {"sangwonCode": 3130183, "sangwonName": "상암동상점가", "gu": "마포구", "lat": 37.576934214752995, "lon": 126.89563552270715, "survivalProbability": 0.6326, "monthlyEstimateKRW": 385570096, "salesPercentile": 87.1}, {"sangwonCode": 3110112, "sangwonName": "행당역 2번", "gu": "성동구", "lat": 37.559226552054376, "lon": 127.03141851074179, "survivalProbability": 0.6326, "monthlyEstimateKRW": 132316015, "salesPercentile": 8.3}, {"sangwonCode": 3120123, "sangwonName": "오류동역", "gu": "구로구", "lat": 37.495238716981696, "lon": 126.84478309040126, "survivalProbability": 0.6326, "monthlyEstimateKRW": 400185295, "salesPercentile": 88.2}, {"sangwonCode": 3130186, "sangwonName": "망원시장", "gu": "마포구", "lat": 37.55633776978263, "lon": 126.90677800571248, "survivalProbability": 0.6326, "monthlyEstimateKRW": 157328283, "salesPercentile": 47.9}, {"sangwonCode": 3110464, "sangwonName": "연신내역 5번", "gu": "은평구", "lat": 37.61717129604579, "lon": 126.91683948862, "survivalProbability": 0.6326, "monthlyEstimateKRW": 132195119, "salesPercentile": 7.2}, {"sangwonCode": 3110913, "sangwonName": "방현초등학교(방배119안전센터)", "gu": "서초구", "lat": 37.476626146972635, "lon": 126.9881405944352, "survivalProbability": 0.6326, "monthlyEstimateKRW": 132154033, "salesPercentile": 5.9}, {"sangwonCode": 3120049, "sangwonName": "왕십리역(왕십리)", "gu": "성동구", "lat": 37.56090973532495, "lon": 127.03720279807932, "survivalProbability": 0.6326, "monthlyEstimateKRW": 306880839, "salesPercentile": 82.7}, {"sangwonCode": 3120122, "sangwonName": "강서구청", "gu": "강서구", "lat": 37.55257721737214, "lon": 126.85080932634085, "survivalProbability": 0.6326, "monthlyEstimateKRW": 408781888, "salesPercentile": 89.9}, {"sangwonCode": 3110105, "sangwonName": "금동어린이공원", "gu": "성동구", "lat": 37.549119199553864, "lon": 127.02349280272007, "survivalProbability": 0.6326, "monthlyEstimateKRW": 132154033, "salesPercentile": 5.9}, {"sangwonCode": 3130191, "sangwonName": "홍대 걷고싶은 거리", "gu": "마포구", "lat": 37.55592738931953, "lon": 126.92516930057623, "survivalProbability": 0.6326, "monthlyEstimateKRW": 380496852, "salesPercentile": 86.2}, {"sangwonCode": 3110467, "sangwonName": "은평요양병원", "gu": "은평구", "lat": 37.62484029093253, "lon": 126.91913049837581, "survivalProbability": 0.6326, "monthlyEstimateKRW": 132045365, "salesPercentile": 4.4}, {"sangwonCode": 3120121, "sangwonName": "까치산역", "gu": "강서구", "lat": 37.530165049640445, "lon": 126.84742598554176, "survivalProbability": 0.6326, "monthlyEstimateKRW": 306474500, "salesPercentile": 82.5}, {"sangwonCode": 3110102, "sangwonName": "옥수역 6번", "gu": "성동구", "lat": 37.54315582494073, "lon": 127.01610192459853, "survivalProbability": 0.6326, "monthlyEstimateKRW": 135478158, "salesPercentile": 31.3}, {"sangwonCode": 3130195, "sangwonName": "도화동 상점가", "gu": "마포구", "lat": 37.54015474788199, "lon": 126.94936526895961, "survivalProbability": 0.6326, "monthlyEstimateKRW": 166709442, "salesPercentile": 60.8}, {"sangwonCode": 3110468, "sangwonName": "응암역 3번", "gu": "은평구", "lat": 37.60326100173212, "lon": 126.91823657343359, "survivalProbability": 0.6326, "monthlyEstimateKRW": 241044868, "salesPercentile": 73.8}, {"sangwonCode": 3110792, "sangwonName": "영등포역 2번", "gu": "영등포구", "lat": 37.51188305687823, "lon": 126.9076137652341, "survivalProbability": 0.6326, "monthlyEstimateKRW": 135140113, "salesPercentile": 28.1}, {"sangwonCode": 3120120, "sangwonName": "화곡역", "gu": "강서구", "lat": 37.54110975325988, "lon": 126.83880416630873, "survivalProbability": 0.6326, "monthlyEstimateKRW": 413700954, "salesPercentile": 91.0}, {"sangwonCode": 3130197, "sangwonName": "마포시장", "gu": "마포구", "lat": 37.54503085282252, "lon": 126.95349222353501, "survivalProbability": 0.6326, "monthlyEstimateKRW": 166339826, "salesPercentile": 60.2}, {"sangwonCode": 3130198, "sangwonName": "아현시장", "gu": "마포구", "lat": 37.55640179732696, "lon": 126.9543792384095, "survivalProbability": 0.6326, "monthlyEstimateKRW": 161116350, "salesPercentile": 50.1}, {"sangwonCode": 3120119, "sangwonName": "발산역(마곡)", "gu": "강서구", "lat": 37.559927290899275, "lon": 126.83568513889625, "survivalProbability": 0.6326, "monthlyEstimateKRW": 559862059, "salesPercentile": 97.4}, {"sangwonCode": 3110093, "sangwonName": "우사단길", "gu": "용산구", "lat": 37.532326898187094, "lon": 127.00027153219374, "survivalProbability": 0.6326, "monthlyEstimateKRW": 134816059, "salesPercentile": 21.9}, {"sangwonCode": 3110612, "sangwonName": "신정역 5번", "gu": "양천구", "lat": 37.52343623301962, "lon": 126.85592405599932, "survivalProbability": 0.6326, "monthlyEstimateKRW": 133190551, "salesPercentile": 18.8}, {"sangwonCode": 3110469, "sangwonName": "응암정보도서관", "gu": "은평구", "lat": 37.586196487934636, "lon": 126.91861754570077, "survivalProbability": 0.6326, "monthlyEstimateKRW": 133723586, "salesPercentile": 21.0}, {"sangwonCode": 3130202, "sangwonName": "신영시장", "gu": "양천구", "lat": 37.532978552718, "lon": 126.83576690779837, "survivalProbability": 0.6326, "monthlyEstimateKRW": 352013257, "salesPercentile": 84.5}, {"sangwonCode": 3110090, "sangwonName": "한국폴리텍대학서울정수캠퍼스", "gu": "용산구", "lat": 37.52763264213135, "lon": 126.99699070678436, "survivalProbability": 0.6326, "monthlyEstimateKRW": 132316015, "salesPercentile": 8.3}, {"sangwonCode": 3120052, "sangwonName": "성수역", "gu": "성동구", "lat": 37.54467502389429, "lon": 127.0566690594387, "survivalProbability": 0.6326, "monthlyEstimateKRW": 172135277, "salesPercentile": 64.6}, {"sangwonCode": 3130204, "sangwonName": "경창시장", "gu": "양천구", "lat": 37.524526713829125, "lon": 126.84204133356633, "survivalProbability": 0.6326, "monthlyEstimateKRW": 168963471, "salesPercentile": 61.9}, {"sangwonCode": 3120114, "sangwonName": "목동신시가지", "gu": "양천구", "lat": 37.53114395403733, "lon": 126.87542528536237, "survivalProbability": 0.6326, "monthlyEstimateKRW": 378286780, "salesPercentile": 85.8}, {"sangwonCode": 3110902, "sangwonName": "사당역 4번", "gu": "관악구", "lat": 37.47420987457289, "lon": 126.97740115501247, "survivalProbability": 0.6326, "monthlyEstimateKRW": 133190551, "salesPercentile": 18.8}, {"sangwonCode": 3120113, "sangwonName": "오목교역", "gu": "양천구", "lat": 37.524006475648484, "lon": 126.87396651909376, "survivalProbability": 0.6326, "monthlyEstimateKRW": 306219129, "salesPercentile": 82.3}, {"sangwonCode": 3110473, "sangwonName": "구산역 1번", "gu": "은평구", "lat": 37.6127051698786, "lon": 126.92087651968289, "survivalProbability": 0.6326, "monthlyEstimateKRW": 180776032, "salesPercentile": 67.9}, {"sangwonCode": 3110901, "sangwonName": "인헌고등학교(인헌중학교)", "gu": "관악구", "lat": 37.470369440518155, "lon": 126.96815523319425, "survivalProbability": 0.6326, "monthlyEstimateKRW": 132069693, "salesPercentile": 4.7}, {"sangwonCode": 3120053, "sangwonName": "건대입구역(건대)", "gu": "광진구", "lat": 37.54052361998077, "lon": 127.0694180102895, "survivalProbability": 0.6326, "monthlyEstimateKRW": 408131155, "salesPercentile": 89.7}, {"sangwonCode": 3130209, "sangwonName": "목사랑시장(목4동시장)", "gu": "양천구", "lat": 37.53793668742033, "lon": 126.86644144350878, "survivalProbability": 0.6326, "monthlyEstimateKRW": 156967320, "salesPercentile": 47.2}, {"sangwonCode": 3110606, "sangwonName": "신한은행 신월동지점", "gu": "양천구", "lat": 37.51989447026174, "lon": 126.84122532645456, "survivalProbability": 0.6326, "monthlyEstimateKRW": 133346491, "salesPercentile": 19.5}, {"sangwonCode": 3130210, "sangwonName": "목2동시장", "gu": "양천구", "lat": 37.54628747973894, "lon": 126.87328400792225, "survivalProbability": 0.6326, "monthlyEstimateKRW": 156967320, "salesPercentile": 47.2}, {"sangwonCode": 3110804, "sangwonName": "신풍역 1번", "gu": "영등포구", "lat": 37.49952522564555, "lon": 126.9128197716422, "survivalProbability": 0.6326, "monthlyEstimateKRW": 135140113, "salesPercentile": 28.1}, {"sangwonCode": 3120112, "sangwonName": "등촌역", "gu": "양천구", "lat": 37.5509181198166, "lon": 126.86472078637462, "survivalProbability": 0.6326, "monthlyEstimateKRW": 543803136, "salesPercentile": 97.2}, {"sangwonCode": 3120111, "sangwonName": "목동사거리", "gu": "강서구", "lat": 37.531878131050874, "lon": 126.86309205939345, "survivalProbability": 0.6326, "monthlyEstimateKRW": 398789439, "salesPercentile": 87.8}, {"sangwonCode": 3110079, "sangwonName": "후암동주민센터", "gu": "용산구", "lat": 37.55010179303207, "lon": 126.97920022239718, "survivalProbability": 0.6326, "monthlyEstimateKRW": 135906686, "salesPercentile": 33.2}, {"sangwonCode": 3120054, "sangwonName": "어린이대공원역", "gu": "광진구", "lat": 37.547820046908846, "lon": 127.07219724027671, "survivalProbability": 0.6326, "monthlyEstimateKRW": 533853984, "salesPercentile": 96.5}, {"sangwonCode": 3130214, "sangwonName": "송화벽화시장(송화골목시장)", "gu": "강서구", "lat": 37.549349400157496, "lon": 126.8355499326782, "survivalProbability": 0.6326, "monthlyEstimateKRW": 160212246, "salesPercentile": 49.4}, {"sangwonCode": 3110605, "sangwonName": "목동센트럴아이파크앞", "gu": "양천구", "lat": 37.51585721377825, "lon": 126.8406570017279, "survivalProbability": 0.6326, "monthlyEstimateKRW": 151780082, "salesPercentile": 42.9}, {"sangwonCode": 3130216, "sangwonName": "화곡중앙시장", "gu": "강서구", "lat": 37.534559954145735, "lon": 126.83914637585305, "survivalProbability": 0.6326, "monthlyEstimateKRW": 156520535, "salesPercentile": 44.9}, {"sangwonCode": 3120110, "sangwonName": "목동역 8번출구", "gu": "양천구", "lat": 37.52574947721169, "lon": 126.8615081498464, "survivalProbability": 0.6326, "monthlyEstimateKRW": 294702187, "salesPercentile": 77.7}, {"sangwonCode": 3110895, "sangwonName": "샤로수길", "gu": "관악구", "lat": 37.47637531474311, "lon": 126.9561011279273, "survivalProbability": 0.6326, "monthlyEstimateKRW": 133141666, "salesPercentile": 18.4}, {"sangwonCode": 3110604, "sangwonName": "신월4동주민센터", "gu": "양천구", "lat": 37.52336983439267, "lon": 126.83937402800503, "survivalProbability": 0.6326, "monthlyEstimateKRW": 135026264, "salesPercentile": 24.0}, {"sangwonCode": 3110075, "sangwonName": "숙대입구역 1번", "gu": "용산구", "lat": 37.54693819857306, "lon": 126.9737354497403, "survivalProbability": 0.6326, "monthlyEstimateKRW": 135026264, "salesPercentile": 24.0}, {"sangwonCode": 3120109, "sangwonName": "서울남부지방법원", "gu": "양천구", "lat": 37.52167521099988, "lon": 126.86003377953539, "survivalProbability": 0.6326, "monthlyEstimateKRW": 170113773, "salesPercentile": 62.7}, {"sangwonCode": 3110074, "sangwonName": "서울역 12번", "gu": "용산구", "lat": 37.551010804376816, "lon": 126.97415273729469, "survivalProbability": 0.6326, "monthlyEstimateKRW": 182201413, "salesPercentile": 69.8}, {"sangwonCode": 3110485, "sangwonName": "연신내우체국", "gu": "은평구", "lat": 37.62172941053949, "lon": 126.92930584981418, "survivalProbability": 0.6326, "monthlyEstimateKRW": 132032016, "salesPercentile": 4.1}, {"sangwonCode": 3110810, "sangwonName": "영신초등학교", "gu": "영등포구", "lat": 37.51093472393394, "lon": 126.91666342067874, "survivalProbability": 0.6326, "monthlyEstimateKRW": 132344562, "salesPercentile": 9.7}, {"sangwonCode": 3110892, "sangwonName": "관악구 중앙길", "gu": "관악구", "lat": 37.484284219236116, "lon": 126.95112160044752, "survivalProbability": 0.6326, "monthlyEstimateKRW": 181249584, "salesPercentile": 69.2}, {"sangwonCode": 3120055, "sangwonName": "군자역", "gu": "광진구", "lat": 37.55713177654428, "lon": 127.0793476213953, "survivalProbability": 0.6326, "monthlyEstimateKRW": 407610067, "salesPercentile": 89.3}, {"sangwonCode": 3130221, "sangwonName": "남부골목시장(남부화곡시장, 남부시장)", "gu": "강서구", "lat": 37.53307374754431, "lon": 126.86077051500729, "survivalProbability": 0.6326, "monthlyEstimateKRW": 163767746, "salesPercentile": 54.7}, {"sangwonCode": 3120108, "sangwonName": "신정네거리역", "gu": "양천구", "lat": 37.52184641197067, "lon": 126.8526352486175, "survivalProbability": 0.6326, "monthlyEstimateKRW": 408966020, "salesPercentile": 90.1}, {"sangwonCode": 3110486, "sangwonName": "은평구청", "gu": "은평구", "lat": 37.60248349984441, "lon": 126.92799910442115, "survivalProbability": 0.6326, "monthlyEstimateKRW": 135026264, "salesPercentile": 24.0}, {"sangwonCode": 3110069, "sangwonName": "숙대입구", "gu": "용산구", "lat": 37.545224851300794, "lon": 126.9678744716527, "survivalProbability": 0.6326, "monthlyEstimateKRW": 136766580, "salesPercentile": 38.1}, {"sangwonCode": 3110601, "sangwonName": "신월1동우편취급국", "gu": "양천구", "lat": 37.52795203678687, "lon": 126.83653591090075, "survivalProbability": 0.6326, "monthlyEstimateKRW": 133081530, "salesPercentile": 17.8}, {"sangwonCode": 3120107, "sangwonName": "공덕역(공덕오거리)", "gu": "마포구", "lat": 37.54280477812483, "lon": 126.95197733961056, "survivalProbability": 0.6326, "monthlyEstimateKRW": 171364935, "salesPercentile": 63.7}, {"sangwonCode": 3130225, "sangwonName": "개봉중앙시장", "gu": "구로구", "lat": 37.49142203486424, "lon": 126.85468518986029, "survivalProbability": 0.6326, "monthlyEstimateKRW": 297017452, "salesPercentile": 78.1}, {"sangwonCode": 3120056, "sangwonName": "구의역", "gu": "광진구", "lat": 37.53754920268015, "lon": 127.08491629282449, "survivalProbability": 0.6326, "monthlyEstimateKRW": 161471790, "salesPercentile": 51.9}, {"sangwonCode": 3110067, "sangwonName": "배문고등학교", "gu": "용산구", "lat": 37.54909900636352, "lon": 126.96736357210598, "survivalProbability": 0.6326, "monthlyEstimateKRW": 132577161, "salesPercentile": 14.1}, {"sangwonCode": 3110888, "sangwonName": "청룡동주민센터", "gu": "관악구", "lat": 37.47905502019646, "lon": 126.94360664715312, "survivalProbability": 0.6326, "monthlyEstimateKRW": 136367760, "salesPercentile": 36.7}, {"sangwonCode": 3110495, "sangwonName": "북가좌2동주민센터", "gu": "서대문구", "lat": 37.581162393855145, "lon": 126.90961133135289, "survivalProbability": 0.6326, "monthlyEstimateKRW": 133086311, "salesPercentile": 18.1}, {"sangwonCode": 3110496, "sangwonName": "모래내우체국", "gu": "서대문구", "lat": 37.578974710278885, "lon": 126.91190079630103, "survivalProbability": 0.6326, "monthlyEstimateKRW": 132489426, "salesPercentile": 12.5}, {"sangwonCode": 3110885, "sangwonName": "영락고등학교", "gu": "관악구", "lat": 37.47534972675296, "lon": 126.93927952242284, "survivalProbability": 0.6326, "monthlyEstimateKRW": 133086311, "salesPercentile": 18.1}, {"sangwonCode": 3110814, "sangwonName": "서울지방병무청", "gu": "영등포구", "lat": 37.507496332940526, "lon": 126.92170023319794, "survivalProbability": 0.6326, "monthlyEstimateKRW": 135140113, "salesPercentile": 28.1}, {"sangwonCode": 3130232, "sangwonName": "독산동 맛나는거리상점가(독산동 맛나는거리)", "gu": "금천구", "lat": 37.46925041721309, "lon": 126.90025062119813, "survivalProbability": 0.6326, "monthlyEstimateKRW": 400452708, "salesPercentile": 88.4}, {"sangwonCode": 3120104, "sangwonName": "연남동(홍대)", "gu": "마포구", "lat": 37.56007023507463, "lon": 126.9224714657634, "survivalProbability": 0.6326, "monthlyEstimateKRW": 486937125, "salesPercentile": 95.8}, {"sangwonCode": 3110063, "sangwonName": "효창공원앞역 5번", "gu": "용산구", "lat": 37.53747472736998, "lon": 126.96268438684383, "survivalProbability": 0.6326, "monthlyEstimateKRW": 135026264, "salesPercentile": 24.0}, {"sangwonCode": 3120057, "sangwonName": "아차산역", "gu": "광진구", "lat": 37.55425222476908, "lon": 127.08697232874627, "survivalProbability": 0.6326, "monthlyEstimateKRW": 165764826, "salesPercentile": 59.0}, {"sangwonCode": 3110499, "sangwonName": "연가초등학교", "gu": "서대문구", "lat": 37.581962010876325, "lon": 126.91889386756903, "survivalProbability": 0.6326, "monthlyEstimateKRW": 132577161, "salesPercentile": 14.1}, {"sangwonCode": 3110598, "sangwonName": "신월문화체육센터", "gu": "양천구", "lat": 37.51957726844986, "lon": 126.8333416013457, "survivalProbability": 0.6326, "monthlyEstimateKRW": 137112727, "salesPercentile": 39.6}, {"sangwonCode": 3120103, "sangwonName": "홍대입구역(홍대)", "gu": "마포구", "lat": 37.55054422664607, "lon": 126.91880344160859, "survivalProbability": 0.6326, "monthlyEstimateKRW": 541410512, "salesPercentile": 97.1}, {"sangwonCode": 3110883, "sangwonName": "은천초등학교(은천교앞)", "gu": "관악구", "lat": 37.487223846511434, "lon": 126.93703112025764, "survivalProbability": 0.6326, "monthlyEstimateKRW": 135906686, "salesPercentile": 33.2}, {"sangwonCode": 3120058, "sangwonName": "구의사거리", "gu": "광진구", "lat": 37.544493709236626, "lon": 127.0879228233173, "survivalProbability": 0.6326, "monthlyEstimateKRW": 299767894, "salesPercentile": 79.3}, {"sangwonCode": 3110060, "sangwonName": "효창공원앞역 6번", "gu": "용산구", "lat": 37.53824821820554, "lon": 126.9585767524867, "survivalProbability": 0.6326, "monthlyEstimateKRW": 183719501, "salesPercentile": 71.1}, {"sangwonCode": 3110815, "sangwonName": "공군호텔", "gu": "영등포구", "lat": 37.51166828712483, "lon": 126.9221596147489, "survivalProbability": 0.6326, "monthlyEstimateKRW": 132387290, "salesPercentile": 11.1}, {"sangwonCode": 3130236, "sangwonName": "비단길현대시장(현대시장)", "gu": "금천구", "lat": 37.45709793372706, "lon": 126.9028437327672, "survivalProbability": 0.6326, "monthlyEstimateKRW": 278563226, "salesPercentile": 76.0}, {"sangwonCode": 3110502, "sangwonName": "남가좌파출소", "gu": "서대문구", "lat": 37.57596396317863, "lon": 126.92272668132662, "survivalProbability": 0.6326, "monthlyEstimateKRW": 240176597, "salesPercentile": 73.1}, {"sangwonCode": 3110059, "sangwonName": "새남터성지", "gu": "용산구", "lat": 37.52575028754142, "lon": 126.95569888787642, "survivalProbability": 0.6326, "monthlyEstimateKRW": 135412606, "salesPercentile": 30.8}, {"sangwonCode": 3130238, "sangwonName": "은행나무시장", "gu": "금천구", "lat": 37.451724454031016, "lon": 126.90986903036932, "survivalProbability": 0.6326, "monthlyEstimateKRW": 156847387, "salesPercentile": 46.3}, {"sangwonCode": 3120102, "sangwonName": "서교동(홍대)", "gu": "마포구", "lat": 37.554868134491784, "lon": 126.91753121902063, "survivalProbability": 0.6326, "monthlyEstimateKRW": 304275528, "salesPercentile": 81.8}, {"sangwonCode": 3110882, "sangwonName": "신성초등학교", "gu": "관악구", "lat": 37.473023526393646, "lon": 126.93625169251668, "survivalProbability": 0.6326, "monthlyEstimateKRW": 180984303, "salesPercentile": 68.7}, {"sangwonCode": 3110503, "sangwonName": "명지대학교교회", "gu": "서대문구", "lat": 37.5826588806257, "lon": 126.92354622796533, "survivalProbability": 0.6326, "monthlyEstimateKRW": 132387290, "salesPercentile": 11.1}, {"sangwonCode": 3120101, "sangwonName": "합정역", "gu": "마포구", "lat": 37.549468262404794, "lon": 126.91348588732001, "survivalProbability": 0.6326, "monthlyEstimateKRW": 161802371, "salesPercentile": 53.6}, {"sangwonCode": 3110881, "sangwonName": "구립대학경로당(관악산샘말공원)", "gu": "관악구", "lat": 37.46769853841552, "lon": 126.9362223021795, "survivalProbability": 0.6326, "monthlyEstimateKRW": 204358745, "salesPercentile": 71.8}, {"sangwonCode": 3110819, "sangwonName": "신대방역 4번", "gu": "동작구", "lat": 37.48877490125431, "lon": 126.91105702584524, "survivalProbability": 0.6326, "monthlyEstimateKRW": 176314896, "salesPercentile": 65.4}, {"sangwonCode": 3110507, "sangwonName": "명지대학교", "gu": "서대문구", "lat": 37.57877697431512, "lon": 126.92570116141647, "survivalProbability": 0.6326, "monthlyEstimateKRW": 242390388, "salesPercentile": 74.4}, {"sangwonCode": 3130248, "sangwonName": "영등포역지하도상점가", "gu": "영등포구", "lat": 37.51430435395737, "lon": 126.90459071258275, "survivalProbability": 0.6326, "monthlyEstimateKRW": 349086597, "salesPercentile": 84.2}, {"sangwonCode": 3120060, "sangwonName": "강변역(테크노마트)", "gu": "광진구", "lat": 37.534811785832595, "lon": 127.09463209799448, "survivalProbability": 0.6326, "monthlyEstimateKRW": 161615796, "salesPercentile": 53.0}, {"sangwonCode": 3110509, "sangwonName": "연희대우아파트앞", "gu": "서대문구", "lat": 37.559929848504545, "lon": 126.92844752122888, "survivalProbability": 0.6326, "monthlyEstimateKRW": 135026264, "salesPercentile": 24.0}, {"sangwonCode": 3110820, "sangwonName": "성남고등학교", "gu": "동작구", "lat": 37.504353122909095, "lon": 126.9236826987537, "survivalProbability": 0.6326, "monthlyEstimateKRW": 132154033, "salesPercentile": 5.9}, {"sangwonCode": 3110873, "sangwonName": "당곡중학교", "gu": "관악구", "lat": 37.49122005096885, "lon": 126.9294742646681, "survivalProbability": 0.6326, "monthlyEstimateKRW": 178325380, "salesPercentile": 66.5}, {"sangwonCode": 3130261, "sangwonName": "성대전통시장(성대시장)", "gu": "동작구", "lat": 37.499122816445855, "lon": 126.93106137758035, "survivalProbability": 0.6326, "monthlyEstimateKRW": 157759009, "salesPercentile": 48.1}, {"sangwonCode": 3110593, "sangwonName": "신월3동주민센터", "gu": "양천구", "lat": 37.53348831317334, "lon": 126.82679378474677, "survivalProbability": 0.6326, "monthlyEstimateKRW": 135026264, "salesPercentile": 24.0}, {"sangwonCode": 3120095, "sangwonName": "홍제역", "gu": "서대문구", "lat": 37.58822983459291, "lon": 126.94474718990185, "survivalProbability": 0.6326, "monthlyEstimateKRW": 164503949, "salesPercentile": 55.2}, {"sangwonCode": 3110037, "sangwonName": "신설동역 12번", "gu": "종로구", "lat": 37.577978389479746, "lon": 127.02206413216838, "survivalProbability": 0.6326, "monthlyEstimateKRW": 132193997, "salesPercentile": 6.9}, {"sangwonCode": 3120094, "sangwonName": "신촌역(신촌역, 신촌로터리)", "gu": "서대문구", "lat": 37.55652864102824, "lon": 126.93641829163414, "survivalProbability": 0.6326, "monthlyEstimateKRW": 1017282123, "salesPercentile": 99.3}, {"sangwonCode": 3120062, "sangwonName": "신설동역", "gu": "동대문구", "lat": 37.57495056845485, "lon": 127.024497100405, "survivalProbability": 0.6326, "monthlyEstimateKRW": 396552777, "salesPercentile": 87.7}, {"sangwonCode": 3110035, "sangwonName": "동묘앞역 2번", "gu": "종로구", "lat": 37.57545610038485, "lon": 127.01923329716882, "survivalProbability": 0.6326, "monthlyEstimateKRW": 132891659, "salesPercentile": 16.4}, {"sangwonCode": 3110871, "sangwonName": "신원동주민센터", "gu": "관악구", "lat": 37.480514744310774, "lon": 126.92727965292688, "survivalProbability": 0.6326, "monthlyEstimateKRW": 136179179, "salesPercentile": 34.7}, {"sangwonCode": 3130271, "sangwonName": "남성역골목시장", "gu": "동작구", "lat": 37.483471201595435, "lon": 126.97245743842454, "survivalProbability": 0.6326, "monthlyEstimateKRW": 156967320, "salesPercentile": 47.2}, {"sangwonCode": 3110525, "sangwonName": "홍은종합사회복지관", "gu": "서대문구", "lat": 37.5950329139456, "lon": 126.94602169615612, "survivalProbability": 0.6326, "monthlyEstimateKRW": 136811607, "salesPercentile": 38.4}, {"sangwonCode": 3110825, "sangwonName": "신대방삼거리역 1번", "gu": "동작구", "lat": 37.496213046443046, "lon": 126.93188956480161, "survivalProbability": 0.6326, "monthlyEstimateKRW": 131606761, "salesPercentile": 1.7}, {"sangwonCode": 3120093, "sangwonName": "연희동", "gu": "서대문구", "lat": 37.56685943536896, "lon": 126.92999160464343, "survivalProbability": 0.6326, "monthlyEstimateKRW": 170113773, "salesPercentile": 62.7}, {"sangwonCode": 3110869, "sangwonName": "신림역 5번(신림동주민센터, 신림동별빛거리)", "gu": "관악구", "lat": 37.48705494828831, "lon": 126.92548680651547, "survivalProbability": 0.6326, "monthlyEstimateKRW": 136380237, "salesPercentile": 37.0}, {"sangwonCode": 3130273, "sangwonName": "남성사계시장(남성시장)", "gu": "동작구", "lat": 37.48822110802707, "lon": 126.98044987510083, "survivalProbability": 0.6326, "monthlyEstimateKRW": 155460524, "salesPercentile": 44.8}, {"sangwonCode": 3110528, "sangwonName": "서울여자간호대학교", "gu": "서대문구", "lat": 37.595682402161245, "lon": 126.9477423876718, "survivalProbability": 0.6326, "monthlyEstimateKRW": 132154033, "salesPercentile": 5.9}, {"sangwonCode": 3130274, "sangwonName": "사당1동먹자골목상점가(사당1동먹자골목)", "gu": "동작구", "lat": 37.47827399506724, "lon": 126.98058813497984, "survivalProbability": 0.6326, "monthlyEstimateKRW": 291676027, "salesPercentile": 77.2}, {"sangwonCode": 3120063, "sangwonName": "청량리역(청량리)", "gu": "동대문구", "lat": 37.58100711945642, "lon": 127.04780944194178, "survivalProbability": 0.6326, "monthlyEstimateKRW": 387000815, "salesPercentile": 87.3}, {"sangwonCode": 3110588, "sangwonName": "한겨레신문사", "gu": "마포구", "lat": 37.54779032700743, "lon": 126.96009915669201, "survivalProbability": 0.6326, "monthlyEstimateKRW": 132124772, "salesPercentile": 5.0}, {"sangwonCode": 3110529, "sangwonName": "홍제3동주민센터", "gu": "서대문구", "lat": 37.59255612700315, "lon": 126.94811823117305, "survivalProbability": 0.6326, "monthlyEstimateKRW": 136179179, "salesPercentile": 34.7}, {"sangwonCode": 3130277, "sangwonName": "조원동 펭귄시장(신림중앙시장)", "gu": "관악구", "lat": 37.482630091537494, "lon": 126.91114345468043, "survivalProbability": 0.6326, "monthlyEstimateKRW": 162500318, "salesPercentile": 54.0}, {"sangwonCode": 3110021, "sangwonName": "성균관대학교", "gu": "종로구", "lat": 37.58353955150116, "lon": 126.99727149747922, "survivalProbability": 0.6326, "monthlyEstimateKRW": 136114957, "salesPercentile": 34.4}, {"sangwonCode": 3110535, "sangwonName": "영천시장입구", "gu": "서대문구", "lat": 37.5693423790947, "lon": 126.96069891221296, "survivalProbability": 0.6326, "monthlyEstimateKRW": 135026264, "salesPercentile": 24.0},