{"industryCode": "CS100009", "industryName": "호프-간이주점", "dataAsOf": "2026-Q1", "survivalGranularity": "seoul_industry", "cells": [{"sangwonCode": 3110965, "sangwonName": "언주역 6번", "gu": "강남구", "lat": 37.506200754637085, "lon": 127.0378429161328, "survivalProbability": 0.6534, "monthlyEstimateKRW": 105418920, "salesPercentile": 7.7}, {"sangwonCode": 3110981, "sangwonName": "국악고교사거리", "gu": "강남구", "lat": 37.475598470393415, "lon": 127.04892926875071, "survivalProbability": 0.6534, "monthlyEstimateKRW": 148414356, "salesPercentile": 27.9}, {"sangwonCode": 3110756, "sangwonName": "문래중학교", "gu": "영등포구", "lat": 37.52289909328725, "lon": 126.88357261885149, "survivalProbability": 0.6534, "monthlyEstimateKRW": 139790823, "salesPercentile": 21.6}, {"sangwonCode": 3111030, "sangwonName": "방이역 2번", "gu": "송파구", "lat": 37.506334079138135, "lon": 127.12947590742026, "survivalProbability": 0.6534, "monthlyEstimateKRW": 98171699, "salesPercentile": 0.9}, {"sangwonCode": 3110180, "sangwonName": "광진정보도서관", "gu": "광진구", "lat": 37.54899935681124, "lon": 127.10877284422423, "survivalProbability": 0.6534, "monthlyEstimateKRW": 144749251, "salesPercentile": 24.4}, {"sangwonCode": 3110625, "sangwonName": "신정2동주민센터", "gu": "양천구", "lat": 37.518444828950926, "lon": 126.87167959095326, "survivalProbability": 0.6534, "monthlyEstimateKRW": 104534807, "salesPercentile": 7.2}, {"sangwonCode": 3110355, "sangwonName": "삼양사거리역 2번", "gu": "강북구", "lat": 37.621596021966724, "lon": 127.01815775151192, "survivalProbability": 0.6534, "monthlyEstimateKRW": 98022651, "salesPercentile": 0.4}, {"sangwonCode": 3110422, "sangwonName": "노원역 9번", "gu": "노원구", "lat": 37.65916053762221, "lon": 127.06323847595549, "survivalProbability": 0.6534, "monthlyEstimateKRW": 104739168, "salesPercentile": 7.3}, {"sangwonCode": 3110434, "sangwonName": "태릉입구역 4번", "gu": "노원구", "lat": 37.62081600933059, "lon": 127.07616433988332, "survivalProbability": 0.6534, "monthlyEstimateKRW": 126669029, "salesPercentile": 16.0}, {"sangwonCode": 3110234, "sangwonName": "중랑역 4번", "gu": "중랑구", "lat": 37.59382397632805, "lon": 127.07362308419515, "survivalProbability": 0.6534, "monthlyEstimateKRW": 179161350, "salesPercentile": 41.8}, {"sangwonCode": 3110645, "sangwonName": "우장산역 4번", "gu": "강서구", "lat": 37.55222974420196, "lon": 126.83351789025177, "survivalProbability": 0.6534, "monthlyEstimateKRW": 98022651, "salesPercentile": 0.4}, {"sangwonCode": 3110170, "sangwonName": "동대부여고", "gu": "광진구", "lat": 37.54176314249194, "lon": 127.08864379358764, "survivalProbability": 0.6534, "monthlyEstimateKRW": 108902523, "salesPercentile": 9.7}, {"sangwonCode": 3130212, "sangwonName": "공항시장", "gu": "강서구", "lat": 37.563058055832414, "lon": 126.80863843129447, "survivalProbability": 0.6534, "monthlyEstimateKRW": 146424628, "salesPercentile": 26.5}, {"sangwonCode": 3130242, "sangwonName": "대림중앙 골목형상점가", "gu": "영등포구", "lat": 37.488719696595915, "lon": 126.89846080667903, "survivalProbability": 0.6534, "monthlyEstimateKRW": 201401314, "salesPercentile": 44.1}, {"sangwonCode": 3110787, "sangwonName": "신길3동주민센터", "gu": "영등포구", "lat": 37.50674580845403, "lon": 126.90568609063068, "survivalProbability": 0.6534, "monthlyEstimateKRW": 100198876, "salesPercentile": 3.4}, {"sangwonCode": 3110875, "sangwonName": "보라매동주민센터(당곡고등학교)", "gu": "관악구", "lat": 37.488915068375626, "lon": 126.93220148830412, "survivalProbability": 0.6534, "monthlyEstimateKRW": 145099534, "salesPercentile": 25.0}, {"sangwonCode": 3110834, "sangwonName": "동작구자원봉사센터", "gu": "동작구", "lat": 37.50870822761033, "lon": 126.94589164292432, "survivalProbability": 0.6534, "monthlyEstimateKRW": 145100441, "salesPercentile": 25.2}, {"sangwonCode": 3110010, "sangwonName": "평창동서측", "gu": "종로구", "lat": 37.60936632114107, "lon": 126.96674832970702, "survivalProbability": 0.6534, "monthlyEstimateKRW": 148387398, "salesPercentile": 27.8}, {"sangwonCode": 3110029, "sangwonName": "동대문역 1번", "gu": "종로구", "lat": 37.57612392961357, "lon": 127.01057331374025, "survivalProbability": 0.6534, "monthlyEstimateKRW": 106422284, "salesPercentile": 8.4}, {"sangwonCode": 3130263, "sangwonName": "신노량진시장(기능상실)", "gu": "동작구", "lat": 37.50864204568287, "lon": 126.93947877084665, "survivalProbability": 0.6534, "monthlyEstimateKRW": 180043925, "salesPercentile": 42.0}, {"sangwonCode": 3110054, "sangwonName": "청구역 3번", "gu": "중구", "lat": 37.5567792722277, "lon": 127.0132867887912, "survivalProbability": 0.6534, "monthlyEstimateKRW": 100444400, "salesPercentile": 5.0}, {"sangwonCode": 3130172, "sangwonName": "모래내시장(서중시장)", "gu": "서대문구", "lat": 37.570057260519455, "lon": 126.91517132922482, "survivalProbability": 0.6534, "monthlyEstimateKRW": 155243244, "salesPercentile": 32.1}, {"sangwonCode": 3110784, "sangwonName": "신대림초등학교", "gu": "영등포구", "lat": 37.491895815643836, "lon": 126.90392945139324, "survivalProbability": 0.6534, "monthlyEstimateKRW": 145099534, "salesPercentile": 25.0}, {"sangwonCode": 3110327, "sangwonName": "상월곡역 2번", "gu": "성북구", "lat": 37.60873878305574, "lon": 127.049877085475, "survivalProbability": 0.6534, "monthlyEstimateKRW": 100198876, "salesPercentile": 3.4}, {"sangwonCode": 3110605, "sangwonName": "목동센트럴아이파크앞", "gu": "양천구", "lat": 37.51585721377825, "lon": 126.8406570017279, "survivalProbability": 0.6534, "monthlyEstimateKRW": 147710047, "salesPercentile": 27.2}, {"sangwonCode": 3130321, "sangwonName": "장신구 특화거리 상점가", "gu": "강동구", "lat": 37.527769269644594, "lon": 127.12917355272526, "survivalProbability": 0.6534, "monthlyEstimateKRW": 153255299, "salesPercentile": 30.3}, {"sangwonCode": 3110849, "sangwonName": "이수역 10번", "gu": "동작구", "lat": 37.48589591263276, "lon": 126.97713757819878, "survivalProbability": 0.6534, "monthlyEstimateKRW": 100248877, "salesPercentile": 3.7}, {"sangwonCode": 3110001, "sangwonName": "이북5도청사", "gu": "종로구", "lat": 37.60951658051797, "lon": 126.95766519329227, "survivalProbability": 0.6534, "monthlyEstimateKRW": 153760096, "salesPercentile": 30.8}, {"sangwonCode": 3130294, "sangwonName": "관악중부시장", "gu": "관악구", "lat": 37.48443937758363, "lon": 126.95618686302697, "survivalProbability": 0.6534, "monthlyEstimateKRW": 141273207, "salesPercentile": 22.7}, {"sangwonCode": 3120087, "sangwonName": "응암역", "gu": "은평구", "lat": 37.59869132855268, "lon": 126.91588620727673, "survivalProbability": 0.6534, "monthlyEstimateKRW": 166039231, "salesPercentile": 38.7}, {"sangwonCode": 3110033, "sangwonName": "창신역 4번", "gu": "종로구", "lat": 37.57760986925303, "lon": 127.01665273399279, "survivalProbability": 0.6534, "monthlyEstimateKRW": 104888216, "salesPercentile": 7.4}, {"sangwonCode": 3130107, "sangwonName": "중랑동부시장(중랑교종합상가)", "gu": "중랑구", "lat": 37.59298373151954, "lon": 127.07725694432641, "survivalProbability": 0.6534, "monthlyEstimateKRW": 243079957, "salesPercentile": 48.8}, {"sangwonCode": 3110350, "sangwonName": "가오리역 2번", "gu": "강북구", "lat": 37.63947200306674, "lon": 127.01521628317677, "survivalProbability": 0.6534, "monthlyEstimateKRW": 110358522, "salesPercentile": 10.6}, {"sangwonCode": 3130326, "sangwonName": "고덕 골목형상점가", "gu": "강동구", "lat": 37.557757026392, "lon": 127.1698783903421, "survivalProbability": 0.6534, "monthlyEstimateKRW": 210454681, "salesPercentile": 46.1}, {"sangwonCode": 3120214, "sangwonName": "영동대교남단교차로", "gu": "강남구", "lat": 37.52405199944059, "lon": 127.05479819195304, "survivalProbability": 0.6534, "monthlyEstimateKRW": 196088102, "salesPercentile": 43.3}, {"sangwonCode": 3111073, "sangwonName": "둔촌동역 1번(한산중학교)", "gu": "강동구", "lat": 37.53115405950385, "lon": 127.13970109005331, "survivalProbability": 0.6534, "monthlyEstimateKRW": 256415113, "salesPercentile": 51.7}, {"sangwonCode": 3111074, "sangwonName": "명일역 1번", "gu": "강동구", "lat": 37.55128181237798, "lon": 127.14018000099055, "survivalProbability": 0.6534, "monthlyEstimateKRW": 128000913, "salesPercentile": 17.3}, {"sangwonCode": 3110291, "sangwonName": "한성대입구역 3번", "gu": "성북구", "lat": 37.58566550742506, "lon": 127.00995195817097, "survivalProbability": 0.6534, "monthlyEstimateKRW": 277083050, "salesPercentile": 57.6}, {"sangwonCode": 3120213, "sangwonName": "삼성중앙역", "gu": "강남구", "lat": 37.51155556604917, "lon": 127.05374846991917, "survivalProbability": 0.6534, "monthlyEstimateKRW": 1622941560, "salesPercentile": 93.4}, {"sangwonCode": 3110702, "sangwonName": "개봉초등학교", "gu": "구로구", "lat": 37.48854391817313, "lon": 126.85889705315547, "survivalProbability": 0.6534, "monthlyEstimateKRW": 107985958, "salesPercentile": 9.4}, {"sangwonCode": 3111075, "sangwonName": "굽은다리역 2번", "gu": "강동구", "lat": 37.548667873482714, "lon": 127.14105777722531, "survivalProbability": 0.6534, "monthlyEstimateKRW": 98729144, "salesPercentile": 1.4}, {"sangwonCode": 3120215, "sangwonName": "포스코사거리", "gu": "강남구", "lat": 37.50682411890163, "lon": 127.05626720528876, "survivalProbability": 0.6534, "monthlyEstimateKRW": 2303416131, "salesPercentile": 98.2}, {"sangwonCode": 3110699, "sangwonName": "덕의초등학교", "gu": "구로구", "lat": 37.506136184220836, "lon": 126.85527871714595, "survivalProbability": 0.6534, "monthlyEstimateKRW": 127137257, "salesPercentile": 16.4}, {"sangwonCode": 3110286, "sangwonName": "한성대입구역 5번", "gu": "성북구", "lat": 37.58981045467751, "lon": 127.00302311738922, "survivalProbability": 0.6534, "monthlyEstimateKRW": 100030429, "salesPercentile": 2.5}, {"sangwonCode": 3110294, "sangwonName": "서경대학교", "gu": "성북구", "lat": 37.61092006857486, "lon": 127.01227709840207, "survivalProbability": 0.6534, "monthlyEstimateKRW": 120424823, "salesPercentile": 13.2}, {"sangwonCode": 3111076, "sangwonName": "둔촌2동주민센터", "gu": "강동구", "lat": 37.53356458912888, "lon": 127.14316767622354, "survivalProbability": 0.6534, "monthlyEstimateKRW": 181282032, "salesPercentile": 42.2}, {"sangwonCode": 3120212, "sangwonName": "한티역", "gu": "강남구", "lat": 37.49742786864853, "lon": 127.05360263990124, "survivalProbability": 0.6534, "monthlyEstimateKRW": 614214952, "salesPercentile": 77.9}, {"sangwonCode": 3111072, "sangwonName": "굽은다리역 1번(십자성마을)", "gu": "강동구", "lat": 37.54295769170239, "lon": 127.1392478634447, "survivalProbability": 0.6534, "monthlyEstimateKRW": 100049828, "salesPercentile": 2.9}, {"sangwonCode": 3120216, "sangwonName": "경기고교사거리(경기고교앞사거리)", "gu": "강남구", "lat": 37.52075347208421, "lon": 127.05661702641068, "survivalProbability": 0.6534, "monthlyEstimateKRW": 168455507, "salesPercentile": 39.3}, {"sangwonCode": 3110282, "sangwonName": "국민대학교앞", "gu": "성북구", "lat": 37.607866347041465, "lon": 126.99879952100844, "survivalProbability": 0.6534, "monthlyEstimateKRW": 215352152, "salesPercentile": 46.5}, {"sangwonCode": 3110295, "sangwonName": "정릉우체국", "gu": "성북구", "lat": 37.606910650147945, "lon": 127.01242366605265, "survivalProbability": 0.6534, "monthlyEstimateKRW": 106859068, "salesPercentile": 8.6}, {"sangwonCode": 3110703, "sangwonName": "개봉역", "gu": "구로구", "lat": 37.495184430322844, "lon": 126.85897502647666, "survivalProbability": 0.6534, "monthlyEstimateKRW": 214461945, "salesPercentile": 46.4}, {"sangwonCode": 3110698, "sangwonName": "개웅초등학교(개웅중학교)", "gu": "구로구", "lat": 37.48845594025623, "lon": 126.85324361249401, "survivalProbability": 0.6534, "monthlyEstimateKRW": 174901634, "salesPercentile": 41.3}, {"sangwonCode": 3120217, "sangwonName": "대치사거리", "gu": "강남구", "lat": 37.503038855171134, "lon": 127.05841315411669, "survivalProbability": 0.6534, "monthlyEstimateKRW": 233386547, "salesPercentile": 48.1}, {"sangwonCode": 3110278, "sangwonName": "망우본동주민센터", "gu": "중랑구", "lat": 37.60150500683647, "lon": 127.10352681954076, "survivalProbability": 0.6534, "monthlyEstimateKRW": 282705845, "salesPercentile": 59.4}, {"sangwonCode": 3120211, "sangwonName": "도성초등학교", "gu": "강남구", "lat": 37.50063596235816, "lon": 127.05246271839206, "survivalProbability": 0.6534, "monthlyEstimateKRW": 118086986, "salesPercentile": 12.1}, {"sangwonCode": 3120210, "sangwonName": "선릉역", "gu": "강남구", "lat": 37.50461073634166, "lon": 127.04935534409961, "survivalProbability": 0.6534, "monthlyEstimateKRW": 2236705266, "salesPercentile": 97.5}, {"sangwonCode": 3111077, "sangwonName": "길동주민센터(강동도서관)", "gu": "강동구", "lat": 37.537195500867774, "lon": 127.14326513418865, "survivalProbability": 0.6534, "monthlyEstimateKRW": 333418405, "salesPercentile": 63.6}, {"sangwonCode": 3110297, "sangwonName": "경동고등학교", "gu": "성북구", "lat": 37.588205872807336, "lon": 127.01419815660745, "survivalProbability": 0.6534, "monthlyEstimateKRW": 132985105, "salesPercentile": 18.5}, {"sangwonCode": 3110277, "sangwonName": "러스크서울병원", "gu": "중랑구", "lat": 37.598874850037376, "lon": 127.10268520613624, "survivalProbability": 0.6534, "monthlyEstimateKRW": 112779504, "salesPercentile": 11.3}, {"sangwonCode": 3110706, "sangwonName": "그라운드 고척", "gu": "구로구", "lat": 37.501246978346835, "lon": 126.86565863686842, "survivalProbability": 0.6534, "monthlyEstimateKRW": 575695161, "salesPercentile": 75.0}, {"sangwonCode": 3111067, "sangwonName": "강동구립성내도서관", "gu": "강동구", "lat": 37.531988464913475, "lon": 127.13498479934741, "survivalProbability": 0.6534, "monthlyEstimateKRW": 325264689, "salesPercentile": 62.7}, {"sangwonCode": 3111068, "sangwonName": "강동성심병원", "gu": "강동구", "lat": 37.53591641659651, "lon": 127.13534262472469, "survivalProbability": 0.6534, "monthlyEstimateKRW": 153285684, "salesPercentile": 30.5}, {"sangwonCode": 3110275, "sangwonName": "하나은행 망우동지점", "gu": "중랑구", "lat": 37.59829174113322, "lon": 127.0997288883947, "survivalProbability": 0.6534, "monthlyEstimateKRW": 369811111, "salesPercentile": 66.6}, {"sangwonCode": 3120219, "sangwonName": "은마아파트", "gu": "강남구", "lat": 37.49884807441995, "lon": 127.06060379417535, "survivalProbability": 0.6534, "monthlyEstimateKRW": 287288143, "salesPercentile": 60.7}, {"sangwonCode": 3110695, "sangwonName": "개봉1동주민센터", "gu": "구로구", "lat": 37.50051860479138, "lon": 126.8517950693802, "survivalProbability": 0.6534, "monthlyEstimateKRW": 332248113, "salesPercentile": 63.5}, {"sangwonCode": 3110299, "sangwonName": "정릉역 1번", "gu": "성북구", "lat": 37.60190042877038, "lon": 127.01798309800381, "survivalProbability": 0.6534, "monthlyEstimateKRW": 269869259, "salesPercentile": 54.3}, {"sangwonCode": 3110707, "sangwonName": "구로창업지원센터", "gu": "구로구", "lat": 37.50981240722824, "lon": 126.87946463909495, "survivalProbability": 0.6534, "monthlyEstimateKRW": 154753472, "salesPercentile": 31.7}, {"sangwonCode": 3120209, "sangwonName": "강남구청(청담역_8번, 강남세무서)", "gu": "강남구", "lat": 37.51874742762321, "lon": 127.04951170686684, "survivalProbability": 0.6534, "monthlyEstimateKRW": 164926922, "salesPercentile": 38.5}, {"sangwonCode": 3111066, "sangwonName": "암사동성당(효정하나플러스아파트)", "gu": "강동구", "lat": 37.54923425244234, "lon": 127.1344048084421, "survivalProbability": 0.6534, "monthlyEstimateKRW": 274559215, "salesPercentile": 56.9}, {"sangwonCode": 3110708, "sangwonName": "화원어린이공원", "gu": "구로구", "lat": 37.49791195977646, "lon": 126.88127053475066, "survivalProbability": 0.6534, "monthlyEstimateKRW": 125260293, "salesPercentile": 14.9}, {"sangwonCode": 3120220, "sangwonName": "대치역", "gu": "강남구", "lat": 37.494188996315316, "lon": 127.06228493383824, "survivalProbability": 0.6534, "monthlyEstimateKRW": 156202437, "salesPercentile": 33.4}, {"sangwonCode": 3110300, "sangwonName": "삼선동주민센터", "gu": "성북구", "lat": 37.58927728633153, "lon": 127.01956520434038, "survivalProbability": 0.6534, "monthlyEstimateKRW": 278227417, "salesPercentile": 58.0}, {"sangwonCode": 3110273, "sangwonName": "장스여성병원", "gu": "중랑구", "lat": 37.600581092452465, "lon": 127.09873541769939, "survivalProbability": 0.6534, "monthlyEstimateKRW": 370451590, "salesPercentile": 66.7}, {"sangwonCode": 3111078, "sangwonName": "굽은다리역 4번", "gu": "강동구", "lat": 37.54284297310578, "lon": 127.14473562941309, "survivalProbability": 0.6534, "monthlyEstimateKRW": 417508424, "salesPercentile": 70.4}, {"sangwonCode": 3110709, "sangwonName": "구로119안전센터", "gu": "구로구", "lat": 37.49392980227567, "lon": 126.88155953983662, "survivalProbability": 0.6534, "monthlyEstimateKRW": 273144488, "salesPercentile": 55.8}, {"sangwonCode": 3120208, "sangwonName": "청담사거리(청담동명품거리)", "gu": "강남구", "lat": 37.524829939190084, "lon": 127.04770569306329, "survivalProbability": 0.6534, "monthlyEstimateKRW": 1311357899, "salesPercentile": 86.2}, {"sangwonCode": 3120221, "sangwonName": "봉은사역", "gu": "강남구", "lat": 37.51446155948791, "lon": 127.06239226670147, "survivalProbability": 0.6534, "monthlyEstimateKRW": 580657772, "salesPercentile": 75.2}, {"sangwonCode": 3110301, "sangwonName": "성신여대입구역 7번", "gu": "성북구", "lat": 37.59585472017824, "lon": 127.01836664037195, "survivalProbability": 0.6534, "monthlyEstimateKRW": 154341243, "salesPercentile": 31.5}, {"sangwonCode": 3110272, "sangwonName": "신내1동주민센터", "gu": "중랑구", "lat": 37.60615847906632, "lon": 127.09842568909319, "survivalProbability": 0.6534, "monthlyEstimateKRW": 395438560, "salesPercentile": 68.5}, {"sangwonCode": 3110302, "sangwonName": "보문역 8번", "gu": "성북구", "lat": 37.58356504559915, "lon": 127.01923538316017, "survivalProbability": 0.6534, "monthlyEstimateKRW": 144566993, "salesPercentile": 23.9}, {"sangwonCode": 3110694, "sangwonName": "세곡초등학교", "gu": "구로구", "lat": 37.50475669640574, "lon": 126.84736461127714, "survivalProbability": 0.6534, "monthlyEstimateKRW": 279297641, "salesPercentile": 58.5}, {"sangwonCode": 3120222, "sangwonName": "삼성역", "gu": "강남구", "lat": 37.508667696206736, "lon": 127.06315654228577, "survivalProbability": 0.6534, "monthlyEstimateKRW": 247717525, "salesPercentile": 49.1}, {"sangwonCode": 3111063, "sangwonName": "강동구립 천호도서관", "gu": "강동구", "lat": 37.54009151114284, "lon": 127.13228380422073, "survivalProbability": 0.6534, "monthlyEstimateKRW": 269584471, "salesPercentile": 53.9}, {"sangwonCode": 3120207, "sangwonName": "선정릉역", "gu": "강남구", "lat": 37.511468934172726, "lon": 127.04549160322158, "survivalProbability": 0.6534, "monthlyEstimateKRW": 632614651, "salesPercentile": 79.0}, {"sangwonCode": 3110303, "sangwonName": "성신여대입구역 1번", "gu": "성북구", "lat": 37.59415138795524, "lon": 127.02110643481099, "survivalProbability": 0.6534, "monthlyEstimateKRW": 110408291, "salesPercentile": 10.7}, {"sangwonCode": 3111062, "sangwonName": "둔촌동역 3번(성내3동주민센터)", "gu": "강동구", "lat": 37.5243968073635, "lon": 127.13163389250455, "survivalProbability": 0.6534, "monthlyEstimateKRW": 100459529, "salesPercentile": 5.3}, {"sangwonCode": 3110270, "sangwonName": "혜원여고", "gu": "중랑구", "lat": 37.59177960411285, "lon": 127.09729711212769, "survivalProbability": 0.6534, "monthlyEstimateKRW": 192136263, "salesPercentile": 43.1}, {"sangwonCode": 3110710, "sangwonName": "남구로역 3번", "gu": "구로구", "lat": 37.486886294270526, "lon": 126.88394512624056, "survivalProbability": 0.6534, "monthlyEstimateKRW": 705545464, "salesPercentile": 80.6}, {"sangwonCode": 3110305, "sangwonName": "보문역 5번", "gu": "성북구", "lat": 37.58440245928824, "lon": 127.02214528008177, "survivalProbability": 0.6534, "monthlyEstimateKRW": 100397925, "salesPercentile": 4.5}, {"sangwonCode": 3110269, "sangwonName": "용마문화복지센터", "gu": "중랑구", "lat": 37.5882316079015, "lon": 127.09494877873335, "survivalProbability": 0.6534, "monthlyEstimateKRW": 135543773, "salesPercentile": 19.6}, {"sangwonCode": 3111083, "sangwonName": "GS강동자이아파트", "gu": "강동구", "lat": 37.538289959838245, "lon": 127.14713686672866, "survivalProbability": 0.6534, "monthlyEstimateKRW": 157675421, "salesPercentile": 34.9}, {"sangwonCode": 3111061, "sangwonName": "암사역 1번", "gu": "강동구", "lat": 37.55185075538313, "lon": 127.13119554025, "survivalProbability": 0.6534, "monthlyEstimateKRW": 327872066, "salesPercentile": 62.9}, {"sangwonCode": 3120206, "sangwonName": "개나리아파트", "gu": "강남구", "lat": 37.49725157451181, "lon": 127.04415987749276, "survivalProbability": 0.6534, "monthlyEstimateKRW": 126570507, "salesPercentile": 15.7}, {"sangwonCode": 3110306, "sangwonName": "미아초등학교", "gu": "성북구", "lat": 37.6085309312644, "lon": 127.02254882002873, "survivalProbability": 0.6534, "monthlyEstimateKRW": 144566993, "salesPercentile": 23.9}, {"sangwonCode": 3120224, "sangwonName": "수서역", "gu": "강남구", "lat": 37.487781357677065, "lon": 127.10303046246761, "survivalProbability": 0.6534, "monthlyEstimateKRW": 674060523, "salesPercentile": 80.0}, {"sangwonCode": 3110307, "sangwonName": "길음역 7번", "gu": "성북구", "lat": 37.60415200470216, "lon": 127.02314770784841, "survivalProbability": 0.6534, "monthlyEstimateKRW": 141182992, "salesPercentile": 22.3}, {"sangwonCode": 3110691, "sangwonName": "개봉중학교", "gu": "구로구", "lat": 37.50249143401964, "lon": 126.84449665369102, "survivalProbability": 0.6534, "monthlyEstimateKRW": 162006242, "salesPercentile": 37.8}, {"sangwonCode": 3110267, "sangwonName": "망우역 2번", "gu": "중랑구", "lat": 37.60077772897528, "lon": 127.08941586511447, "survivalProbability": 0.6534, "monthlyEstimateKRW": 105280289, "salesPercentile": 7.6}, {"sangwonCode": 3120205, "sangwonName": "매봉역", "gu": "강남구", "lat": 37.48435825746537, "lon": 127.04389223582503, "survivalProbability": 0.6534, "monthlyEstimateKRW": 824566775, "salesPercentile": 81.3}, {"sangwonCode": 3110711, "sangwonName": "구로초등학교", "gu": "구로구", "lat": 37.49662631952319, "lon": 126.88408837350633, "survivalProbability": 0.6534, "monthlyEstimateKRW": 273144488, "salesPercentile": 55.8}, {"sangwonCode": 3110266, "sangwonName": "면목동우체국", "gu": "중랑구", "lat": 37.5831706467708, "lon": 127.09163646470414, "survivalProbability": 0.6534, "monthlyEstimateKRW": 111436989, "salesPercentile": 11.2}, {"sangwonCode": 3111085, "sangwonName": "묘곡초등학교(고덕아이파크아파트)", "gu": "강동구", "lat": 37.56094142583823, "lon": 127.1539043851388, "survivalProbability": 0.6534, "monthlyEstimateKRW": 169528327, "salesPercentile": 39.6}, {"sangwonCode": 3110690, "sangwonName": "오류2동버들시장", "gu": "구로구", "lat": 37.49227211395636, "lon": 126.84304783057685, "survivalProbability": 0.6534, "monthlyEstimateKRW": 273342222, "salesPercentile": 56.0}, {"sangwonCode": 3120225, "sangwonName": "잠실새내역(신천)", "gu": "송파구", "lat": 37.51048475437836, "lon": 127.0825782728224, "survivalProbability": 0.6534, "monthlyEstimateKRW": 2318904074, "salesPercentile": 99.1}, {"sangwonCode": 3111060, "sangwonName": "암사역 2번(서울강동초등학교)", "gu": "강동구", "lat": 37.54699551295604, "lon": 127.13016858602187, "survivalProbability": 0.6534, "monthlyEstimateKRW": 465832375, "salesPercentile": 71.5}, {"sangwonCode": 3110312, "sangwonName": "안암역 2번", "gu": "성북구", "lat": 37.58868967882518, "lon": 127.0290871611702, "survivalProbability": 0.6534, "monthlyEstimateKRW": 158365232, "salesPercentile": 35.1}, {"sangwonCode": 3110265, "sangwonName": "망우역 1번", "gu": "중랑구", "lat": 37.59935166722568, "lon": 127.0926528164819, "survivalProbability": 0.6534, "monthlyEstimateKRW": 193276178, "salesPercentile": 43.2}, {"sangwonCode": 3120204, "sangwonName": "르네상스호텔사거리", "gu": "강남구", "lat": 37.50309058777553, "lon": 127.04281749442562, "survivalProbability": 0.6534, "monthlyEstimateKRW": 602687347, "salesPercentile": 76.8}, {"sangwonCode": 3110313, "sangwonName": "안암역 3번", "gu": "성북구", "lat": 37.58398634417268, "lon": 127.02969670042593, "survivalProbability": 0.6534, "monthlyEstimateKRW": 1125127021, "salesPercentile": 83.4}, {"sangwonCode": 3120226, "sangwonName": "석촌고분역", "gu": "송파구", "lat": 37.5033197760243, "lon": 127.09704648858848, "survivalProbability": 0.6534, "monthlyEstimateKRW": 334666601, "salesPercentile": 63.9}, {"sangwonCode": 3110264, "sangwonName": "면목역 2번", "gu": "중랑구", "lat": 37.58726118530816, "lon": 127.09159619054651, "survivalProbability": 0.6534, "monthlyEstimateKRW": 741995046, "salesPercentile": 81.0}, {"sangwonCode": 3111086, "sangwonName": "한영중고", "gu": "강동구", "lat": 37.5479481533716, "lon": 127.15459058686204, "survivalProbability": 0.6534, "monthlyEstimateKRW": 134112051, "salesPercentile": 19.0}, {"sangwonCode": 3120203, "sangwonName": "강남구청역", "gu": "강남구", "lat": 37.51624600772093, "lon": 127.04068715258765, "survivalProbability": 0.6534, "monthlyEstimateKRW": 1587925079, "salesPercentile": 93.3}, {"sangwonCode": 3110712, "sangwonName": "남구로역 5번", "gu": "구로구", "lat": 37.487447465830186, "lon": 126.88656749689855, "survivalProbability": 0.6534, "monthlyEstimateKRW": 502030830, "salesPercentile": 72.3}, {"sangwonCode": 3111059, "sangwonName": "강동역 4번(강풀만화거리)", "gu": "강동구", "lat": 37.533876788109865, "lon": 127.13032680682069, "survivalProbability": 0.6534, "monthlyEstimateKRW": 407920098, "salesPercentile": 69.5}, {"sangwonCode": 3120227, "sangwonName": "잠실역", "gu": "송파구", "lat": 37.51398412500385, "lon": 127.10126801274058, "survivalProbability": 0.6534, "monthlyEstimateKRW": 599376099, "salesPercentile": 76.6}, {"sangwonCode": 3110263, "sangwonName": "면목역 1번", "gu": "중랑구", "lat": 37.59178551911678, "lon": 127.08983537331045, "survivalProbability": 0.6534, "monthlyEstimateKRW": 109619303, "salesPercentile": 10.0}, {"sangwonCode": 3111088, "sangwonName": "고덕동성당", "gu": "강동구", "lat": 37.559955368246186, "lon": 127.16993997135829, "survivalProbability": 0.6534, "monthlyEstimateKRW": 160808540, "salesPercentile": 37.4}, {"sangwonCode": 3110314, "sangwonName": "종암경찰서", "gu": "성북구", "lat": 37.60114052292245, "lon": 127.03238736566581, "survivalProbability": 0.6534, "monthlyEstimateKRW": 292060694, "salesPercentile": 61.4}, {"sangwonCode": 3110262, "sangwonName": "상봉역 3번", "gu": "중랑구", "lat": 37.5943810926847, "lon": 127.08888734246219, "survivalProbability": 0.6534, "monthlyEstimateKRW": 1240709596, "salesPercentile": 84.3}, {"sangwonCode": 3120202, "sangwonName": "압구정로데오역(압구정로데오)", "gu": "강남구", "lat": 37.526769907891094, "lon": 127.04013853060529, "survivalProbability": 0.6534, "monthlyEstimateKRW": 1812126571, "salesPercentile": 94.8}, {"sangwonCode": 3110261, "sangwonName": "사가정역 4번", "gu": "중랑구", "lat": 37.57810062863918, "lon": 127.08825666448381, "survivalProbability": 0.6534, "monthlyEstimateKRW": 109951934, "salesPercentile": 10.5}, {"sangwonCode": 3120228, "sangwonName": "석촌역(석촌호수)", "gu": "송파구", "lat": 37.50602362134798, "lon": 127.1065389661683, "survivalProbability": 0.6534, "monthlyEstimateKRW": 905969314, "salesPercentile": 82.1}, {"sangwonCode": 3111057, "sangwonName": "천호공원(해공체육문화센터)", "gu": "강동구", "lat": 37.54332876710307, "lon": 127.12987932321663, "survivalProbability": 0.6534, "monthlyEstimateKRW": 152723593, "salesPercentile": 29.7}, {"sangwonCode": 3120201, "sangwonName": "도곡1동", "gu": "강남구", "lat": 37.49256784501679, "lon": 127.03992798739, "survivalProbability": 0.6534, "monthlyEstimateKRW": 201614095, "salesPercentile": 44.2}, {"sangwonCode": 3110260, "sangwonName": "면목역 3번", "gu": "중랑구", "lat": 37.58958078442301, "lon": 127.08622084620522, "survivalProbability": 0.6534, "monthlyEstimateKRW": 108459253, "salesPercentile": 9.5}, {"sangwonCode": 3111089, "sangwonName": "상일여고(상일초등학교)", "gu": "강동구", "lat": 37.54811423179494, "lon": 127.17135024456684, "survivalProbability": 0.6534, "monthlyEstimateKRW": 465803792, "salesPercentile": 71.4}, {"sangwonCode": 3110713, "sangwonName": "구로보건소", "gu": "구로구", "lat": 37.50126053635339, "lon": 126.88723646192494, "survivalProbability": 0.6534, "monthlyEstimateKRW": 405294527, "salesPercentile": 69.3}, {"sangwonCode": 3120229, "sangwonName": "방이동먹자골목", "gu": "송파구", "lat": 37.51438248056646, "lon": 127.10923158441152, "survivalProbability": 0.6534, "monthlyEstimateKRW": 2318745353, "salesPercentile": 98.7}, {"sangwonCode": 3110686, "sangwonName": "수궁동주민센터", "gu": "구로구", "lat": 37.494638620747644, "lon": 126.83415467880374, "survivalProbability": 0.6534, "monthlyEstimateKRW": 134429855, "salesPercentile": 19.2}, {"sangwonCode": 3110316, "sangwonName": "숭곡초등학교", "gu": "성북구", "lat": 37.60814966101142, "lon": 127.03438366024915, "survivalProbability": 0.6534, "monthlyEstimateKRW": 100188977, "salesPercentile": 3.2}, {"sangwonCode": 3110259, "sangwonName": "사가정역 1번", "gu": "중랑구", "lat": 37.582264812341826, "lon": 127.08609919438236, "survivalProbability": 0.6534, "monthlyEstimateKRW": 379538224, "salesPercentile": 67.3}, {"sangwonCode": 3120200, "sangwonName": "학동사거리", "gu": "강남구", "lat": 37.523085143438166, "lon": 127.03914106133051, "survivalProbability": 0.6534, "monthlyEstimateKRW": 1856308385, "salesPercentile": 95.3}, {"sangwonCode": 3120230, "sangwonName": "송파사거리(송파역)", "gu": "송파구", "lat": 37.50111869275051, "lon": 127.11030924458171, "survivalProbability": 0.6534, "monthlyEstimateKRW": 617907084, "salesPercentile": 78.5}, {"sangwonCode": 3110258, "sangwonName": "면동초등학교", "gu": "중랑구", "lat": 37.58630144712347, "lon": 127.08584343751289, "survivalProbability": 0.6534, "monthlyEstimateKRW": 261092169, "salesPercentile": 53.0}, {"sangwonCode": 3120231, "sangwonName": "가락시장", "gu": "송파구", "lat": 37.49354890241443, "lon": 127.11173422450942, "survivalProbability": 0.6534, "monthlyEstimateKRW": 636487373, "salesPercentile": 79.2}, {"sangwonCode": 3120199, "sangwonName": "경복아파트교차로", "gu": "강남구", "lat": 37.50799337531318, "lon": 127.03900876827589, "survivalProbability": 0.6534, "monthlyEstimateKRW": 333534485, "salesPercentile": 63.8}, {"sangwonCode": 3110319, "sangwonName": "종암동주민센터", "gu": "성북구", "lat": 37.59923839992779, "lon": 127.03595359013545, "survivalProbability": 0.6534, "monthlyEstimateKRW": 146150303, "salesPercentile": 26.2}, {"sangwonCode": 3110256, "sangwonName": "면목2동체육관", "gu": "중랑구", "lat": 37.589871676851374, "lon": 127.0826206130532, "survivalProbability": 0.6534, "monthlyEstimateKRW": 99989928, "salesPercentile": 2.3}, {"sangwonCode": 3111052, "sangwonName": "암사역 3번(천호동자전거거리)", "gu": "강동구", "lat": 37.54790198936116, "lon": 127.12510051019554, "survivalProbability": 0.6534, "monthlyEstimateKRW": 159588392, "salesPercentile": 36.9}, {"sangwonCode": 3120198, "sangwonName": "구역삼세무서", "gu": "강남구", "lat": 37.49553304713569, "lon": 127.03720426859347, "survivalProbability": 0.6534, "monthlyEstimateKRW": 1317792830, "salesPercentile": 86.5}, {"sangwonCode": 3120232, "sangwonName": "송파나루역", "gu": "송파구", "lat": 37.51012711047405, "lon": 127.11204169365998, "survivalProbability": 0.6534, "monthlyEstimateKRW": 357330052, "salesPercentile": 65.6}, {"sangwonCode": 3110681, "sangwonName": "온수역 1번", "gu": "구로구", "lat": 37.491895234309894, "lon": 126.82491102406816, "survivalProbability": 0.6534, "monthlyEstimateKRW": 147710047, "salesPercentile": 27.2}, {"sangwonCode": 3110322, "sangwonName": "장위1동주민센터", "gu": "성북구", "lat": 37.61519300306757, "lon": 127.04179435821293, "survivalProbability": 0.6534, "monthlyEstimateKRW": 100444400, "salesPercentile": 5.0}, {"sangwonCode": 3110680, "sangwonName": "온수역 5번(온수산업단지)", "gu": "구로구", "lat": 37.49311994948703, "lon": 126.8185078878857, "survivalProbability": 0.6534, "monthlyEstimateKRW": 144566993, "salesPercentile": 23.9}, {"sangwonCode": 3110714, "sangwonName": "구로4동주민센터", "gu": "구로구", "lat": 37.49132429193936, "lon": 126.88919631652536, "survivalProbability": 0.6534, "monthlyEstimateKRW": 394645969, "salesPercentile": 68.4}, {"sangwonCode": 3120001, "sangwonName": "서대문역", "gu": "종로구", "lat": 37.566677102939934, "lon": 126.96608817274021, "survivalProbability": 0.6534, "monthlyEstimateKRW": 1399396444, "salesPercentile": 89.1}, {"sangwonCode": 3120233, "sangwonName": "몽촌토성역", "gu": "송파구", "lat": 37.51596426713219, "lon": 127.11345302908573, "survivalProbability": 0.6534, "monthlyEstimateKRW": 323588668, "salesPercentile": 62.6}, {"sangwonCode": 3110255, "sangwonName": "상봉역 4번", "gu": "중랑구", "lat": 37.593691768235416, "lon": 127.0827833599205, "survivalProbability": 0.6534, "monthlyEstimateKRW": 254345039, "salesPercentile": 50.1}, {"sangwonCode": 3110323, "sangwonName": "상월곡역 1번", "gu": "성북구", "lat": 37.605821668355986, "lon": 127.04465432991722, "survivalProbability": 0.6534, "monthlyEstimateKRW": 416714152, "salesPercentile": 70.2}, {"sangwonCode": 3120197, "sangwonName": "역삼역", "gu": "강남구", "lat": 37.500398869563554, "lon": 127.03595138126002, "survivalProbability": 0.6534, "monthlyEstimateKRW": 2318895923, "salesPercentile": 98.9}, {"sangwonCode": 3111051, "sangwonName": "천호역 6번", "gu": "강동구", "lat": 37.53472111071503, "lon": 127.1243996374976, "survivalProbability": 0.6534, "monthlyEstimateKRW": 328019745, "salesPercentile": 63.0}, {"sangwonCode": 3110325, "sangwonName": "장곡초등학교", "gu": "성북구", "lat": 37.6169032997047, "lon": 127.04604280668192, "survivalProbability": 0.6534, "monthlyEstimateKRW": 159411711, "salesPercentile": 36.5}, {"sangwonCode": 3110254, "sangwonName": "오거리공원", "gu": "중랑구", "lat": 37.57668988738031, "lon": 127.08299094516109, "survivalProbability": 0.6534, "monthlyEstimateKRW": 337809126, "salesPercentile": 64.1}, {"sangwonCode": 3120234, "sangwonName": "가락시장역", "gu": "송파구", "lat": 37.494695372813744, "lon": 127.11872437303792, "survivalProbability": 0.6534, "monthlyEstimateKRW": 1886107299, "salesPercentile": 95.5}, {"sangwonCode": 3110675, "sangwonName": "화곡4동주민센터", "gu": "강서구", "lat": 37.53623598406385, "lon": 126.86053834758106, "survivalProbability": 0.6534, "monthlyEstimateKRW": 100039929, "salesPercentile": 2.6}, {"sangwonCode": 3110716, "sangwonName": "구로나눔길", "gu": "구로구", "lat": 37.49390980603042, "lon": 126.88879671563531, "survivalProbability": 0.6534, "monthlyEstimateKRW": 262290960, "salesPercentile": 53.5}, {"sangwonCode": 3111049, "sangwonName": "천호지구대(천호동자전거거리)", "gu": "강동구", "lat": 37.54358791690794, "lon": 127.12347517955997, "survivalProbability": 0.6534, "monthlyEstimateKRW": 143446484, "salesPercentile": 23.4}, {"sangwonCode": 3120002, "sangwonName": "서촌(경복궁역)", "gu": "종로구", "lat": 37.579283529870374, "lon": 126.97182217376677, "survivalProbability": 0.6534, "monthlyEstimateKRW": 1304923302, "salesPercentile": 86.1}, {"sangwonCode": 3110329, "sangwonName": "우리은행체육관", "gu": "성북구", "lat": 37.61627862322277, "lon": 127.05316682029753, "survivalProbability": 0.6534, "monthlyEstimateKRW": 151972494, "salesPercentile": 29.4}, {"sangwonCode": 3120235, "sangwonName": "문정역", "gu": "송파구", "lat": 37.48551288001509, "lon": 127.11994227871679, "survivalProbability": 0.6534, "monthlyEstimateKRW": 1022304053, "salesPercentile": 82.6}, {"sangwonCode": 3120196, "sangwonName": "서울세관", "gu": "강남구", "lat": 37.515328702568155, "lon": 127.03534773317885, "survivalProbability": 0.6534, "monthlyEstimateKRW": 734454460, "salesPercentile": 80.9}, {"sangwonCode": 3110253, "sangwonName": "중곡초등학교", "gu": "중랑구", "lat": 37.57314927575237, "lon": 127.08256817561062, "survivalProbability": 0.6534, "monthlyEstimateKRW": 130726926, "salesPercentile": 18.0}, {"sangwonCode": 3110330, "sangwonName": "돌곶이역 1번", "gu": "성북구", "lat": 37.61062895729644, "lon": 127.05419343609921, "survivalProbability": 0.6534, "monthlyEstimateKRW": 103865197, "salesPercentile": 6.6}, {"sangwonCode": 3111048, "sangwonName": "천호역 1번(천호문구완구거리)", "gu": "강동구", "lat": 37.54091418243181, "lon": 127.12132089509707, "survivalProbability": 0.6534, "monthlyEstimateKRW": 100547787, "salesPercentile": 5.6}, {"sangwonCode": 3110252, "sangwonName": "장안제일시장", "gu": "중랑구", "lat": 37.58527730400473, "lon": 127.0816305342528, "survivalProbability": 0.6534, "monthlyEstimateKRW": 98300827, "salesPercentile": 1.0}, {"sangwonCode": 3120195, "sangwonName": "성수대교남단", "gu": "강남구", "lat": 37.527672703247156, "lon": 127.03445981915029, "survivalProbability": 0.6534, "monthlyEstimateKRW": 1283869807, "salesPercentile": 85.3}, {"sangwonCode": 3110673, "sangwonName": "뜸부기어린이공원", "gu": "강서구", "lat": 37.53041452973515, "lon": 126.85970067142665, "survivalProbability": 0.6534, "monthlyEstimateKRW": 141814628, "salesPercentile": 23.0}, {"sangwonCode": 3111047, "sangwonName": "마천1치안센터", "gu": "송파구", "lat": 37.49657030635304, "lon": 127.15665583665135, "survivalProbability": 0.6534, "monthlyEstimateKRW": 126746450, "salesPercentile": 16.2}, {"sangwonCode": 3110331, "sangwonName": "돌곶이역 8번", "gu": "성북구", "lat": 37.6084019827491, "lon": 127.05743087131309, "survivalProbability": 0.6534, "monthlyEstimateKRW": 100416262, "salesPercentile": 4.7}, {"sangwonCode": 3110251, "sangwonName": "장안중학교", "gu": "중랑구", "lat": 37.59968387623888, "lon": 127.08204261261062, "survivalProbability": 0.6534, "monthlyEstimateKRW": 136584809, "salesPercentile": 20.4}, {"sangwonCode": 3111046, "sangwonName": "마천역(마천초등학교)", "gu": "송파구", "lat": 37.495999240540726, "lon": 127.15239139655954, "survivalProbability": 0.6534, "monthlyEstimateKRW": 400361684, "salesPercentile": 69.0}, {"sangwonCode": 3120194, "sangwonName": "언주역(차병원)", "gu": "강남구", "lat": 37.507400250733085, "lon": 127.03403202540474, "survivalProbability": 0.6534, "monthlyEstimateKRW": 1279347807, "salesPercentile": 85.1}, {"sangwonCode": 3120003, "sangwonName": "광화문역", "gu": "종로구", "lat": 37.57196808426292, "lon": 126.97459828971189, "survivalProbability": 0.6534, "monthlyEstimateKRW": 1929528522, "salesPercentile": 95.8}, {"sangwonCode": 3110249, "sangwonName": "중화역 1번", "gu": "중랑구", "lat": 37.60427126674587, "lon": 127.08007714819284, "survivalProbability": 0.6534, "monthlyEstimateKRW": 98588134, "salesPercentile": 1.3}, {"sangwonCode": 3110333, "sangwonName": "돌곶이역 5번", "gu": "성북구", "lat": 37.60947324115329, "lon": 127.0592890795929, "survivalProbability": 0.6534, "monthlyEstimateKRW": 130076270, "salesPercentile": 17.8}, {"sangwonCode": 3110717, "sangwonName": "남구로역 2번", "gu": "구로구", "lat": 37.48428725232738, "lon": 126.88901449779476, "survivalProbability": 0.6534, "monthlyEstimateKRW": 511264569, "salesPercentile": 72.7}, {"sangwonCode": 3110671, "sangwonName": "등촌1동주민센터", "gu": "강서구", "lat": 37.55565994906193, "lon": 126.8592232956464, "survivalProbability": 0.6534, "monthlyEstimateKRW": 120535190, "salesPercentile": 13.3}, {"sangwonCode": 3120193, "sangwonName": "도산공원교차로", "gu": "강남구", "lat": 37.521564162466845, "lon": 127.03357465676805, "survivalProbability": 0.6534, "monthlyEstimateKRW": 805148251, "salesPercentile": 81.1}, {"sangwonCode": 3120237, "sangwonName": "경찰병원역", "gu": "송파구", "lat": 37.49717102650773, "lon": 127.12080906154488, "survivalProbability": 0.6534, "monthlyEstimateKRW": 591922518, "salesPercentile": 76.2}, {"sangwonCode": 3110335, "sangwonName": "석계역 7번", "gu": "성북구", "lat": 37.612849524067954, "lon": 127.06393543121227, "survivalProbability": 0.6534, "monthlyEstimateKRW": 1142859621, "salesPercentile": 83.5}, {"sangwonCode": 3120192, "sangwonName": "뱅뱅사거리", "gu": "강남구", "lat": 37.4902548060724, "lon": 127.03149136697971, "survivalProbability": 0.6534, "monthlyEstimateKRW": 1426870240, "salesPercentile": 90.0}, {"sangwonCode": 3120238, "sangwonName": "방이역", "gu": "송파구", "lat": 37.509239712678266, "lon": 127.1253978901468, "survivalProbability": 0.6534, "monthlyEstimateKRW": 634486145, "salesPercentile": 79.1}, {"sangwonCode": 3120004, "sangwonName": "종로구청", "gu": "종로구", "lat": 37.57410466145737, "lon": 126.98109533500013, "survivalProbability": 0.6534, "monthlyEstimateKRW": 408895382, "salesPercentile": 69.7}, {"sangwonCode": 3110336, "sangwonName": "석관고등학교", "gu": "성북구", "lat": 37.610046998999536, "lon": 127.0647598010375, "survivalProbability": 0.6534, "monthlyEstimateKRW": 143142495, "salesPercentile": 23.2}, {"sangwonCode": 3111044, "sangwonName": "남천초등학교", "gu": "송파구", "lat": 37.49924726592884, "lon": 127.14893749244365, "survivalProbability": 0.6534, "monthlyEstimateKRW": 271109622, "salesPercentile": 55.0}, {"sangwonCode": 3110718, "sangwonName": "한국SGI본부", "gu": "구로구", "lat": 37.503462343662285, "lon": 126.89080694582884, "survivalProbability": 0.6534, "monthlyEstimateKRW": 2007103921, "salesPercentile": 96.3}, {"sangwonCode": 3110339, "sangwonName": "국립4.19민주묘지", "gu": "강북구", "lat": 37.64755436460286, "lon": 127.01027748641563, "survivalProbability": 0.6534, "monthlyEstimateKRW": 148582509, "salesPercentile": 28.1}, {"sangwonCode": 3120005, "sangwonName": "삼청동", "gu": "종로구", "lat": 37.58349301373539, "lon": 126.98105899645378, "survivalProbability": 0.6534, "monthlyEstimateKRW": 222982251, "salesPercentile": 46.6}, {"sangwonCode": 3120239, "sangwonName": "오금역", "gu": "송파구", "lat": 37.50177860016498, "lon": 127.12614312912417, "survivalProbability": 0.6534, "monthlyEstimateKRW": 1290221086, "salesPercentile": 85.6}, {"sangwonCode": 3110341, "sangwonName": "북한산우이역 2번", "gu": "강북구", "lat": 37.66188906345276, "lon": 127.00946345210346, "survivalProbability": 0.6534, "monthlyEstimateKRW": 145401194, "salesPercentile": 25.5}, {"sangwonCode": 3110246, "sangwonName": "월드순복음교회", "gu": "중랑구", "lat": 37.593027672289224, "lon": 127.07893279696668, "survivalProbability": 0.6534, "monthlyEstimateKRW": 166626561, "salesPercentile": 38.8}, {"sangwonCode": 3120191, "sangwonName": "학동역", "gu": "강남구", "lat": 37.51355518491261, "lon": 127.03007596762794, "survivalProbability": 0.6534, "monthlyEstimateKRW": 629501764, "salesPercentile": 78.8}, {"sangwonCode": 3120240, "sangwonName": "개롱역", "gu": "송파구", "lat": 37.49604787721762, "lon": 127.13460345002983, "survivalProbability": 0.6534, "monthlyEstimateKRW": 603733999, "salesPercentile": 76.9}, {"sangwonCode": 3110720, "sangwonName": "대림역 2번", "gu": "구로구", "lat": 37.4929406764136, "lon": 126.89308384367953, "survivalProbability": 0.6534, "monthlyEstimateKRW": 377945935, "salesPercentile": 67.1}, {"sangwonCode": 3110244, "sangwonName": "중화역 4번", "gu": "중랑구", "lat": 37.60341653482143, "lon": 127.07827562121437, "survivalProbability": 0.6534, "monthlyEstimateKRW": 382730583, "salesPercentile": 67.9}, {"sangwonCode": 3110345, "sangwonName": "솔밭공원역 2번", "gu": "강북구", "lat": 37.65729376201776, "lon": 127.01261338082156, "survivalProbability": 0.6534, "monthlyEstimateKRW": 158437960, "salesPercentile": 35.2}, {"sangwonCode": 3111042, "sangwonName": "거여역 1번(거여공원)", "gu": "송파구", "lat": 37.49713654406891, "lon": 127.14357306164347, "survivalProbability": 0.6534, "monthlyEstimateKRW": 331681290, "salesPercentile": 63.3}, {"sangwonCode": 3120190, "sangwonName": "강남을지병원", "gu": "강남구", "lat": 37.520006819268275, "lon": 127.02825732811267, "survivalProbability": 0.6534, "monthlyEstimateKRW": 1582871162, "salesPercentile": 93.1}, {"sangwonCode": 3110346, "sangwonName": "4.19민주묘지역 2번", "gu": "강북구", "lat": 37.64943719463744, "lon": 127.01260072039511, "survivalProbability": 0.6534, "monthlyEstimateKRW": 156147836, "salesPercentile": 33.3}, {"sangwonCode": 3110668, "sangwonName": "화곡2동주민센터", "gu": "강서구", "lat": 37.53247006333166, "lon": 126.85331580752785, "survivalProbability": 0.6534, "monthlyEstimateKRW": 254101386, "salesPercentile": 49.8}, {"sangwonCode": 3110721, "sangwonName": "가리봉파출소", "gu": "구로구", "lat": 37.479551604922634, "lon": 126.89297855818604, "survivalProbability": 0.6534, "monthlyEstimateKRW": 118584795, "salesPercentile": 12.3}, {"sangwonCode": 3110243, "sangwonName": "중랑노인종합복지관", "gu": "중랑구", "lat": 37.58811789372319, "lon": 127.0779878628827, "survivalProbability": 0.6534, "monthlyEstimateKRW": 275550122, "salesPercentile": 57.3}, {"sangwonCode": 3120241, "sangwonName": "거여역", "gu": "송파구", "lat": 37.49283633341059, "lon": 127.1455437075945, "survivalProbability": 0.6534, "monthlyEstimateKRW": 1294880493, "salesPercentile": 85.7}, {"sangwonCode": 3110348, "sangwonName": "강북문화예술회관", "gu": "강북구", "lat": 37.64216601575762, "lon": 127.01467296968984, "survivalProbability": 0.6534, "monthlyEstimateKRW": 108902523, "salesPercentile": 9.7}, {"sangwonCode": 3110349, "sangwonName": "화계역 2번", "gu": "강북구", "lat": 37.63321923019276, "lon": 127.01470519772923, "survivalProbability": 0.6534, "monthlyEstimateKRW": 127483064, "salesPercentile": 17.1}, {"sangwonCode": 3111039, "sangwonName": "벌말어린이공원", "gu": "송파구", "lat": 37.50217000650291, "lon": 127.13867447153532, "survivalProbability": 0.6534, "monthlyEstimateKRW": 136378954, "salesPercentile": 20.0}, {"sangwonCode": 3120006, "sangwonName": "종각역", "gu": "종로구", "lat": 37.57037490191488, "lon": 126.98349603169189, "survivalProbability": 0.6534, "monthlyEstimateKRW": 2318981477, "salesPercentile": 99.7}, {"sangwonCode": 3110723, "sangwonName": "가산디지털단지역 1번 출입구", "gu": "금천구", "lat": 37.48321884165624, "lon": 126.88358899345991, "survivalProbability": 0.6534, "monthlyEstimateKRW": 175250199, "salesPercentile": 41.4}, {"sangwonCode": 3110242, "sangwonName": "면목5동주민센터", "gu": "중랑구", "lat": 37.58466695176947, "lon": 127.07819937597111, "survivalProbability": 0.6534, "monthlyEstimateKRW": 124844696, "salesPercentile": 14.5}, {"sangwonCode": 3120189, "sangwonName": "강남역", "gu": "서초구", "lat": 37.497571920870165, "lon": 127.02775129423334, "survivalProbability": 0.6534, "monthlyEstimateKRW": 2318981477, "salesPercentile": 99.7}, {"sangwonCode": 3120242, "sangwonName": "강동구청역", "gu": "강동구", "lat": 37.52923581309821, "lon": 127.12268220880003, "survivalProbability": 0.6534, "monthlyEstimateKRW": 616081540, "salesPercentile": 78.3}, {"sangwonCode": 3110351, "sangwonName": "수유북부시장옆", "gu": "강북구", "lat": 37.63627345900942, "lon": 127.01557817756292, "survivalProbability": 0.6534, "monthlyEstimateKRW": 126407650, "salesPercentile": 15.4}, {"sangwonCode": 3110241, "sangwonName": "먹골역 5번", "gu": "중랑구", "lat": 37.60822843634927, "lon": 127.07734066163741, "survivalProbability": 0.6534, "monthlyEstimateKRW": 407613389, "salesPercentile": 69.4}, {"sangwonCode": 3110667, "sangwonName": "가양역 10번", "gu": "강서구", "lat": 37.56170718526108, "lon": 126.853100050414, "survivalProbability": 0.6534, "monthlyEstimateKRW": 156525344, "salesPercentile": 34.0}, {"sangwonCode": 3110352, "sangwonName": "수유1동주민센터", "gu": "강북구", "lat": 37.6301286649574, "lon": 127.01610934145873, "survivalProbability": 0.6534, "monthlyEstimateKRW": 106731210, "salesPercentile": 8.5}, {"sangwonCode": 3110725, "sangwonName": "가산동주민센터", "gu": "금천구", "lat": 37.47775628898691, "lon": 126.89045996878538, "survivalProbability": 0.6534, "monthlyEstimateKRW": 190223987, "salesPercentile": 42.9}, {"sangwonCode": 3111035, "sangwonName": "오금공원(오주중학교)", "gu": "송파구", "lat": 37.502877446707714, "lon": 127.13464963793048, "survivalProbability": 0.6534, "monthlyEstimateKRW": 120843224, "salesPercentile": 13.4}, {"sangwonCode": 3120243, "sangwonName": "천호역", "gu": "강동구", "lat": 37.53952339599033, "lon": 127.12444156010653, "survivalProbability": 0.6534, "monthlyEstimateKRW": 1396630549, "salesPercentile": 89.0}, {"sangwonCode": 3120007, "sangwonName": "북촌(안국역)", "gu": "종로구", "lat": 37.57915989328047, "lon": 126.98574695667236, "survivalProbability": 0.6534, "monthlyEstimateKRW": 1532955811, "salesPercentile": 92.0}, {"sangwonCode": 3110353, "sangwonName": "수유동우체국", "gu": "강북구", "lat": 37.6462202452816, "lon": 127.0161921338146, "survivalProbability": 0.6534, "monthlyEstimateKRW": 98775621, "salesPercentile": 1.5}, {"sangwonCode": 3110240, "sangwonName": "태릉시장 특화거리", "gu": "중랑구", "lat": 37.598056612126726, "lon": 127.07679791399993, "survivalProbability": 0.6534, "monthlyEstimateKRW": 270482830, "salesPercentile": 54.8}, {"sangwonCode": 3120188, "sangwonName": "압구정역", "gu": "강남구", "lat": 37.52546693782541, "lon": 127.02807838256531, "survivalProbability": 0.6534, "monthlyEstimateKRW": 1322600455, "salesPercentile": 86.6}, {"sangwonCode": 3111034, "sangwonName": "오동나무공원(송파레미니스1단지)", "gu": "송파구", "lat": 37.50662576054443, "lon": 127.13453196048948, "survivalProbability": 0.6534, "monthlyEstimateKRW": 99429631, "salesPercentile": 2.0}, {"sangwonCode": 3110239, "sangwonName": "중랑역 2번", "gu": "중랑구", "lat": 37.59623675120172, "lon": 127.07658089696211, "survivalProbability": 0.6534, "monthlyEstimateKRW": 191545332, "salesPercentile": 43.0}, {"sangwonCode": 3110237, "sangwonName": "메가박스 상봉", "gu": "중랑구", "lat": 37.591408615387756, "lon": 127.07474165969481, "survivalProbability": 0.6534, "monthlyEstimateKRW": 566339802, "salesPercentile": 74.6}, {"sangwonCode": 3120244, "sangwonName": "암사역", "gu": "강동구", "lat": 37.55137688969368, "lon": 127.12785627932669, "survivalProbability": 0.6534, "monthlyEstimateKRW": 587832735, "salesPercentile": 75.9}, {"sangwonCode": 3110356, "sangwonName": "덕수교", "gu": "강북구", "lat": 37.64821112137031, "lon": 127.01823221742598, "survivalProbability": 0.6534, "monthlyEstimateKRW": 141374743, "salesPercentile": 22.8}, {"sangwonCode": 3120187, "sangwonName": "신논현역", "gu": "강남구", "lat": 37.50502379497898, "lon": 127.02527722374786, "survivalProbability": 0.6534, "monthlyEstimateKRW": 2318972047, "salesPercentile": 99.2}, {"sangwonCode": 3110357, "sangwonName": "가오리역 1번", "gu": "강북구", "lat": 37.643417950047436, "lon": 127.01782314180417, "survivalProbability": 0.6534, "monthlyEstimateKRW": 108586621, "salesPercentile": 9.6}, {"sangwonCode": 3120008, "sangwonName": "인사동", "gu": "종로구", "lat": 37.57390703196603, "lon": 126.98522723193123, "survivalProbability": 0.6534, "monthlyEstimateKRW": 1257663355, "salesPercentile": 84.7}, {"sangwonCode": 3110236, "sangwonName": "신묵초등학교", "gu": "중랑구", "lat": 37.60887870447146, "lon": 127.07492901956759, "survivalProbability": 0.6534, "monthlyEstimateKRW": 364855196, "salesPercentile": 66.4}, {"sangwonCode": 3110358, "sangwonName": "인수동 우편취급국", "gu": "강북구", "lat": 37.63589449602717, "lon": 127.01929418298732, "survivalProbability": 0.6534, "monthlyEstimateKRW": 161068082, "salesPercentile": 37.5}, {"sangwonCode": 3111032, "sangwonName": "방이역 1번", "gu": "송파구", "lat": 37.50879300826817, "lon": 127.13021532267395, "survivalProbability": 0.6534, "monthlyEstimateKRW": 125755707, "salesPercentile": 15.2}, {"sangwonCode": 3110359, "sangwonName": "수유시장옆", "gu": "강북구", "lat": 37.63881357448498, "lon": 127.01997473599367, "survivalProbability": 0.6534, "monthlyEstimateKRW": 100049828, "salesPercentile": 2.9}, {"sangwonCode": 3120245, "sangwonName": "둔촌역", "gu": "강동구", "lat": 37.526339264817906, "lon": 127.13491805500612, "survivalProbability": 0.6534, "monthlyEstimateKRW": 1333728684, "salesPercentile": 87.1}, {"sangwonCode": 3110729, "sangwonName": "가산동우체국", "gu": "금천구", "lat": 37.47802914720058, "lon": 126.8932520648618, "survivalProbability": 0.6534, "monthlyEstimateKRW": 290578405, "salesPercentile": 61.2}, {"sangwonCode": 3110233, "sangwonName": "중랑역 1번", "gu": "중랑구", "lat": 37.59596815056542, "lon": 127.07391960683593, "survivalProbability": 0.6534, "monthlyEstimateKRW": 98451818, "salesPercentile": 1.1}, {"sangwonCode": 3120186, "sangwonName": "가로수길", "gu": "강남구", "lat": 37.52077389382864, "lon": 127.0225789449648, "survivalProbability": 0.6534, "monthlyEstimateKRW": 1841314340, "salesPercentile": 95.0}, {"sangwonCode": 3110664, "sangwonName": "강서구청옆", "gu": "강서구", "lat": 37.551326400425985, "lon": 126.85205665693027, "survivalProbability": 0.6534, "monthlyEstimateKRW": 145052434, "salesPercentile": 24.9}, {"sangwonCode": 3110360, "sangwonName": "수유초등학교", "gu": "강북구", "lat": 37.63250662510774, "lon": 127.02027893106107, "survivalProbability": 0.6534, "monthlyEstimateKRW": 111100529, "salesPercentile": 10.9}, {"sangwonCode": 3110663, "sangwonName": "우장산롯데캐슬아파트앞", "gu": "강서구", "lat": 37.55417025454575, "lon": 126.84944809476413, "survivalProbability": 0.6534, "monthlyEstimateKRW": 137769503, "salesPercentile": 20.7}, {"sangwonCode": 3110730, "sangwonName": "서울축산농협 독산역지점(독산파출소)", "gu": "금천구", "lat": 37.46490291619055, "lon": 126.89490976198287, "survivalProbability": 0.6534, "monthlyEstimateKRW": 160657002, "salesPercentile": 37.3}, {"sangwonCode": 3120246, "sangwonName": "길동역", "gu": "강동구", "lat": 37.536471614031555, "lon": 127.13829670196402, "survivalProbability": 0.6534, "monthlyEstimateKRW": 2105060071, "salesPercentile": 96.7}, {"sangwonCode": 3111031, "sangwonName": "장지동주민센터(한림연예예술고교)", "gu": "송파구", "lat": 37.486051200890266, "lon": 127.1305941940208, "survivalProbability": 0.6534, "monthlyEstimateKRW": 129265585, "salesPercentile": 17.6}, {"sangwonCode": 3110662, "sangwonName": "까치산역 1번", "gu": "강서구", "lat": 37.53485244846705, "lon": 126.84913619684757, "survivalProbability": 0.6534, "monthlyEstimateKRW": 256276449, "salesPercentile": 51.5}, {"sangwonCode": 3110362, "sangwonName": "우이천 계성교", "gu": "강북구", "lat": 37.646318365703095, "lon": 127.02225429849477, "survivalProbability": 0.6534, "monthlyEstimateKRW": 106862375, "salesPercentile": 8.8}, {"sangwonCode": 3120185, "sangwonName": "논현역", "gu": "강남구", "lat": 37.51104318245634, "lon": 127.02189737579353, "survivalProbability": 0.6534, "monthlyEstimateKRW": 1681256145, "salesPercentile": 93.7}, {"sangwonCode": 3110230, "sangwonName": "장안현대홈타운1차아파트", "gu": "동대문구", "lat": 37.56900286007882, "lon": 127.07158379588344, "survivalProbability": 0.6534, "monthlyEstimateKRW": 136485231, "salesPercentile": 20.1}, {"sangwonCode": 3120009, "sangwonName": "종로3가역", "gu": "종로구", "lat": 37.57165510209864, "lon": 126.99069513429947, "survivalProbability": 0.6534, "monthlyEstimateKRW": 2059634020, "salesPercentile": 96.4}, {"sangwonCode": 3110364, "sangwonName": "미아역 8번", "gu": "강북구", "lat": 37.62728941870225, "lon": 127.02298495804368, "survivalProbability": 0.6534, "monthlyEstimateKRW": 154941718, "salesPercentile": 31.8}, {"sangwonCode": 3120247, "sangwonName": "굽은다리역", "gu": "강동구", "lat": 37.54581880892867, "lon": 127.14264794652553, "survivalProbability": 0.6534, "monthlyEstimateKRW": 533361034, "salesPercentile": 72.9}, {"sangwonCode": 3110731, "sangwonName": "금천구청역 1번 출입구", "gu": "금천구", "lat": 37.45509224627107, "lon": 126.89643798420333, "survivalProbability": 0.6534, "monthlyEstimateKRW": 261207077, "salesPercentile": 53.1}, {"sangwonCode": 3110229, "sangwonName": "장평중학교", "gu": "동대문구", "lat": 37.56456190380795, "lon": 127.06999492654315, "survivalProbability": 0.6534, "monthlyEstimateKRW": 143344817, "salesPercentile": 23.3}, {"sangwonCode": 3110365, "sangwonName": "미아역 5번", "gu": "강북구", "lat": 37.623703424347134, "lon": 127.02332368413528, "survivalProbability": 0.6534, "monthlyEstimateKRW": 100538936, "salesPercentile": 5.5}, {"sangwonCode": 3111028, "sangwonName": "문현중학교(장지역 1번)", "gu": "송파구", "lat": 37.48182002557716, "lon": 127.12733063992445, "survivalProbability": 0.6534, "monthlyEstimateKRW": 145220527, "salesPercentile": 25.3}, {"sangwonCode": 3110366, "sangwonName": "광산사거리", "gu": "강북구", "lat": 37.64358795179582, "lon": 127.02444030791094, "survivalProbability": 0.6534, "monthlyEstimateKRW": 126490690, "salesPercentile": 15.6}, {"sangwonCode": 3120184, "sangwonName": "포이사거리(삼호물산)", "gu": "서초구", "lat": 37.47696053249972, "lon": 127.04506367970757, "survivalProbability": 0.6534, "monthlyEstimateKRW": 1539777076, "salesPercentile": 92.2}, {"sangwonCode": 3120248, "sangwonName": "명일역", "gu": "강동구", "lat": 37.55124972345866, "lon": 127.1443784336575, "survivalProbability": 0.6534, "monthlyEstimateKRW": 1237478368, "salesPercentile": 84.2}, {"sangwonCode": 3110228, "sangwonName": "장안근린공원", "gu": "동대문구", "lat": 37.5758335619501, "lon": 127.0696432221665, "survivalProbability": 0.6534, "monthlyEstimateKRW": 254376684, "salesPercentile": 50.2}, {"sangwonCode": 3110660, "sangwonName": "등촌3동주민센터", "gu": "강서구", "lat": 37.55832107704375, "lon": 126.84728936932454, "survivalProbability": 0.6534, "monthlyEstimateKRW": 159129860, "salesPercentile": 36.3}, {"sangwonCode": 3120011, "sangwonName": "종로4가", "gu": "종로구", "lat": 37.571150886858554, "lon": 126.9975889014172, "survivalProbability": 0.6534, "monthlyEstimateKRW": 153175379, "salesPercentile": 30.0}, {"sangwonCode": 3110367, "sangwonName": "강북구청", "gu": "강북구", "lat": 37.64075898169978, "lon": 127.02385020735761, "survivalProbability": 0.6534, "monthlyEstimateKRW": 387297225, "salesPercentile": 68.2}, {"sangwonCode": 3110732, "sangwonName": "가산초등학교(세일중학교)", "gu": "금천구", "lat": 37.475906522035814, "lon": 126.89749458115419, "survivalProbability": 0.6534, "monthlyEstimateKRW": 272993047, "salesPercentile": 55.7}, {"sangwonCode": 3110368, "sangwonName": "송천초등학교", "gu": "강북구", "lat": 37.61467534388805, "lon": 127.02422696852264, "survivalProbability": 0.6534, "monthlyEstimateKRW": 100279520, "salesPercentile": 3.9}, {"sangwonCode": 3110227, "sangwonName": "답십리공원", "gu": "동대문구", "lat": 37.57615943992586, "lon": 127.06701717715495, "survivalProbability": 0.6534, "monthlyEstimateKRW": 126451327, "salesPercentile": 15.5}, {"sangwonCode": 3111027, "sangwonName": "문정초등학교", "gu": "송파구", "lat": 37.48862354516316, "lon": 127.12648283683586, "survivalProbability": 0.6534, "monthlyEstimateKRW": 100444400, "salesPercentile": 5.0}, {"sangwonCode": 3120249, "sangwonName": "고덕역", "gu": "강동구", "lat": 37.553416674247536, "lon": 127.15499797751727, "survivalProbability": 0.6534, "monthlyEstimateKRW": 140852744, "salesPercentile": 21.9}, {"sangwonCode": 3120183, "sangwonName": "양재천카페거리", "gu": "서초구", "lat": 37.48059219225856, "lon": 127.04348301557079, "survivalProbability": 0.6534, "monthlyEstimateKRW": 357244477, "salesPercentile": 65.5}, {"sangwonCode": 3130001, "sangwonName": "통인시장", "gu": "종로구", "lat": 37.580589524576354, "lon": 126.97001029915941, "survivalProbability": 0.6534, "monthlyEstimateKRW": 147555687, "salesPercentile": 27.1}, {"sangwonCode": 3110226, "sangwonName": "장안1동주민센터", "gu": "동대문구", "lat": 37.568960725192056, "lon": 127.06660322921046, "survivalProbability": 0.6534, "monthlyEstimateKRW": 506176641, "salesPercentile": 72.4}, {"sangwonCode": 3110369, "sangwonName": "성신여대운정그린캠퍼스", "gu": "강북구", "lat": 37.633154257577395, "lon": 127.02579638357507, "survivalProbability": 0.6534, "monthlyEstimateKRW": 256221400, "salesPercentile": 51.3}, {"sangwonCode": 3120182, "sangwonName": "양재시민의숲역(양재동꽃시장, aT센터)", "gu": "서초구", "lat": 37.469384734597455, "lon": 127.04036782735055, "survivalProbability": 0.6534, "monthlyEstimateKRW": 1561210121, "salesPercentile": 92.8}, {"sangwonCode": 3110370, "sangwonName": "도봉세무서", "gu": "강북구", "lat": 37.61866612696216, "lon": 127.0269693758849, "survivalProbability": 0.6534, "monthlyEstimateKRW": 100459529, "salesPercentile": 5.3}, {"sangwonCode": 3130002, "sangwonName": "세종마을음식문화거리(금천교시장)", "gu": "종로구", "lat": 37.5768145641106, "lon": 126.9708268941168, "survivalProbability": 0.6534, "monthlyEstimateKRW": 1436784243, "salesPercentile": 90.4}, {"sangwonCode": 3110735, "sangwonName": "말미고개", "gu": "금천구", "lat": 37.462708144784365, "lon": 126.89915158569944, "survivalProbability": 0.6534, "monthlyEstimateKRW": 103956948, "salesPercentile": 6.7}, {"sangwonCode": 3120012, "sangwonName": "대학로(혜화역)", "gu": "종로구", "lat": 37.5827467014045, "lon": 127.00132461165737, "survivalProbability": 0.6534, "monthlyEstimateKRW": 2131797249, "salesPercentile": 96.8}, {"sangwonCode": 3110371, "sangwonName": "삼양입구사거리", "gu": "강북구", "lat": 37.6164314927593, "lon": 127.02776142881001, "survivalProbability": 0.6534, "monthlyEstimateKRW": 258716646, "salesPercentile": 52.8}, {"sangwonCode": 3120181, "sangwonName": "교육개발원입구사거리", "gu": "서초구", "lat": 37.47719715795056, "lon": 127.038370951405, "survivalProbability": 0.6534, "monthlyEstimateKRW": 612238585, "salesPercentile": 77.7}, {"sangwonCode": 3130007, "sangwonName": "광장시장(광장전통시장)", "gu": "종로구", "lat": 37.57002466717994, "lon": 126.99981888734061, "survivalProbability": 0.6534, "monthlyEstimateKRW": 254195526, "salesPercentile": 49.9}, {"sangwonCode": 3110372, "sangwonName": "강북중학교", "gu": "강북구", "lat": 37.643190633332985, "lon": 127.0283945689594, "survivalProbability": 0.6534, "monthlyEstimateKRW": 100049828, "salesPercentile": 2.9}, {"sangwonCode": 3110736, "sangwonName": "독산119안전센터", "gu": "금천구", "lat": 37.46757501512585, "lon": 126.90081805088234, "survivalProbability": 0.6534, "monthlyEstimateKRW": 357753684, "salesPercentile": 65.7}, {"sangwonCode": 3120013, "sangwonName": "이화사거리", "gu": "종로구", "lat": 37.57493507964541, "lon": 127.00158483982133, "survivalProbability": 0.6534, "monthlyEstimateKRW": 119488664, "salesPercentile": 12.5}, {"sangwonCode": 3130010, "sangwonName": "종로신진시장", "gu": "종로구", "lat": 37.570312873990254, "lon": 127.00513909151051, "survivalProbability": 0.6534, "monthlyEstimateKRW": 539871302, "salesPercentile": 73.7}, {"sangwonCode": 3110373, "sangwonName": "수유역 2번", "gu": "강북구", "lat": 37.63691069400108, "lon": 127.02870941001596, "survivalProbability": 0.6534, "monthlyEstimateKRW": 135064795, "salesPercentile": 19.5}, {"sangwonCode": 3110659, "sangwonName": "화곡역 4번", "gu": "강서구", "lat": 37.54056131421404, "lon": 126.84644302224991, "survivalProbability": 0.6534, "monthlyEstimateKRW": 283994180, "salesPercentile": 60.0}, {"sangwonCode": 3120179, "sangwonName": "양재역", "gu": "서초구", "lat": 37.484496660060245, "lon": 127.03403294046717, "survivalProbability": 0.6534, "monthlyEstimateKRW": 1850192042, "salesPercentile": 95.2}, {"sangwonCode": 3110221, "sangwonName": "의릉", "gu": "성북구", "lat": 37.60398528040108, "lon": 127.06111932250863, "survivalProbability": 0.6534, "monthlyEstimateKRW": 131556657, "salesPercentile": 18.3}, {"sangwonCode": 3130015, "sangwonName": "창신골목시장", "gu": "종로구", "lat": 37.57325869940521, "lon": 127.01129739060529, "survivalProbability": 0.6534, "monthlyEstimateKRW": 228575461, "salesPercentile": 47.2}, {"sangwonCode": 3110220, "sangwonName": "외대앞역 1번", "gu": "동대문구", "lat": 37.59521860885541, "lon": 127.06118009171786, "survivalProbability": 0.6534, "monthlyEstimateKRW": 513974689, "salesPercentile": 72.8}, {"sangwonCode": 3130018, "sangwonName": "동대문문구완구거리(동대문문구완구시장)", "gu": "종로구", "lat": 37.57142039698896, "lon": 127.0138553769603, "survivalProbability": 0.6534, "monthlyEstimateKRW": 173024672, "salesPercentile": 40.5}, {"sangwonCode": 3130020, "sangwonName": "동묘시장(동묘벼룩시장)", "gu": "종로구", "lat": 37.571356966071896, "lon": 127.01665134166707, "survivalProbability": 0.6534, "monthlyEstimateKRW": 149393644, "salesPercentile": 28.5}, {"sangwonCode": 3111021, "sangwonName": "방이역 4번", "gu": "송파구", "lat": 37.51121564107836, "lon": 127.12279974688528, "survivalProbability": 0.6534, "monthlyEstimateKRW": 686596987, "salesPercentile": 80.2}, {"sangwonCode": 3120178, "sangwonName": "신사역", "gu": "서초구", "lat": 37.515963075171285, "lon": 127.01955735958383, "survivalProbability": 0.6534, "monthlyEstimateKRW": 1658554990, "salesPercentile": 93.6}, {"sangwonCode": 3120014, "sangwonName": "종로5가역", "gu": "종로구", "lat": 37.571907724627984, "lon": 127.00232056437183, "survivalProbability": 0.6534, "monthlyEstimateKRW": 1348879266, "salesPercentile": 87.5}, {"sangwonCode": 3110219, "sangwonName": "삼육보건대학교", "gu": "동대문구", "lat": 37.587713860831755, "lon": 127.06017759350853, "survivalProbability": 0.6534, "monthlyEstimateKRW": 287497373, "salesPercentile": 60.9}, {"sangwonCode": 3110376, "sangwonName": "수송초등학교", "gu": "강북구", "lat": 37.63939671921139, "lon": 127.03142958043486, "survivalProbability": 0.6534, "monthlyEstimateKRW": 454891717, "salesPercentile": 71.3}, {"sangwonCode": 3110377, "sangwonName": "미아사거리역 3번", "gu": "강북구", "lat": 37.61135750702981, "lon": 127.03325255681031, "survivalProbability": 0.6534, "monthlyEstimateKRW": 333449291, "salesPercentile": 63.7}, {"sangwonCode": 3110738, "sangwonName": "문성초등학교", "gu": "금천구", "lat": 37.472305721353386, "lon": 126.90129790602968, "survivalProbability": 0.6534, "monthlyEstimateKRW": 370778341, "salesPercentile": 66.8}, {"sangwonCode": 3130024, "sangwonName": "남대문시장(자유상가)", "gu": "중구", "lat": 37.55957999880267, "lon": 126.97761307341452, "survivalProbability": 0.6534, "monthlyEstimateKRW": 299265763, "salesPercentile": 61.8}, {"sangwonCode": 3110218, "sangwonName": "답십리사거리", "gu": "동대문구", "lat": 37.57059598801341, "lon": 127.05816024441098, "survivalProbability": 0.6534, "monthlyEstimateKRW": 148089470, "salesPercentile": 27.4}, {"sangwonCode": 3120015, "sangwonName": "종로6가", "gu": "종로구", "lat": 37.57210575706799, "lon": 127.00702963068177, "survivalProbability": 0.6534, "monthlyEstimateKRW": 152918388, "salesPercentile": 29.8}, {"sangwonCode": 3110658, "sangwonName": "화곡초등학교", "gu": "강서구", "lat": 37.54528194540314, "lon": 126.84598070839382, "survivalProbability": 0.6534, "monthlyEstimateKRW": 278472701, "salesPercentile": 58.1}, {"sangwonCode": 3110378, "sangwonName": "송중동주민센터", "gu": "강북구", "lat": 37.61465474806964, "lon": 127.0345678760869, "survivalProbability": 0.6534, "monthlyEstimateKRW": 97999812, "salesPercentile": 0.1}, {"sangwonCode": 3120177, "sangwonName": "신논현역 1번", "gu": "서초구", "lat": 37.50543027854698, "lon": 127.01988259526811, "survivalProbability": 0.6534, "monthlyEstimateKRW": 588100410, "salesPercentile": 76.0}, {"sangwonCode": 3130031, "sangwonName": "청계천공구상가", "gu": "중구", "lat": 37.56763671059657, "lon": 126.99132950824925, "survivalProbability": 0.6534, "monthlyEstimateKRW": 606542771, "salesPercentile": 77.1}, {"sangwonCode": 3110382, "sangwonName": "솔밭공원역 1번", "gu": "도봉구", "lat": 37.6558610511858, "lon": 127.01393904788436, "survivalProbability": 0.6534, "monthlyEstimateKRW": 126103744, "salesPercentile": 15.3}, {"sangwonCode": 3111020, "sangwonName": "방이동고분군(방산고등학교)", "gu": "송파구", "lat": 37.50698317749334, "lon": 127.1206099818534, "survivalProbability": 0.6534, "monthlyEstimateKRW": 144749251, "salesPercentile": 24.4}, {"sangwonCode": 3130032, "sangwonName": "인현시장", "gu": "중구", "lat": 37.56324907476504, "lon": 126.9950651270371, "survivalProbability": 0.6534, "monthlyEstimateKRW": 1312537080, "salesPercentile": 86.4}, {"sangwonCode": 3120176, "sangwonName": "논현역 4번", "gu": "서초구", "lat": 37.50841277570839, "lon": 127.01884284504102, "survivalProbability": 0.6534, "monthlyEstimateKRW": 126730665, "salesPercentile": 16.1}, {"sangwonCode": 3110740, "sangwonName": "금천해태공원", "gu": "금천구", "lat": 37.45862856769765, "lon": 126.90153063651739, "survivalProbability": 0.6534, "monthlyEstimateKRW": 98022651, "salesPercentile": 0.4}, {"sangwonCode": 3120016, "sangwonName": "동대문역", "gu": "종로구", "lat": 37.571231452916095, "lon": 127.01137632245057, "survivalProbability": 0.6534, "monthlyEstimateKRW": 294719108, "salesPercentile": 61.7}, {"sangwonCode": 3110657, "sangwonName": "양천향교역 5번", "gu": "강서구", "lat": 37.56653329038731, "lon": 126.84357129242574, "survivalProbability": 0.6534, "monthlyEstimateKRW": 173614072, "salesPercentile": 40.6}, {"sangwonCode": 3120175, "sangwonName": "남부터미널역", "gu": "서초구", "lat": 37.48511285891225, "lon": 127.01811336179759, "survivalProbability": 0.6534, "monthlyEstimateKRW": 1186864149, "salesPercentile": 83.8}, {"sangwonCode": 3130035, "sangwonName": "방산종합시장(방산시장)", "gu": "중구", "lat": 37.56800643712113, "lon": 127.00016978853688, "survivalProbability": 0.6534, "monthlyEstimateKRW": 230785044, "salesPercentile": 47.7}, {"sangwonCode": 3111019, "sangwonName": "한성백제역 3번", "gu": "송파구", "lat": 37.5135634626904, "lon": 127.11767970969707, "survivalProbability": 0.6534, "monthlyEstimateKRW": 153045993, "salesPercentile": 29.9}, {"sangwonCode": 3130036, "sangwonName": "중부시장(신중부시장)", "gu": "중구", "lat": 37.56561879780388, "lon": 127.00026033411363, "survivalProbability": 0.6534, "monthlyEstimateKRW": 250402208, "salesPercentile": 49.2}, {"sangwonCode": 3110388, "sangwonName": "도봉우체국", "gu": "도봉구", "lat": 37.6475509095685, "lon": 127.03034521174627, "survivalProbability": 0.6534, "monthlyEstimateKRW": 110760317, "salesPercentile": 10.8}, {"sangwonCode": 3110656, "sangwonName": "까치산역 3번", "gu": "강서구", "lat": 37.52876264452878, "lon": 126.84296009158733, "survivalProbability": 0.6534, "monthlyEstimateKRW": 2300441236, "salesPercentile": 98.1}, {"sangwonCode": 3120017, "sangwonName": "동묘앞역(동묘)", "gu": "종로구", "lat": 37.572744764086856, "lon": 127.01464801900576, "survivalProbability": 0.6534, "monthlyEstimateKRW": 1233682221, "salesPercentile": 84.0}, {"sangwonCode": 3120173, "sangwonName": "교대역(법원.검찰청)", "gu": "서초구", "lat": 37.49370893679033, "lon": 127.0147795736092, "survivalProbability": 0.6534, "monthlyEstimateKRW": 2314298589, "salesPercentile": 98.5}, {"sangwonCode": 3110741, "sangwonName": "독산2동주민센터", "gu": "금천구", "lat": 37.46383656022357, "lon": 126.9017046630445, "survivalProbability": 0.6534, "monthlyEstimateKRW": 155515146, "salesPercentile": 32.3}, {"sangwonCode": 3111015, "sangwonName": "석촌역 3번", "gu": "송파구", "lat": 37.50603667404324, "lon": 127.11191117169507, "survivalProbability": 0.6534, "monthlyEstimateKRW": 146150303, "salesPercentile": 26.2}, {"sangwonCode": 3110211, "sangwonName": "전곡마을마당공원", "gu": "동대문구", "lat": 37.5798238453243, "lon": 127.05465790447084, "survivalProbability": 0.6534, "monthlyEstimateKRW": 254075298, "salesPercentile": 49.7}, {"sangwonCode": 3130051, "sangwonName": "동화동 골목형상점가", "gu": "중구", "lat": 37.56240094950935, "lon": 127.01746427209717, "survivalProbability": 0.6534, "monthlyEstimateKRW": 156695116, "salesPercentile": 34.1}, {"sangwonCode": 3110390, "sangwonName": "방학초등학교", "gu": "도봉구", "lat": 37.66294826180096, "lon": 127.0319948557538, "survivalProbability": 0.6534, "monthlyEstimateKRW": 127206810, "salesPercentile": 16.6}, {"sangwonCode": 3130052, "sangwonName": "서울중앙시장(신중앙시장)", "gu": "중구", "lat": 37.566941725252974, "lon": 127.01905000259286, "survivalProbability": 0.6534, "monthlyEstimateKRW": 935564447, "salesPercentile": 82.4}, {"sangwonCode": 3110742, "sangwonName": "KT금천빌딩(금천구시설관리공단)", "gu": "금천구", "lat": 37.44707867860115, "lon": 126.90285669090942, "survivalProbability": 0.6534, "monthlyEstimateKRW": 146736540, "salesPercentile": 26.8}, {"sangwonCode": 3110210, "sangwonName": "서울시립대", "gu": "동대문구", "lat": 37.585617460347805, "lon": 127.05416397669767, "survivalProbability": 0.6534, "monthlyEstimateKRW": 132985105, "salesPercentile": 18.5}, {"sangwonCode": 3120018, "sangwonName": "중림동", "gu": "중구", "lat": 37.55949660361493, "lon": 126.96766462208775, "survivalProbability": 0.6534, "monthlyEstimateKRW": 637769251, "salesPercentile": 79.4}, {"sangwonCode": 3120172, "sangwonName": "교대입구교차로", "gu": "서초구", "lat": 37.48774452227515, "lon": 127.01257351118738, "survivalProbability": 0.6534, "monthlyEstimateKRW": 1112338062, "salesPercentile": 83.2}, {"sangwonCode": 3130053, "sangwonName": "백학시장", "gu": "중구", "lat": 37.564148546707614, "lon": 127.01960390526173, "survivalProbability": 0.6534, "monthlyEstimateKRW": 1489710094, "salesPercentile": 91.5}, {"sangwonCode": 3110207, "sangwonName": "시립대앞사거리", "gu": "동대문구", "lat": 37.5840055457555, "lon": 127.05224944885282, "survivalProbability": 0.6534, "monthlyEstimateKRW": 284076426, "salesPercentile": 60.1}, {"sangwonCode": 3111014, "sangwonName": "송파나루역 2번", "gu": "송파구", "lat": 37.5125425779649, "lon": 127.11121961236134, "survivalProbability": 0.6534, "monthlyEstimateKRW": 402628538, "salesPercentile": 69.2}, {"sangwonCode": 3110206, "sangwonName": "텃골근린공원", "gu": "동대문구", "lat": 37.57905927730038, "lon": 127.05182711868238, "survivalProbability": 0.6534, "monthlyEstimateKRW": 107654959, "salesPercentile": 9.2}, {"sangwonCode": 3111013, "sangwonName": "송파나루역 1번(송리단길)", "gu": "송파구", "lat": 37.509382852628754, "lon": 127.10820636509024, "survivalProbability": 0.6534, "monthlyEstimateKRW": 883446710, "salesPercentile": 81.7}, {"sangwonCode": 3130055, "sangwonName": "황학시장(서울중앙시장, 신중앙시장)", "gu": "중구", "lat": 37.567292714343196, "lon": 127.02138183226494, "survivalProbability": 0.6534, "monthlyEstimateKRW": 269708180, "salesPercentile": 54.0}, {"sangwonCode": 3110394, "sangwonName": "방학중학교", "gu": "도봉구", "lat": 37.66664136923422, "lon": 127.03520401893273, "survivalProbability": 0.6534, "monthlyEstimateKRW": 100409695, "salesPercentile": 4.6}, {"sangwonCode": 3120171, "sangwonName": "서초3동사거리", "gu": "서초구", "lat": 37.48268994804575, "lon": 127.01176991309515, "survivalProbability": 0.6534, "monthlyEstimateKRW": 607194799, "salesPercentile": 77.2}, {"sangwonCode": 3110205, "sangwonName": "경희대삼거리", "gu": "동대문구", "lat": 37.59099765389255, "lon": 127.0513258738915, "survivalProbability": 0.6534, "monthlyEstimateKRW": 413736370, "salesPercentile": 70.1}, {"sangwonCode": 3110654, "sangwonName": "까치산역 4번", "gu": "강서구", "lat": 37.53303109083655, "lon": 126.8412427376533, "survivalProbability": 0.6534, "monthlyEstimateKRW": 449870777, "salesPercentile": 70.8}, {"sangwonCode": 3110743, "sangwonName": "시흥초등학교(시흥1동우체국)", "gu": "금천구", "lat": 37.45541423177664, "lon": 126.90430389990269, "survivalProbability": 0.6534, "monthlyEstimateKRW": 380840707, "salesPercentile": 67.7}, {"sangwonCode": 3110395, "sangwonName": "신한은행 방학동지점", "gu": "도봉구", "lat": 37.66382091407126, "lon": 127.03647206897575, "survivalProbability": 0.6534, "monthlyEstimateKRW": 262220961, "salesPercentile": 53.4}, {"sangwonCode": 3120020, "sangwonName": "시청역_1번", "gu": "중구", "lat": 37.564138422507476, "lon": 126.97455567383845, "survivalProbability": 0.6534, "monthlyEstimateKRW": 306001308, "salesPercentile": 62.2}, {"sangwonCode": 3130056, "sangwonName": "용산용문시장", "gu": "용산구", "lat": 37.53643776809258, "lon": 126.96020703642986, "survivalProbability": 0.6534, "monthlyEstimateKRW": 1251559641, "salesPercentile": 84.6}, {"sangwonCode": 3110204, "sangwonName": "간데메공원", "gu": "동대문구", "lat": 37.573518572379605, "lon": 127.05088371301225, "survivalProbability": 0.6534, "monthlyEstimateKRW": 118508013, "salesPercentile": 12.2}, {"sangwonCode": 3120170, "sangwonName": "삼호가든사거리", "gu": "서초구", "lat": 37.502142774318706, "lon": 127.01094738816995, "survivalProbability": 0.6534, "monthlyEstimateKRW": 115407455, "salesPercentile": 11.7}, {"sangwonCode": 3110396, "sangwonName": "쌍문역1번(쌍리단길)", "gu": "도봉구", "lat": 37.64828798329227, "lon": 127.03646447195635, "survivalProbability": 0.6534, "monthlyEstimateKRW": 134429855, "salesPercentile": 19.2}, {"sangwonCode": 3130058, "sangwonName": "이촌종합시장", "gu": "용산구", "lat": 37.52061117520384, "lon": 126.97476276716449, "survivalProbability": 0.6534, "monthlyEstimateKRW": 616099065, "salesPercentile": 78.4}, {"sangwonCode": 3111012, "sangwonName": "석촌역 6번", "gu": "송파구", "lat": 37.50219517719213, "lon": 127.10561747375874, "survivalProbability": 0.6534, "monthlyEstimateKRW": 141092150, "salesPercentile": 22.1}, {"sangwonCode": 3110203, "sangwonName": "떡전교사거리", "gu": "동대문구", "lat": 37.58492619031005, "lon": 127.04842332523857, "survivalProbability": 0.6534, "monthlyEstimateKRW": 123111963, "salesPercentile": 13.8}, {"sangwonCode": 3130059, "sangwonName": "후암시장", "gu": "용산구", "lat": 37.55011025033981, "lon": 126.97626923912605, "survivalProbability": 0.6534, "monthlyEstimateKRW": 164458645, "salesPercentile": 38.3}, {"sangwonCode": 3120021, "sangwonName": "시청역_8번", "gu": "중구", "lat": 37.561759723268, "lon": 126.97423957068088, "survivalProbability": 0.6534, "monthlyEstimateKRW": 311599550, "salesPercentile": 62.5}, {"sangwonCode": 3120169, "sangwonName": "서초역", "gu": "서초구", "lat": 37.49146604063206, "lon": 127.0085938332724, "survivalProbability": 0.6534, "monthlyEstimateKRW": 927945277, "salesPercentile": 82.2}, {"sangwonCode": 3110199, "sangwonName": "홍릉시장", "gu": "동대문구", "lat": 37.58473921335797, "lon": 127.04263778068552, "survivalProbability": 0.6534, "monthlyEstimateKRW": 408363089, "salesPercentile": 69.6}, {"sangwonCode": 3110744, "sangwonName": "독산동성당", "gu": "금천구", "lat": 37.47067726744691, "lon": 126.90418270467585, "survivalProbability": 0.6534, "monthlyEstimateKRW": 358038670, "salesPercentile": 65.8}, {"sangwonCode": 3130063, "sangwonName": "신금호역 골목형상점가", "gu": "성동구", "lat": 37.55379600299772, "lon": 127.02012177910736, "survivalProbability": 0.6534, "monthlyEstimateKRW": 255779649, "salesPercentile": 50.8}, {"sangwonCode": 3110397, "sangwonName": "도봉산입구", "gu": "도봉구", "lat": 37.684497981920416, "lon": 127.03777459924743, "survivalProbability": 0.6534, "monthlyEstimateKRW": 285008534, "salesPercentile": 60.4}, {"sangwonCode": 3110198, "sangwonName": "동대문중앙새마을금고본점", "gu": "동대문구", "lat": 37.58246880047867, "lon": 127.04238741447575, "survivalProbability": 0.6534, "monthlyEstimateKRW": 236966652, "salesPercentile": 48.5}, {"sangwonCode": 3110653, "sangwonName": "화곡역 2번", "gu": "강서구", "lat": 37.54464527300884, "lon": 126.8414670572051, "survivalProbability": 0.6534, "monthlyEstimateKRW": 160255256, "salesPercentile": 37.2}, {"sangwonCode": 3110195, "sangwonName": "동대문구청", "gu": "동대문구", "lat": 37.57615342395652, "lon": 127.04070840517555, "survivalProbability": 0.6534, "monthlyEstimateKRW": 269869259, "salesPercentile": 54.3}, {"sangwonCode": 3130064, "sangwonName": "금남시장", "gu": "성동구", "lat": 37.54854279302089, "lon": 127.02229309489861, "survivalProbability": 0.6534, "monthlyEstimateKRW": 158985790, "salesPercentile": 36.0}, {"sangwonCode": 3111010, "sangwonName": "석촌역 7번", "gu": "송파구", "lat": 37.5054062634517, "lon": 127.10161833772673, "survivalProbability": 0.6534, "monthlyEstimateKRW": 382775650, "salesPercentile": 68.0}, {"sangwonCode": 3120167, "sangwonName": "고속터미널(고속터미널역)", "gu": "서초구", "lat": 37.50505341252054, "lon": 127.00525902182616, "survivalProbability": 0.6534, "monthlyEstimateKRW": 536782132, "salesPercentile": 73.4}, {"sangwonCode": 3120022, "sangwonName": "북창동(시청역_6번)", "gu": "중구", "lat": 37.56302181255746, "lon": 126.97764599900339, "survivalProbability": 0.6534, "monthlyEstimateKRW": 1373770378, "salesPercentile": 88.1}, {"sangwonCode": 3130065, "sangwonName": "무학봉상점가", "gu": "성동구", "lat": 37.56179460093203, "lon": 127.0306273084275, "survivalProbability": 0.6534, "monthlyEstimateKRW": 116254062, "salesPercentile": 11.9}, {"sangwonCode": 3110398, "sangwonName": "쌍문2동우체국", "gu": "도봉구", "lat": 37.654891974674136, "lon": 127.03714764587913, "survivalProbability": 0.6534, "monthlyEstimateKRW": 120032932, "salesPercentile": 13.0}, {"sangwonCode": 3110745, "sangwonName": "독산동정훈단지", "gu": "금천구", "lat": 37.46594683806725, "lon": 126.90403048852814, "survivalProbability": 0.6534, "monthlyEstimateKRW": 174499015, "salesPercentile": 41.0}, {"sangwonCode": 3110192, "sangwonName": "동의보감타워", "gu": "동대문구", "lat": 37.577289770260045, "lon": 127.03740339685274, "survivalProbability": 0.6534, "monthlyEstimateKRW": 177064710, "salesPercentile": 41.6}, {"sangwonCode": 3130066, "sangwonName": "행당시장상점가", "gu": "성동구", "lat": 37.56119020691093, "lon": 127.0333094753789, "survivalProbability": 0.6534, "monthlyEstimateKRW": 582571720, "salesPercentile": 75.5}, {"sangwonCode": 3120166, "sangwonName": "방배역", "gu": "서초구", "lat": 37.48166335251674, "lon": 126.99726390009168, "survivalProbability": 0.6534, "monthlyEstimateKRW": 1756558938, "salesPercentile": 94.4}, {"sangwonCode": 3110399, "sangwonName": "창2동주민센터", "gu": "도봉구", "lat": 37.64157479754697, "lon": 127.03913516200645, "survivalProbability": 0.6534, "monthlyEstimateKRW": 100248877, "salesPercentile": 3.7}, {"sangwonCode": 3110746, "sangwonName": "금천금빛공원(은행나무사거리서측)", "gu": "금천구", "lat": 37.451774280596055, "lon": 126.90447806264076, "survivalProbability": 0.6534, "monthlyEstimateKRW": 308542627, "salesPercentile": 62.4}, {"sangwonCode": 3110191, "sangwonName": "고려대역 6번", "gu": "동대문구", "lat": 37.58771469603436, "lon": 127.03601597985491, "survivalProbability": 0.6534, "monthlyEstimateKRW": 101873864, "salesPercentile": 6.5}, {"sangwonCode": 3120023, "sangwonName": "서울시청", "gu": "중구", "lat": 37.56803140163849, "lon": 126.97791616374444, "survivalProbability": 0.6534, "monthlyEstimateKRW": 453410707, "salesPercentile": 71.1}, {"sangwonCode": 3110651, "sangwonName": "화원중학교", "gu": "강서구", "lat": 37.53644305357173, "lon": 126.83915364557924, "survivalProbability": 0.6534, "monthlyEstimateKRW": 257087720, "salesPercentile": 51.9}, {"sangwonCode": 3110400, "sangwonName": "도봉구보건소", "gu": "도봉구", "lat": 37.6590088057298, "lon": 127.03917831065678, "survivalProbability": 0.6534, "monthlyEstimateKRW": 158950296, "salesPercentile": 35.8}, {"sangwonCode": 3130067, "sangwonName": "왕십리도선동상점가", "gu": "성동구", "lat": 37.564235292738104, "lon": 127.03429555496496, "survivalProbability": 0.6534, "monthlyEstimateKRW": 1401025222, "salesPercentile": 89.3}, {"sangwonCode": 3110747, "sangwonName": "석수역 1번 출입구", "gu": "금천구", "lat": 37.43459211622573, "lon": 126.90470328680757, "survivalProbability": 0.6534, "monthlyEstimateKRW": 144749251, "salesPercentile": 24.4}, {"sangwonCode": 3111007, "sangwonName": "석촌고분역 4번", "gu": "송파구", "lat": 37.499943567584296, "lon": 127.09387561308928, "survivalProbability": 0.6534, "monthlyEstimateKRW": 98148860, "salesPercentile": 0.8}, {"sangwonCode": 3130068, "sangwonName": "마장축산물시장", "gu": "성동구", "lat": 37.570567751412995, "lon": 127.0392451335414, "survivalProbability": 0.6534, "monthlyEstimateKRW": 257756617, "salesPercentile": 52.7}, {"sangwonCode": 3110188, "sangwonName": "용두동신동아아파트", "gu": "동대문구", "lat": 37.57211950664692, "lon": 127.0325219523249, "survivalProbability": 0.6534, "monthlyEstimateKRW": 172664538, "salesPercentile": 40.2}, {"sangwonCode": 3120024, "sangwonName": "회현역", "gu": "중구", "lat": 37.55733676970219, "lon": 126.97899449435097, "survivalProbability": 0.6534, "monthlyEstimateKRW": 277306525, "salesPercentile": 57.9}, {"sangwonCode": 3120165, "sangwonName": "서래마을카페거리(서래마을)", "gu": "서초구", "lat": 37.498079728383495, "lon": 126.99807752566676, "survivalProbability": 0.6534, "monthlyEstimateKRW": 639604144, "salesPercentile": 79.5}, {"sangwonCode": 3110402, "sangwonName": "도봉구 정병원", "gu": "도봉구", "lat": 37.6617477362968, "lon": 127.03933841839088, "survivalProbability": 0.6534, "monthlyEstimateKRW": 257728518, "salesPercentile": 52.6}, {"sangwonCode": 3130069, "sangwonName": "한양대앞상점가(한양시장, 왕십리맛골목)", "gu": "성동구", "lat": 37.55958418644961, "lon": 127.04049566562402, "survivalProbability": 0.6534, "monthlyEstimateKRW": 1455795767, "salesPercentile": 90.6}, {"sangwonCode": 3110748, "sangwonName": "백산초등학교", "gu": "금천구", "lat": 37.44853971878937, "lon": 126.90457258515943, "survivalProbability": 0.6534, "monthlyEstimateKRW": 131337464, "salesPercentile": 18.2}, {"sangwonCode": 3120164, "sangwonName": "내방역", "gu": "서초구", "lat": 37.48818651312079, "lon": 126.9936227499084, "survivalProbability": 0.6534, "monthlyEstimateKRW": 581323220, "salesPercentile": 75.4}, {"sangwonCode": 3111006, "sangwonName": "석촌고분역 1번", "gu": "송파구", "lat": 37.50490803067036, "lon": 127.09397230648412, "survivalProbability": 0.6534, "monthlyEstimateKRW": 257178855, "salesPercentile": 52.0}, {"sangwonCode": 3110403, "sangwonName": "방학1동주민센터", "gu": "도봉구", "lat": 37.66485586862868, "lon": 127.0400880977698, "survivalProbability": 0.6534, "monthlyEstimateKRW": 285869871, "salesPercentile": 60.6}, {"sangwonCode": 3110649, "sangwonName": "우장산역 1번", "gu": "강서구", "lat": 37.55298352357683, "lon": 126.83779402108571, "survivalProbability": 0.6534, "monthlyEstimateKRW": 98121721, "salesPercentile": 0.7}, {"sangwonCode": 3130070, "sangwonName": "뚝섬역상점가", "gu": "성동구", "lat": 37.548444588661376, "lon": 127.04910132457829, "survivalProbability": 0.6534, "monthlyEstimateKRW": 257250319, "salesPercentile": 52.1}, {"sangwonCode": 3110749, "sangwonName": "금산초등학교(금천고등학교)", "gu": "금천구", "lat": 37.44205287827401, "lon": 126.90514583518677, "survivalProbability": 0.6534, "monthlyEstimateKRW": 171332910, "salesPercentile": 39.9}, {"sangwonCode": 3130072, "sangwonName": "성동용답상가시장", "gu": "성동구", "lat": 37.56397605579394, "lon": 127.05309567240342, "survivalProbability": 0.6534, "monthlyEstimateKRW": 1304764547, "salesPercentile": 86.0}, {"sangwonCode": 3120162, "sangwonName": "방배동카페골목", "gu": "서초구", "lat": 37.495754294560726, "lon": 126.98580805606072, "survivalProbability": 0.6534, "monthlyEstimateKRW": 575623768, "salesPercentile": 74.9}, {"sangwonCode": 3110404, "sangwonName": "신창초등학교", "gu": "도봉구", "lat": 37.63624951166753, "lon": 127.04051457750556, "survivalProbability": 0.6534, "monthlyEstimateKRW": 430545428, "salesPercentile": 70.6}, {"sangwonCode": 3111005, "sangwonName": "삼전역 3번", "gu": "송파구", "lat": 37.501461266767535, "lon": 127.08868660012052, "survivalProbability": 0.6534, "monthlyEstimateKRW": 123735820, "salesPercentile": 14.2}, {"sangwonCode": 3120026, "sangwonName": "을지로입구역", "gu": "중구", "lat": 37.56741061226832, "lon": 126.98339481342215, "survivalProbability": 0.6534, "monthlyEstimateKRW": 1475012831, "salesPercentile": 91.3}, {"sangwonCode": 3130073, "sangwonName": "뚝도시장", "gu": "성동구", "lat": 37.53821587578757, "lon": 127.05450305757522, "survivalProbability": 0.6534, "monthlyEstimateKRW": 607249287, "salesPercentile": 77.3}, {"sangwonCode": 3110179, "sangwonName": "광나루역 1번", "gu": "광진구", "lat": 37.54613015293001, "lon": 127.10322387327058, "survivalProbability": 0.6534, "monthlyEstimateKRW": 158835875, "salesPercentile": 35.6}, {"sangwonCode": 3110750, "sangwonName": "시흥4동주민센터(서울신흥초등학교)", "gu": "금천구", "lat": 37.45774067716475, "lon": 126.90659536161563, "survivalProbability": 0.6534, "monthlyEstimateKRW": 127379182, "salesPercentile": 16.9}, {"sangwonCode": 3130076, "sangwonName": "능동로골목시장", "gu": "광진구", "lat": 37.535164102322085, "lon": 127.06693521742869, "survivalProbability": 0.6534, "monthlyEstimateKRW": 202407223, "salesPercentile": 44.4}, {"sangwonCode": 3120160, "sangwonName": "사당역(사당)", "gu": "서초구", "lat": 37.47752639125283, "lon": 126.98206935862181, "survivalProbability": 0.6534, "monthlyEstimateKRW": 2303703912, "salesPercentile": 98.3}, {"sangwonCode": 3110176, "sangwonName": "해오름공원", "gu": "광진구", "lat": 37.557816247579865, "lon": 127.09214865556346, "survivalProbability": 0.6534, "monthlyEstimateKRW": 98022651, "salesPercentile": 0.4}, {"sangwonCode": 3130078, "sangwonName": "화양제일골목시장", "gu": "광진구", "lat": 37.54327199835248, "lon": 127.0688547838515, "survivalProbability": 0.6534, "monthlyEstimateKRW": 155693905, "salesPercentile": 32.5}, {"sangwonCode": 3111004, "sangwonName": "삼전역 1번", "gu": "송파구", "lat": 37.50671672745682, "lon": 127.08515279573975, "survivalProbability": 0.6534, "monthlyEstimateKRW": 283634599, "salesPercentile": 59.8}, {"sangwonCode": 3110405, "sangwonName": "방학역 1번", "gu": "도봉구", "lat": 37.66914421552273, "lon": 127.04101983972981, "survivalProbability": 0.6534, "monthlyEstimateKRW": 436302766, "salesPercentile": 70.7}, {"sangwonCode": 3110406, "sangwonName": "도봉산역 1번", "gu": "도봉구", "lat": 37.68982127455393, "lon": 127.04215366082332, "survivalProbability": 0.6534, "monthlyEstimateKRW": 244455054, "salesPercentile": 49.0}, {"sangwonCode": 3110647, "sangwonName": "화곡역 5번", "gu": "강서구", "lat": 37.5386573219103, "lon": 126.8375535045462, "survivalProbability": 0.6534, "monthlyEstimateKRW": 364548276, "salesPercentile": 66.3}, {"sangwonCode": 3120027, "sangwonName": "명동역(명동재미로)", "gu": "중구", "lat": 37.55977021816383, "lon": 126.98379263879171, "survivalProbability": 0.6534, "monthlyEstimateKRW": 598603593, "salesPercentile": 76.3}, {"sangwonCode": 3120159, "sangwonName": "서울대입구역", "gu": "관악구", "lat": 37.48095081268923, "lon": 126.95191519812431, "survivalProbability": 0.6534, "monthlyEstimateKRW": 2089636777, "salesPercentile": 96.6}, {"sangwonCode": 3130083, "sangwonName": "중곡제일시장(중곡제일골목시장, 광성시장)", "gu": "광진구", "lat": 37.56381589690654, "lon": 127.08122227894687, "survivalProbability": 0.6534, "monthlyEstimateKRW": 228665734, "salesPercentile": 47.4}, {"sangwonCode": 3110174, "sangwonName": "아차산역 1번", "gu": "광진구", "lat": 37.55541144781092, "lon": 127.0910365963174, "survivalProbability": 0.6534, "monthlyEstimateKRW": 155928813, "salesPercentile": 33.1}, {"sangwonCode": 3130084, "sangwonName": "신성시장(신성골목시장)", "gu": "광진구", "lat": 37.55799920934066, "lon": 127.08853852877327, "survivalProbability": 0.6534, "monthlyEstimateKRW": 233532631, "salesPercentile": 48.2}, {"sangwonCode": 3110407, "sangwonName": "도봉역 2번", "gu": "도봉구", "lat": 37.675496140869164, "lon": 127.04096665862696, "survivalProbability": 0.6534, "monthlyEstimateKRW": 398267918, "salesPercentile": 68.8}, {"sangwonCode": 3130086, "sangwonName": "서울약령시장", "gu": "동대문구", "lat": 37.58210104091711, "lon": 127.0375190174434, "survivalProbability": 0.6534, "monthlyEstimateKRW": 126803796, "salesPercentile": 16.3}, {"sangwonCode": 3110752, "sangwonName": "한울중학교", "gu": "금천구", "lat": 37.46170696090743, "lon": 126.90894149141734, "survivalProbability": 0.6534, "monthlyEstimateKRW": 275428590, "salesPercentile": 57.2}, {"sangwonCode": 3110646, "sangwonName": "푸른들청소년도서관", "gu": "강서구", "lat": 37.54405127997964, "lon": 126.83536920594427, "survivalProbability": 0.6534, "monthlyEstimateKRW": 282732192, "salesPercentile": 59.5}, {"sangwonCode": 3111003, "sangwonName": "삼전역 4번", "gu": "송파구", "lat": 37.504276899620265, "lon": 127.0824809580479, "survivalProbability": 0.6534, "monthlyEstimateKRW": 145850204, "salesPercentile": 26.0}, {"sangwonCode": 3120158, "sangwonName": "녹두거리(대학동)", "gu": "관악구", "lat": 37.47031189276306, "lon": 126.93701139594275, "survivalProbability": 0.6534, "monthlyEstimateKRW": 730163044, "salesPercentile": 80.7}, {"sangwonCode": 3120028, "sangwonName": "명동(명동거리)", "gu": "중구", "lat": 37.56278854470051, "lon": 126.98370143738255, "survivalProbability": 0.6534, "monthlyEstimateKRW": 1334829828, "salesPercentile": 87.2}, {"sangwonCode": 3130091, "sangwonName": "청량종합도매시장", "gu": "동대문구", "lat": 37.58216306814205, "lon": 127.04066639168124, "survivalProbability": 0.6534, "monthlyEstimateKRW": 452599660, "salesPercentile": 71.0}, {"sangwonCode": 3110409, "sangwonName": "창동역 2번", "gu": "도봉구", "lat": 37.65508805919096, "lon": 127.0433919186031, "survivalProbability": 0.6534, "monthlyEstimateKRW": 282963983, "salesPercentile": 59.7}, {"sangwonCode": 3120157, "sangwonName": "신림역(신림)", "gu": "관악구", "lat": 37.484724238201885, "lon": 126.93023791719077, "survivalProbability": 0.6534, "monthlyEstimateKRW": 1834163794, "salesPercentile": 94.9}, {"sangwonCode": 3130094, "sangwonName": "청량리청과물시장", "gu": "동대문구", "lat": 37.57992785188444, "lon": 127.0427935313661, "survivalProbability": 0.6534, "monthlyEstimateKRW": 155757646, "salesPercentile": 32.7}, {"sangwonCode": 3110753, "sangwonName": "시흥동 은행나무사거리", "gu": "금천구", "lat": 37.448849129363595, "lon": 126.90844852214423, "survivalProbability": 0.6534, "monthlyEstimateKRW": 161204785, "salesPercentile": 37.6}, {"sangwonCode": 3130095, "sangwonName": "청량리전통시장", "gu": "동대문구", "lat": 37.58190077942744, "lon": 127.04347394090428, "survivalProbability": 0.6534, "monthlyEstimateKRW": 331850680, "salesPercentile": 63.4}, {"sangwonCode": 3110410, "sangwonName": "방학역 2번", "gu": "도봉구", "lat": 37.66910685916636, "lon": 127.04464688230316, "survivalProbability": 0.6534, "monthlyEstimateKRW": 573050132, "salesPercentile": 74.8}, {"sangwonCode": 3110167, "sangwonName": "용마초등학교", "gu": "광진구", "lat": 37.557956025147156, "lon": 127.08601462792421, "survivalProbability": 0.6534, "monthlyEstimateKRW": 269869259, "salesPercentile": 54.3}, {"sangwonCode": 3120030, "sangwonName": "중부경찰서(영화인의거리)", "gu": "중구", "lat": 37.5627892721598, "lon": 126.9903114098835, "survivalProbability": 0.6534, "monthlyEstimateKRW": 609059894, "salesPercentile": 77.4}, {"sangwonCode": 3110411, "sangwonName": "도봉역 3번", "gu": "도봉구", "lat": 37.67577370338089, "lon": 127.04570508633525, "survivalProbability": 0.6534, "monthlyEstimateKRW": 165084057, "salesPercentile": 38.6}, {"sangwonCode": 3120156, "sangwonName": "총신대입구역(이수, 총신대)", "gu": "동작구", "lat": 37.48599581916168, "lon": 126.98170551541705, "survivalProbability": 0.6534, "monthlyEstimateKRW": 2271516669, "salesPercentile": 97.7}, {"sangwonCode": 3110999, "sangwonName": "윗방죽마을공원", "gu": "강남구", "lat": 37.47158947606482, "lon": 127.10388999835395, "survivalProbability": 0.6534, "monthlyEstimateKRW": 206435584, "salesPercentile": 45.0}, {"sangwonCode": 3130099, "sangwonName": "전농로터리시장", "gu": "동대문구", "lat": 37.57771453733629, "lon": 127.05673937211033, "survivalProbability": 0.6534, "monthlyEstimateKRW": 155311925, "salesPercentile": 32.2}, {"sangwonCode": 3110754, "sangwonName": "삼성산자연공원(서울금천초등학교)", "gu": "금천구", "lat": 37.453237704979706, "lon": 126.90927951506106, "survivalProbability": 0.6534, "monthlyEstimateKRW": 105044180, "salesPercentile": 7.5}, {"sangwonCode": 3110166, "sangwonName": "구의1동주민센터", "gu": "광진구", "lat": 37.54099058656442, "lon": 127.08551989838477, "survivalProbability": 0.6534, "monthlyEstimateKRW": 272450259, "salesPercentile": 55.3}, {"sangwonCode": 3130100, "sangwonName": "답십리시장", "gu": "동대문구", "lat": 37.573614303291755, "lon": 127.05819655188141, "survivalProbability": 0.6534, "monthlyEstimateKRW": 158985790, "salesPercentile": 36.0}, {"sangwonCode": 3130101, "sangwonName": "답십리현대시장", "gu": "동대문구", "lat": 37.567018914391745, "lon": 127.05840648298727, "survivalProbability": 0.6534, "monthlyEstimateKRW": 138529370, "salesPercentile": 20.9}, {"sangwonCode": 3110997, "sangwonName": "대청초등학교", "gu": "강남구", "lat": 37.491544188739695, "lon": 127.08459279952699, "survivalProbability": 0.6534, "monthlyEstimateKRW": 481383081, "salesPercentile": 71.6}, {"sangwonCode": 3120154, "sangwonName": "장승배기역", "gu": "동작구", "lat": 37.5044258725142, "lon": 126.94052266021389, "survivalProbability": 0.6534, "monthlyEstimateKRW": 230566395, "salesPercentile": 47.6}, {"sangwonCode": 3110415, "sangwonName": "수락산역 4번", "gu": "노원구", "lat": 37.67578860179999, "lon": 127.05315257704137, "survivalProbability": 0.6534, "monthlyEstimateKRW": 146472232, "salesPercentile": 26.6}, {"sangwonCode": 3110755, "sangwonName": "동일여자고등학교", "gu": "금천구", "lat": 37.45088873344512, "lon": 126.91283104206283, "survivalProbability": 0.6534, "monthlyEstimateKRW": 159907952, "salesPercentile": 37.0}, {"sangwonCode": 3110165, "sangwonName": "국립정신건강센터", "gu": "광진구", "lat": 37.56214586200675, "lon": 127.08573648594626, "survivalProbability": 0.6534, "monthlyEstimateKRW": 121251313, "salesPercentile": 13.5}, {"sangwonCode": 3120031, "sangwonName": "을지로3가역", "gu": "중구", "lat": 37.56623117746982, "lon": 126.99161264533976, "survivalProbability": 0.6534, "monthlyEstimateKRW": 1907125901, "salesPercentile": 95.7}, {"sangwonCode": 3120153, "sangwonName": "노량진역(노량진)", "gu": "동작구", "lat": 37.51400342189709, "lon": 126.94026621686946, "survivalProbability": 0.6534, "monthlyEstimateKRW": 1426237471, "salesPercentile": 89.9}, {"sangwonCode": 3130106, "sangwonName": "중랑동부시장", "gu": "중랑구", "lat": 37.592353303829555, "lon": 127.07684866751778, "survivalProbability": 0.6534, "monthlyEstimateKRW": 615272837, "salesPercentile": 78.1}, {"sangwonCode": 3110416, "sangwonName": "노원초등학교", "gu": "노원구", "lat": 37.67269635062584, "lon": 127.05719700834393, "survivalProbability": 0.6534, "monthlyEstimateKRW": 167460958, "salesPercentile": 38.9}, {"sangwonCode": 3110163, "sangwonName": "성자초등학교", "gu": "광진구", "lat": 37.53069298250582, "lon": 127.08436546700541, "survivalProbability": 0.6534, "monthlyEstimateKRW": 172322784, "salesPercentile": 40.0}, {"sangwonCode": 3130109, "sangwonName": "묵1동도깨비시장", "gu": "중랑구", "lat": 37.6165604472275, "lon": 127.08053206241114, "survivalProbability": 0.6534, "monthlyEstimateKRW": 208308665, "salesPercentile": 45.2}, {"sangwonCode": 3120152, "sangwonName": "신대방삼거리역", "gu": "동작구", "lat": 37.49943591770157, "lon": 126.92730654329986, "survivalProbability": 0.6534, "monthlyEstimateKRW": 613179461, "salesPercentile": 77.8}, {"sangwonCode": 3130110, "sangwonName": "면목골목시장(면목시장)", "gu": "중랑구", "lat": 37.57866134278171, "lon": 127.08540447332199, "survivalProbability": 0.6534, "monthlyEstimateKRW": 182308968, "salesPercentile": 42.6}, {"sangwonCode": 3120032, "sangwonName": "충무로역", "gu": "중구", "lat": 37.56140202648682, "lon": 126.99494074826379, "survivalProbability": 0.6534, "monthlyEstimateKRW": 2232788437, "salesPercentile": 97.4}, {"sangwonCode": 3110161, "sangwonName": "중곡역 3번", "gu": "광진구", "lat": 37.56810291017622, "lon": 127.08369452966215, "survivalProbability": 0.6534, "monthlyEstimateKRW": 276183263, "salesPercentile": 57.4}, {"sangwonCode": 3110757, "sangwonName": "양평역 2번", "gu": "영등포구", "lat": 37.52482776865417, "lon": 126.88411263138504, "survivalProbability": 0.6534, "monthlyEstimateKRW": 506494217, "salesPercentile": 72.5}, {"sangwonCode": 3110995, "sangwonName": "봉은사역 4번", "gu": "강남구", "lat": 37.51715533112735, "lon": 127.0628243482368, "survivalProbability": 0.6534, "monthlyEstimateKRW": 149497809, "salesPercentile": 28.6}, {"sangwonCode": 3120151, "sangwonName": "보라매공원", "gu": "동작구", "lat": 37.49122632464743, "lon": 126.92503035748912, "survivalProbability": 0.6534, "monthlyEstimateKRW": 610179586, "salesPercentile": 77.6}, {"sangwonCode": 3110419, "sangwonName": "수락산디자인거리", "gu": "노원구", "lat": 37.676426447476146, "lon": 127.05710918618395, "survivalProbability": 0.6534, "monthlyEstimateKRW": 994859831, "salesPercentile": 82.5}, {"sangwonCode": 3120033, "sangwonName": "을지로4가역", "gu": "중구", "lat": 37.56687113657297, "lon": 126.99670615237726, "survivalProbability": 0.6534, "monthlyEstimateKRW": 550318366, "salesPercentile": 74.4}, {"sangwonCode": 3110994, "sangwonName": "개포고등학교", "gu": "강남구", "lat": 37.48338636262938, "lon": 127.06142798105036, "survivalProbability": 0.6534, "monthlyEstimateKRW": 151446412, "salesPercentile": 29.3}, {"sangwonCode": 3130111, "sangwonName": "동원전통종합시장(동원시장, 동원전통시장 상점가)", "gu": "중랑구", "lat": 37.58989278841775, "lon": 127.09068228925835, "survivalProbability": 0.6534, "monthlyEstimateKRW": 225065743, "salesPercentile": 46.8}, {"sangwonCode": 3110640, "sangwonName": "방화역 1번", "gu": "강서구", "lat": 37.577899580777924, "lon": 126.81565326249788, "survivalProbability": 0.6534, "monthlyEstimateKRW": 178935291, "salesPercentile": 41.7}, {"sangwonCode": 3110159, "sangwonName": "구의역 4번", "gu": "광진구", "lat": 37.534966184561476, "lon": 127.0808515528512, "survivalProbability": 0.6534, "monthlyEstimateKRW": 281569686, "salesPercentile": 59.2}, {"sangwonCode": 3110420, "sangwonName": "광운대역 1번", "gu": "노원구", "lat": 37.62105976995063, "lon": 127.05964942521172, "survivalProbability": 0.6534, "monthlyEstimateKRW": 135958508, "salesPercentile": 19.8}, {"sangwonCode": 3130112, "sangwonName": "사가정시장", "gu": "중랑구", "lat": 37.581279375362584, "lon": 127.09058127117551, "survivalProbability": 0.6534, "monthlyEstimateKRW": 510402830, "salesPercentile": 72.6}, {"sangwonCode": 3120149, "sangwonName": "여의도역(여의도)", "gu": "영등포구", "lat": 37.5226811750762, "lon": 126.92625456940182, "survivalProbability": 0.6534, "monthlyEstimateKRW": 2165296047, "salesPercentile": 97.0}, {"sangwonCode": 3120036, "sangwonName": "장충동족발거리(남소영길)", "gu": "중구", "lat": 37.56001447161879, "lon": 127.00550056095275, "survivalProbability": 0.6534, "monthlyEstimateKRW": 240254604, "salesPercentile": 48.6}, {"sangwonCode": 3110639, "sangwonName": "신방화역 8번", "gu": "강서구", "lat": 37.566086019095295, "lon": 126.8146749940266, "survivalProbability": 0.6534, "monthlyEstimateKRW": 127828834, "salesPercentile": 17.2}, {"sangwonCode": 3110421, "sangwonName": "석계역 1번", "gu": "노원구", "lat": 37.615823223737245, "lon": 127.06312247081314, "survivalProbability": 0.6534, "monthlyEstimateKRW": 255136395, "salesPercentile": 50.5}, {"sangwonCode": 3110638, "sangwonName": "신방화역 2번", "gu": "강서구", "lat": 37.56875208070871, "lon": 126.81411374137508, "survivalProbability": 0.6534, "monthlyEstimateKRW": 132985105, "salesPercentile": 18.5}, {"sangwonCode": 3110759, "sangwonName": "문래예술촌(문래창작촌)", "gu": "영등포구", "lat": 37.51476153758128, "lon": 126.89145784534162, "survivalProbability": 0.6534, "monthlyEstimateKRW": 1545312597, "salesPercentile": 92.5}, {"sangwonCode": 3130115, "sangwonName": "우림골목시장", "gu": "중랑구", "lat": 37.597950947766826, "lon": 127.0978373645944, "survivalProbability": 0.6534, "monthlyEstimateKRW": 1258466383, "salesPercentile": 84.8}, {"sangwonCode": 3110158, "sangwonName": "중곡3동주민센터", "gu": "광진구", "lat": 37.56872649117577, "lon": 127.08097858537985, "survivalProbability": 0.6534, "monthlyEstimateKRW": 353223268, "salesPercentile": 65.0}, {"sangwonCode": 3110423, "sangwonName": "석계역 2번", "gu": "노원구", "lat": 37.61705668079721, "lon": 127.06477720668221, "survivalProbability": 0.6534, "monthlyEstimateKRW": 251428499, "salesPercentile": 49.4}, {"sangwonCode": 3120148, "sangwonName": "국회의사당역(국회의사당)", "gu": "영등포구", "lat": 37.528552135513465, "lon": 126.92073922815948, "survivalProbability": 0.6534, "monthlyEstimateKRW": 1558888862, "salesPercentile": 92.7}, {"sangwonCode": 3130117, "sangwonName": "정릉시장", "gu": "성북구", "lat": 37.60841561935929, "lon": 127.00892438114056, "survivalProbability": 0.6534, "monthlyEstimateKRW": 180269780, "salesPercentile": 42.1}, {"sangwonCode": 3110989, "sangwonName": "대치동아우편취급국", "gu": "강남구", "lat": 37.502878544358616, "lon": 127.05449997860173, "survivalProbability": 0.6534, "monthlyEstimateKRW": 115411341, "salesPercentile": 11.8}, {"sangwonCode": 3110760, "sangwonName": "선유도역 6번", "gu": "영등포구", "lat": 37.536368422439324, "lon": 126.89239957829113, "survivalProbability": 0.6534, "monthlyEstimateKRW": 157267788, "salesPercentile": 34.5}, {"sangwonCode": 3130118, "sangwonName": "정릉골 골목형상점가", "gu": "성북구", "lat": 37.61246098232057, "lon": 127.00991022394564, "survivalProbability": 0.6534, "monthlyEstimateKRW": 156290188, "salesPercentile": 33.6}, {"sangwonCode": 3110157, "sangwonName": "자양동우체국", "gu": "광진구", "lat": 37.52999274825613, "lon": 127.08072173589979, "survivalProbability": 0.6534, "monthlyEstimateKRW": 269869259, "salesPercentile": 54.3}, {"sangwonCode": 3120147, "sangwonName": "보라매역", "gu": "동작구", "lat": 37.49934180334875, "lon": 126.92105283479724, "survivalProbability": 0.6534, "monthlyEstimateKRW": 274180762, "salesPercentile": 56.5},