{"industryCode": "CS200034", "industryName": "여관", "dataAsOf": "2026-Q1", "survivalGranularity": "seoul_industry", "cells": [{"sangwonCode": 3130231, "sangwonName": "독산동 우시장", "gu": "금천구", "lat": 37.46670637228808, "lon": 126.89653500499368, "survivalProbability": 0.799, "monthlyEstimateKRW": 79167370, "salesPercentile": 30.4}, {"sangwonCode": 3110132, "sangwonName": "성수2가3동주민센터", "gu": "성동구", "lat": 37.54940654342987, "lon": 127.05394538390803, "survivalProbability": 0.799, "monthlyEstimateKRW": 71435869, "salesPercentile": 23.2}, {"sangwonCode": 3110374, "sangwonName": "송중초등학교", "gu": "강북구", "lat": 37.61982748768701, "lon": 127.0307077341858, "survivalProbability": 0.799, "monthlyEstimateKRW": 96248557, "salesPercentile": 46.4}, {"sangwonCode": 3120141, "sangwonName": "영등포청과시장교차로", "gu": "영등포구", "lat": 37.52111055496124, "lon": 126.89814543719618, "survivalProbability": 0.799, "monthlyEstimateKRW": 147142876, "salesPercentile": 61.6}, {"sangwonCode": 3120095, "sangwonName": "홍제역", "gu": "서대문구", "lat": 37.58822983459291, "lon": 126.94474718990185, "survivalProbability": 0.799, "monthlyEstimateKRW": 89224480, "salesPercentile": 38.4}, {"sangwonCode": 3110187, "sangwonName": "제기동역 6번", "gu": "동대문구", "lat": 37.576083873726574, "lon": 127.03255763774018, "survivalProbability": 0.799, "monthlyEstimateKRW": 56081684, "salesPercentile": 1.8}, {"sangwonCode": 3130139, "sangwonName": "강북종합전통시장(강북종합골목시장)", "gu": "강북구", "lat": 37.64202882933862, "lon": 127.02638863579223, "survivalProbability": 0.799, "monthlyEstimateKRW": 75586529, "salesPercentile": 25.9}, {"sangwonCode": 3110191, "sangwonName": "고려대역 6번", "gu": "동대문구", "lat": 37.58771469603436, "lon": 127.03601597985491, "survivalProbability": 0.799, "monthlyEstimateKRW": 60036094, "salesPercentile": 10.7}, {"sangwonCode": 3130018, "sangwonName": "동대문문구완구거리(동대문문구완구시장)", "gu": "종로구", "lat": 37.57142039698896, "lon": 127.0138553769603, "survivalProbability": 0.799, "monthlyEstimateKRW": 80482049, "salesPercentile": 31.7}, {"sangwonCode": 3111056, "sangwonName": "천호태영아파트", "gu": "강동구", "lat": 37.53774374681216, "lon": 127.12880605851154, "survivalProbability": 0.799, "monthlyEstimateKRW": 66552136, "salesPercentile": 13.8}, {"sangwonCode": 3110371, "sangwonName": "삼양입구사거리", "gu": "강북구", "lat": 37.6164314927593, "lon": 127.02776142881001, "survivalProbability": 0.799, "monthlyEstimateKRW": 56847499, "salesPercentile": 2.7}, {"sangwonCode": 3110376, "sangwonName": "수송초등학교", "gu": "강북구", "lat": 37.63939671921139, "lon": 127.03142958043486, "survivalProbability": 0.799, "monthlyEstimateKRW": 55304909, "salesPercentile": 0.9}, {"sangwonCode": 3110395, "sangwonName": "신한은행 방학동지점", "gu": "도봉구", "lat": 37.66382091407126, "lon": 127.03647206897575, "survivalProbability": 0.799, "monthlyEstimateKRW": 66450358, "salesPercentile": 13.4}, {"sangwonCode": 3110586, "sangwonName": "서울서부지방법원", "gu": "마포구", "lat": 37.54951898566206, "lon": 126.95653355702899, "survivalProbability": 0.799, "monthlyEstimateKRW": 76361976, "salesPercentile": 27.2}, {"sangwonCode": 3110063, "sangwonName": "효창공원앞역 5번", "gu": "용산구", "lat": 37.53747472736998, "lon": 126.96268438684383, "survivalProbability": 0.799, "monthlyEstimateKRW": 69654202, "salesPercentile": 21.0}, {"sangwonCode": 3110079, "sangwonName": "후암동주민센터", "gu": "용산구", "lat": 37.55010179303207, "lon": 126.97920022239718, "survivalProbability": 0.799, "monthlyEstimateKRW": 74723359, "salesPercentile": 25.0}, {"sangwonCode": 3110135, "sangwonName": "성동세무서", "gu": "성동구", "lat": 37.549358847126776, "lon": 127.0594564430696, "survivalProbability": 0.799, "monthlyEstimateKRW": 87084002, "salesPercentile": 34.4}, {"sangwonCode": 3110161, "sangwonName": "중곡역 3번", "gu": "광진구", "lat": 37.56810291017622, "lon": 127.08369452966215, "survivalProbability": 0.799, "monthlyEstimateKRW": 58289346, "salesPercentile": 9.4}, {"sangwonCode": 3120156, "sangwonName": "총신대입구역(이수, 총신대)", "gu": "동작구", "lat": 37.48599581916168, "lon": 126.98170551541705, "survivalProbability": 0.799, "monthlyEstimateKRW": 156351607, "salesPercentile": 63.4}, {"sangwonCode": 3120171, "sangwonName": "서초3동사거리", "gu": "서초구", "lat": 37.48268994804575, "lon": 127.01176991309515, "survivalProbability": 0.799, "monthlyEstimateKRW": 88547808, "salesPercentile": 35.7}, {"sangwonCode": 3130036, "sangwonName": "중부시장(신중부시장)", "gu": "중구", "lat": 37.56561879780388, "lon": 127.00026033411363, "survivalProbability": 0.799, "monthlyEstimateKRW": 88565253, "salesPercentile": 36.2}, {"sangwonCode": 3120010, "sangwonName": "원남동사거리", "gu": "종로구", "lat": 37.57502516803858, "lon": 126.99773594038506, "survivalProbability": 0.799, "monthlyEstimateKRW": 90136042, "salesPercentile": 39.7}, {"sangwonCode": 3120215, "sangwonName": "포스코사거리", "gu": "강남구", "lat": 37.50682411890163, "lon": 127.05626720528876, "survivalProbability": 0.799, "monthlyEstimateKRW": 264341625, "salesPercentile": 73.7}, {"sangwonCode": 3110703, "sangwonName": "개봉역", "gu": "구로구", "lat": 37.495184430322844, "lon": 126.85897502647666, "survivalProbability": 0.799, "monthlyEstimateKRW": 58148564, "salesPercentile": 8.9}, {"sangwonCode": 3111073, "sangwonName": "둔촌동역 1번(한산중학교)", "gu": "강동구", "lat": 37.53115405950385, "lon": 127.13970109005331, "survivalProbability": 0.799, "monthlyEstimateKRW": 55126180, "salesPercentile": 0.4}, {"sangwonCode": 3110278, "sangwonName": "망우본동주민센터", "gu": "중랑구", "lat": 37.60150500683647, "lon": 127.10352681954076, "survivalProbability": 0.799, "monthlyEstimateKRW": 68854028, "salesPercentile": 17.9}, {"sangwonCode": 3110299, "sangwonName": "정릉역 1번", "gu": "성북구", "lat": 37.60190042877038, "lon": 127.01798309800381, "survivalProbability": 0.799, "monthlyEstimateKRW": 75333010, "salesPercentile": 25.4}, {"sangwonCode": 3120210, "sangwonName": "선릉역", "gu": "강남구", "lat": 37.50461073634166, "lon": 127.04935534409961, "survivalProbability": 0.799, "monthlyEstimateKRW": 895683022, "salesPercentile": 91.5}, {"sangwonCode": 3110710, "sangwonName": "남구로역 3번", "gu": "구로구", "lat": 37.486886294270526, "lon": 126.88394512624056, "survivalProbability": 0.799, "monthlyEstimateKRW": 565904256, "salesPercentile": 86.6}, {"sangwonCode": 3120225, "sangwonName": "잠실새내역(신천)", "gu": "송파구", "lat": 37.51048475437836, "lon": 127.0825782728224, "survivalProbability": 0.799, "monthlyEstimateKRW": 1193286018, "salesPercentile": 96.9}, {"sangwonCode": 3110712, "sangwonName": "남구로역 5번", "gu": "구로구", "lat": 37.487447465830186, "lon": 126.88656749689855, "survivalProbability": 0.799, "monthlyEstimateKRW": 60832893, "salesPercentile": 11.6}, {"sangwonCode": 3120226, "sangwonName": "석촌고분역", "gu": "송파구", "lat": 37.5033197760243, "lon": 127.09704648858848, "survivalProbability": 0.799, "monthlyEstimateKRW": 159691800, "salesPercentile": 64.7}, {"sangwonCode": 3120204, "sangwonName": "르네상스호텔사거리", "gu": "강남구", "lat": 37.50309058777553, "lon": 127.04281749442562, "survivalProbability": 0.799, "monthlyEstimateKRW": 213610793, "salesPercentile": 68.3}, {"sangwonCode": 3120203, "sangwonName": "강남구청역", "gu": "강남구", "lat": 37.51624600772093, "lon": 127.04068715258765, "survivalProbability": 0.799, "monthlyEstimateKRW": 145927148, "salesPercentile": 61.2}, {"sangwonCode": 3110262, "sangwonName": "상봉역 3번", "gu": "중랑구", "lat": 37.5943810926847, "lon": 127.08888734246219, "survivalProbability": 0.799, "monthlyEstimateKRW": 67450242, "salesPercentile": 14.5}, {"sangwonCode": 3120229, "sangwonName": "방이동먹자골목", "gu": "송파구", "lat": 37.51438248056646, "lon": 127.10923158441152, "survivalProbability": 0.799, "monthlyEstimateKRW": 1025391518, "salesPercentile": 95.1}, {"sangwonCode": 3111057, "sangwonName": "천호공원(해공체육문화센터)", "gu": "강동구", "lat": 37.54332876710307, "lon": 127.12987932321663, "survivalProbability": 0.799, "monthlyEstimateKRW": 85546991, "salesPercentile": 33.0}, {"sangwonCode": 3110260, "sangwonName": "면목역 3번", "gu": "중랑구", "lat": 37.58958078442301, "lon": 127.08622084620522, "survivalProbability": 0.799, "monthlyEstimateKRW": 67450242, "salesPercentile": 14.5}, {"sangwonCode": 3120201, "sangwonName": "도곡1동", "gu": "강남구", "lat": 37.49256784501679, "lon": 127.03992798739, "survivalProbability": 0.799, "monthlyEstimateKRW": 140755577, "salesPercentile": 58.9}, {"sangwonCode": 3110714, "sangwonName": "구로4동주민센터", "gu": "구로구", "lat": 37.49132429193936, "lon": 126.88919631652536, "survivalProbability": 0.799, "monthlyEstimateKRW": 62034007, "salesPercentile": 12.5}, {"sangwonCode": 3110319, "sangwonName": "종암동주민센터", "gu": "성북구", "lat": 37.59923839992779, "lon": 127.03595359013545, "survivalProbability": 0.799, "monthlyEstimateKRW": 70725023, "salesPercentile": 22.8}, {"sangwonCode": 3120001, "sangwonName": "서대문역", "gu": "종로구", "lat": 37.566677102939934, "lon": 126.96608817274021, "survivalProbability": 0.799, "monthlyEstimateKRW": 90102440, "salesPercentile": 39.3}, {"sangwonCode": 3120233, "sangwonName": "몽촌토성역", "gu": "송파구", "lat": 37.51596426713219, "lon": 127.11345302908573, "survivalProbability": 0.799, "monthlyEstimateKRW": 896126402, "salesPercentile": 92.0}, {"sangwonCode": 3120198, "sangwonName": "구역삼세무서", "gu": "강남구", "lat": 37.49553304713569, "lon": 127.03720426859347, "survivalProbability": 0.799, "monthlyEstimateKRW": 236998828, "salesPercentile": 71.4}, {"sangwonCode": 3111052, "sangwonName": "암사역 3번(천호동자전거거리)", "gu": "강동구", "lat": 37.54790198936116, "lon": 127.12510051019554, "survivalProbability": 0.799, "monthlyEstimateKRW": 55851521, "salesPercentile": 1.3}, {"sangwonCode": 3110255, "sangwonName": "상봉역 4번", "gu": "중랑구", "lat": 37.593691768235416, "lon": 127.0827833599205, "survivalProbability": 0.799, "monthlyEstimateKRW": 90870117, "salesPercentile": 42.0}, {"sangwonCode": 3120197, "sangwonName": "역삼역", "gu": "강남구", "lat": 37.500398869563554, "lon": 127.03595138126002, "survivalProbability": 0.799, "monthlyEstimateKRW": 1467120527, "salesPercentile": 99.1}, {"sangwonCode": 3110717, "sangwonName": "남구로역 2번", "gu": "구로구", "lat": 37.48428725232738, "lon": 126.88901449779476, "survivalProbability": 0.799, "monthlyEstimateKRW": 127584824, "salesPercentile": 55.8}, {"sangwonCode": 3120194, "sangwonName": "언주역(차병원)", "gu": "강남구", "lat": 37.507400250733085, "lon": 127.03403202540474, "survivalProbability": 0.799, "monthlyEstimateKRW": 210813489, "salesPercentile": 67.9}, {"sangwonCode": 3120004, "sangwonName": "종로구청", "gu": "종로구", "lat": 37.57410466145737, "lon": 126.98109533500013, "survivalProbability": 0.799, "monthlyEstimateKRW": 95388377, "salesPercentile": 46.0}, {"sangwonCode": 3110718, "sangwonName": "한국SGI본부", "gu": "구로구", "lat": 37.503462343662285, "lon": 126.89080694582884, "survivalProbability": 0.799, "monthlyEstimateKRW": 143125353, "salesPercentile": 59.4}, {"sangwonCode": 3120192, "sangwonName": "뱅뱅사거리", "gu": "강남구", "lat": 37.4902548060724, "lon": 127.03149136697971, "survivalProbability": 0.799, "monthlyEstimateKRW": 462620833, "salesPercentile": 84.8}, {"sangwonCode": 3110721, "sangwonName": "가리봉파출소", "gu": "구로구", "lat": 37.479551604922634, "lon": 126.89297855818604, "survivalProbability": 0.799, "monthlyEstimateKRW": 89074032, "salesPercentile": 37.1}, {"sangwonCode": 3120006, "sangwonName": "종각역", "gu": "종로구", "lat": 37.57037490191488, "lon": 126.98349603169189, "survivalProbability": 0.799, "monthlyEstimateKRW": 860503062, "salesPercentile": 89.7}, {"sangwonCode": 3120190, "sangwonName": "강남을지병원", "gu": "강남구", "lat": 37.520006819268275, "lon": 127.02825732811267, "survivalProbability": 0.799, "monthlyEstimateKRW": 144347001, "salesPercentile": 59.8}, {"sangwonCode": 3110242, "sangwonName": "면목5동주민센터", "gu": "중랑구", "lat": 37.58466695176947, "lon": 127.07819937597111, "survivalProbability": 0.799, "monthlyEstimateKRW": 70718938, "salesPercentile": 22.3}, {"sangwonCode": 3110725, "sangwonName": "가산동주민센터", "gu": "금천구", "lat": 37.47775628898691, "lon": 126.89045996878538, "survivalProbability": 0.799, "monthlyEstimateKRW": 102330723, "salesPercentile": 50.0}, {"sangwonCode": 3120243, "sangwonName": "천호역", "gu": "강동구", "lat": 37.53952339599033, "lon": 127.12444156010653, "survivalProbability": 0.799, "monthlyEstimateKRW": 439325771, "salesPercentile": 83.9}, {"sangwonCode": 3120189, "sangwonName": "강남역", "gu": "서초구", "lat": 37.497571920870165, "lon": 127.02775129423334, "survivalProbability": 0.799, "monthlyEstimateKRW": 344706366, "salesPercentile": 79.9}, {"sangwonCode": 3110355, "sangwonName": "삼양사거리역 2번", "gu": "강북구", "lat": 37.621596021966724, "lon": 127.01815775151192, "survivalProbability": 0.799, "monthlyEstimateKRW": 57116168, "salesPercentile": 4.5}, {"sangwonCode": 3120008, "sangwonName": "인사동", "gu": "종로구", "lat": 37.57390703196603, "lon": 126.98522723193123, "survivalProbability": 0.799, "monthlyEstimateKRW": 241282191, "salesPercentile": 71.9}, {"sangwonCode": 3110237, "sangwonName": "메가박스 상봉", "gu": "중랑구", "lat": 37.591408615387756, "lon": 127.07474165969481, "survivalProbability": 0.799, "monthlyEstimateKRW": 110408807, "salesPercentile": 52.2}, {"sangwonCode": 3110358, "sangwonName": "인수동 우편취급국", "gu": "강북구", "lat": 37.63589449602717, "lon": 127.01929418298732, "survivalProbability": 0.799, "monthlyEstimateKRW": 57535774, "salesPercentile": 6.7}, {"sangwonCode": 3120187, "sangwonName": "신논현역", "gu": "강남구", "lat": 37.50502379497898, "lon": 127.02527722374786, "survivalProbability": 0.799, "monthlyEstimateKRW": 360882065, "salesPercentile": 80.8}, {"sangwonCode": 3110729, "sangwonName": "가산동우체국", "gu": "금천구", "lat": 37.47802914720058, "lon": 126.8932520648618, "survivalProbability": 0.799, "monthlyEstimateKRW": 188726253, "salesPercentile": 67.0}, {"sangwonCode": 3110360, "sangwonName": "수유초등학교", "gu": "강북구", "lat": 37.63250662510774, "lon": 127.02027893106107, "survivalProbability": 0.799, "monthlyEstimateKRW": 131326561, "salesPercentile": 56.7}, {"sangwonCode": 3120009, "sangwonName": "종로3가역", "gu": "종로구", "lat": 37.57165510209864, "lon": 126.99069513429947, "survivalProbability": 0.799, "monthlyEstimateKRW": 1652040931, "salesPercentile": 100.0}, {"sangwonCode": 3110234, "sangwonName": "중랑역 4번", "gu": "중랑구", "lat": 37.59382397632805, "lon": 127.07362308419515, "survivalProbability": 0.799, "monthlyEstimateKRW": 77324325, "salesPercentile": 29.5}, {"sangwonCode": 3120246, "sangwonName": "길동역", "gu": "강동구", "lat": 37.536471614031555, "lon": 127.13829670196402, "survivalProbability": 0.799, "monthlyEstimateKRW": 1060295318, "salesPercentile": 96.0}, {"sangwonCode": 3110361, "sangwonName": "삼양사거리역 1번", "gu": "강북구", "lat": 37.620856567278494, "lon": 127.02195219826604, "survivalProbability": 0.799, "monthlyEstimateKRW": 57049674, "salesPercentile": 4.0}, {"sangwonCode": 3110230, "sangwonName": "장안현대홈타운1차아파트", "gu": "동대문구", "lat": 37.56900286007882, "lon": 127.07158379588344, "survivalProbability": 0.799, "monthlyEstimateKRW": 58001397, "salesPercentile": 8.0}, {"sangwonCode": 3120248, "sangwonName": "명일역", "gu": "강동구", "lat": 37.55124972345866, "lon": 127.1443784336575, "survivalProbability": 0.799, "monthlyEstimateKRW": 131072590, "salesPercentile": 56.2}, {"sangwonCode": 3110369, "sangwonName": "성신여대운정그린캠퍼스", "gu": "강북구", "lat": 37.633154257577395, "lon": 127.02579638357507, "survivalProbability": 0.799, "monthlyEstimateKRW": 111389458, "salesPercentile": 53.1}, {"sangwonCode": 3110734, "sangwonName": "금천파출소", "gu": "금천구", "lat": 37.45366183872093, "lon": 126.89898290125245, "survivalProbability": 0.799, "monthlyEstimateKRW": 136718781, "salesPercentile": 58.0}, {"sangwonCode": 3120012, "sangwonName": "대학로(혜화역)", "gu": "종로구", "lat": 37.5827467014045, "lon": 127.00132461165737, "survivalProbability": 0.799, "monthlyEstimateKRW": 345615840, "salesPercentile": 80.4}, {"sangwonCode": 3110736, "sangwonName": "독산119안전센터", "gu": "금천구", "lat": 37.46757501512585, "lon": 126.90081805088234, "survivalProbability": 0.799, "monthlyEstimateKRW": 57530766, "salesPercentile": 6.2}, {"sangwonCode": 3120014, "sangwonName": "종로5가역", "gu": "종로구", "lat": 37.571907724627984, "lon": 127.00232056437183, "survivalProbability": 0.799, "monthlyEstimateKRW": 902853861, "salesPercentile": 92.9}, {"sangwonCode": 3110738, "sangwonName": "문성초등학교", "gu": "금천구", "lat": 37.472305721353386, "lon": 126.90129790602968, "survivalProbability": 0.799, "monthlyEstimateKRW": 89882760, "salesPercentile": 38.8}, {"sangwonCode": 3130020, "sangwonName": "동묘시장(동묘벼룩시장)", "gu": "종로구", "lat": 37.571356966071896, "lon": 127.01665134166707, "survivalProbability": 0.799, "monthlyEstimateKRW": 80684911, "salesPercentile": 32.1}, {"sangwonCode": 3130024, "sangwonName": "남대문시장(자유상가)", "gu": "중구", "lat": 37.55957999880267, "lon": 126.97761307341452, "survivalProbability": 0.799, "monthlyEstimateKRW": 91029607, "salesPercentile": 42.9}, {"sangwonCode": 3120178, "sangwonName": "신사역", "gu": "서초구", "lat": 37.515963075171285, "lon": 127.01955735958383, "survivalProbability": 0.799, "monthlyEstimateKRW": 190032711, "salesPercentile": 67.4}, {"sangwonCode": 3110658, "sangwonName": "화곡초등학교", "gu": "강서구", "lat": 37.54528194540314, "lon": 126.84598070839382, "survivalProbability": 0.799, "monthlyEstimateKRW": 297034767, "salesPercentile": 75.9}, {"sangwonCode": 3120016, "sangwonName": "동대문역", "gu": "종로구", "lat": 37.571231452916095, "lon": 127.01137632245057, "survivalProbability": 0.799, "monthlyEstimateKRW": 882957016, "salesPercentile": 91.1}, {"sangwonCode": 3110215, "sangwonName": "회기역 1번", "gu": "동대문구", "lat": 37.59131873274638, "lon": 127.05838017647953, "survivalProbability": 0.799, "monthlyEstimateKRW": 61873741, "salesPercentile": 12.1}, {"sangwonCode": 3120017, "sangwonName": "동묘앞역(동묘)", "gu": "종로구", "lat": 37.572744764086856, "lon": 127.01464801900576, "survivalProbability": 0.799, "monthlyEstimateKRW": 432291976, "salesPercentile": 83.5}, {"sangwonCode": 3110212, "sangwonName": "답십리초등학교", "gu": "동대문구", "lat": 37.570011170999635, "lon": 127.05645053947013, "survivalProbability": 0.799, "monthlyEstimateKRW": 57622237, "salesPercentile": 7.1}, {"sangwonCode": 3110656, "sangwonName": "까치산역 3번", "gu": "강서구", "lat": 37.52876264452878, "lon": 126.84296009158733, "survivalProbability": 0.799, "monthlyEstimateKRW": 1259166742, "salesPercentile": 97.8}, {"sangwonCode": 3120018, "sangwonName": "중림동", "gu": "중구", "lat": 37.55949660361493, "lon": 126.96766462208775, "survivalProbability": 0.799, "monthlyEstimateKRW": 365580663, "salesPercentile": 81.7}, {"sangwonCode": 3120173, "sangwonName": "교대역(법원.검찰청)", "gu": "서초구", "lat": 37.49370893679033, "lon": 127.0147795736092, "survivalProbability": 0.799, "monthlyEstimateKRW": 287024512, "salesPercentile": 75.4}, {"sangwonCode": 3110211, "sangwonName": "전곡마을마당공원", "gu": "동대문구", "lat": 37.5798238453243, "lon": 127.05465790447084, "survivalProbability": 0.799, "monthlyEstimateKRW": 56351340, "salesPercentile": 2.2}, {"sangwonCode": 3120172, "sangwonName": "교대입구교차로", "gu": "서초구", "lat": 37.48774452227515, "lon": 127.01257351118738, "survivalProbability": 0.799, "monthlyEstimateKRW": 362670011, "salesPercentile": 81.2}, {"sangwonCode": 3130055, "sangwonName": "황학시장(서울중앙시장, 신중앙시장)", "gu": "중구", "lat": 37.567292714343196, "lon": 127.02138183226494, "survivalProbability": 0.799, "monthlyEstimateKRW": 77342719, "salesPercentile": 29.9}, {"sangwonCode": 3110205, "sangwonName": "경희대삼거리", "gu": "동대문구", "lat": 37.59099765389255, "lon": 127.0513258738915, "survivalProbability": 0.799, "monthlyEstimateKRW": 64807519, "salesPercentile": 12.9}, {"sangwonCode": 3110744, "sangwonName": "독산동성당", "gu": "금천구", "lat": 37.47067726744691, "lon": 126.90418270467585, "survivalProbability": 0.799, "monthlyEstimateKRW": 60254624, "salesPercentile": 11.2}, {"sangwonCode": 3120022, "sangwonName": "북창동(시청역_6번)", "gu": "중구", "lat": 37.56302181255746, "lon": 126.97764599900339, "survivalProbability": 0.799, "monthlyEstimateKRW": 1073686640, "salesPercentile": 96.4}, {"sangwonCode": 3110199, "sangwonName": "홍릉시장", "gu": "동대문구", "lat": 37.58473921335797, "lon": 127.04263778068552, "survivalProbability": 0.799, "monthlyEstimateKRW": 102428460, "salesPercentile": 50.4}, {"sangwonCode": 3110195, "sangwonName": "동대문구청", "gu": "동대문구", "lat": 37.57615342395652, "lon": 127.04070840517555, "survivalProbability": 0.799, "monthlyEstimateKRW": 57757146, "salesPercentile": 7.6}, {"sangwonCode": 3110192, "sangwonName": "동의보감타워", "gu": "동대문구", "lat": 37.577289770260045, "lon": 127.03740339685274, "survivalProbability": 0.799, "monthlyEstimateKRW": 70021357, "salesPercentile": 21.4}, {"sangwonCode": 3130067, "sangwonName": "왕십리도선동상점가", "gu": "성동구", "lat": 37.564235292738104, "lon": 127.03429555496496, "survivalProbability": 0.799, "monthlyEstimateKRW": 852671267, "salesPercentile": 89.3}, {"sangwonCode": 3120166, "sangwonName": "방배역", "gu": "서초구", "lat": 37.48166335251674, "lon": 126.99726390009168, "survivalProbability": 0.799, "monthlyEstimateKRW": 90681394, "salesPercentile": 41.5}, {"sangwonCode": 3120024, "sangwonName": "회현역", "gu": "중구", "lat": 37.55733676970219, "lon": 126.97899449435097, "survivalProbability": 0.799, "monthlyEstimateKRW": 477088553, "salesPercentile": 85.7}, {"sangwonCode": 3120165, "sangwonName": "서래마을카페거리(서래마을)", "gu": "서초구", "lat": 37.498079728383495, "lon": 126.99807752566676, "survivalProbability": 0.799, "monthlyEstimateKRW": 91289020, "salesPercentile": 43.3}, {"sangwonCode": 3111006, "sangwonName": "석촌고분역 1번", "gu": "송파구", "lat": 37.50490803067036, "lon": 127.09397230648412, "survivalProbability": 0.799, "monthlyEstimateKRW": 68033778, "salesPercentile": 16.5}, {"sangwonCode": 3120026, "sangwonName": "을지로입구역", "gu": "중구", "lat": 37.56741061226832, "lon": 126.98339481342215, "survivalProbability": 0.799, "monthlyEstimateKRW": 99711534, "salesPercentile": 49.1}, {"sangwonCode": 3120162, "sangwonName": "방배동카페골목", "gu": "서초구", "lat": 37.495754294560726, "lon": 126.98580805606072, "survivalProbability": 0.799, "monthlyEstimateKRW": 162093113, "salesPercentile": 66.1}, {"sangwonCode": 3110179, "sangwonName": "광나루역 1번", "gu": "광진구", "lat": 37.54613015293001, "lon": 127.10322387327058, "survivalProbability": 0.799, "monthlyEstimateKRW": 73744409, "salesPercentile": 24.6}, {"sangwonCode": 3120027, "sangwonName": "명동역(명동재미로)", "gu": "중구", "lat": 37.55977021816383, "lon": 126.98379263879171, "survivalProbability": 0.799, "monthlyEstimateKRW": 311110157, "salesPercentile": 77.2}, {"sangwonCode": 3120160, "sangwonName": "사당역(사당)", "gu": "서초구", "lat": 37.47752639125283, "lon": 126.98206935862181, "survivalProbability": 0.799, "monthlyEstimateKRW": 781432123, "salesPercentile": 87.9}, {"sangwonCode": 3120159, "sangwonName": "서울대입구역", "gu": "관악구", "lat": 37.48095081268923, "lon": 126.95191519812431, "survivalProbability": 0.799, "monthlyEstimateKRW": 984300583, "salesPercentile": 94.2}, {"sangwonCode": 3120028, "sangwonName": "명동(명동거리)", "gu": "중구", "lat": 37.56278854470051, "lon": 126.98370143738255, "survivalProbability": 0.799, "monthlyEstimateKRW": 1029871302, "salesPercentile": 95.5}, {"sangwonCode": 3110172, "sangwonName": "광진초등학교", "gu": "광진구", "lat": 37.5470873761971, "lon": 127.08953275126271, "survivalProbability": 0.799, "monthlyEstimateKRW": 58021671, "salesPercentile": 8.5}, {"sangwonCode": 3120029, "sangwonName": "을지로2가", "gu": "중구", "lat": 37.565194494301046, "lon": 126.98595335644623, "survivalProbability": 0.799, "monthlyEstimateKRW": 106842035, "salesPercentile": 51.3}, {"sangwonCode": 3130095, "sangwonName": "청량리전통시장", "gu": "동대문구", "lat": 37.58190077942744, "lon": 127.04347394090428, "survivalProbability": 0.799, "monthlyEstimateKRW": 89071044, "salesPercentile": 36.6}, {"sangwonCode": 3120030, "sangwonName": "중부경찰서(영화인의거리)", "gu": "중구", "lat": 37.5627892721598, "lon": 126.9903114098835, "survivalProbability": 0.799, "monthlyEstimateKRW": 427123168, "salesPercentile": 83.0}, {"sangwonCode": 3120157, "sangwonName": "신림역(신림)", "gu": "관악구", "lat": 37.484724238201885, "lon": 126.93023791719077, "survivalProbability": 0.799, "monthlyEstimateKRW": 920138836, "salesPercentile": 93.3}, {"sangwonCode": 3110167, "sangwonName": "용마초등학교", "gu": "광진구", "lat": 37.557956025147156, "lon": 127.08601462792421, "survivalProbability": 0.799, "monthlyEstimateKRW": 57456812, "salesPercentile": 5.4}, {"sangwonCode": 3120031, "sangwonName": "을지로3가역", "gu": "중구", "lat": 37.56623117746982, "lon": 126.99161264533976, "survivalProbability": 0.799, "monthlyEstimateKRW": 335650630, "salesPercentile": 79.5}, {"sangwonCode": 3120032, "sangwonName": "충무로역", "gu": "중구", "lat": 37.56140202648682, "lon": 126.99494074826379, "survivalProbability": 0.799, "monthlyEstimateKRW": 375516002, "salesPercentile": 82.6}, {"sangwonCode": 3120153, "sangwonName": "노량진역(노량진)", "gu": "동작구", "lat": 37.51400342189709, "lon": 126.94026621686946, "survivalProbability": 0.799, "monthlyEstimateKRW": 640773018, "salesPercentile": 87.1}, {"sangwonCode": 3120152, "sangwonName": "신대방삼거리역", "gu": "동작구", "lat": 37.49943591770157, "lon": 126.92730654329986, "survivalProbability": 0.799, "monthlyEstimateKRW": 97458393, "salesPercentile": 47.8}, {"sangwonCode": 3130111, "sangwonName": "동원전통종합시장(동원시장, 동원전통시장 상점가)", "gu": "중랑구", "lat": 37.58989278841775, "lon": 127.09068228925835, "survivalProbability": 0.799, "monthlyEstimateKRW": 76898169, "salesPercentile": 28.6}, {"sangwonCode": 3120034, "sangwonName": "중구청(퇴계로4가)", "gu": "중구", "lat": 37.56354649140835, "lon": 126.99809848175721, "survivalProbability": 0.799, "monthlyEstimateKRW": 93704121, "salesPercentile": 44.6}, {"sangwonCode": 3120036, "sangwonName": "장충동족발거리(남소영길)", "gu": "중구", "lat": 37.56001447161879, "lon": 127.00550056095275, "survivalProbability": 0.799, "monthlyEstimateKRW": 101570907, "salesPercentile": 49.6}, {"sangwonCode": 3110423, "sangwonName": "석계역 2번", "gu": "노원구", "lat": 37.61705668079721, "lon": 127.06477720668221, "survivalProbability": 0.799, "monthlyEstimateKRW": 69041229, "salesPercentile": 18.8}, {"sangwonCode": 3120037, "sangwonName": "동대문역사문화공원역", "gu": "중구", "lat": 37.56545638813874, "lon": 127.00737989015032, "survivalProbability": 0.799, "monthlyEstimateKRW": 1273484738, "salesPercentile": 98.2}, {"sangwonCode": 3110762, "sangwonName": "선유도역 1번", "gu": "영등포구", "lat": 37.54030612628488, "lon": 126.89276731629242, "survivalProbability": 0.799, "monthlyEstimateKRW": 126496278, "salesPercentile": 55.4}, {"sangwonCode": 3120038, "sangwonName": "약수역", "gu": "중구", "lat": 37.554283830627085, "lon": 127.0100270036947, "survivalProbability": 0.799, "monthlyEstimateKRW": 91658731, "salesPercentile": 43.8}, {"sangwonCode": 3120145, "sangwonName": "영등포역(영등포)", "gu": "영등포구", "lat": 37.51843182609498, "lon": 126.90568269638135, "survivalProbability": 0.799, "monthlyEstimateKRW": 1235202404, "salesPercentile": 97.3}, {"sangwonCode": 3110429, "sangwonName": "공릉동 국수거리", "gu": "노원구", "lat": 37.62103417354386, "lon": 127.07311752729491, "survivalProbability": 0.799, "monthlyEstimateKRW": 56992255, "salesPercentile": 3.1}, {"sangwonCode": 3120039, "sangwonName": "신당역", "gu": "중구", "lat": 37.565428542094914, "lon": 127.01572187665211, "survivalProbability": 0.799, "monthlyEstimateKRW": 218616416, "salesPercentile": 68.8}, {"sangwonCode": 3120143, "sangwonName": "당산역", "gu": "영등포구", "lat": 37.53475425924634, "lon": 126.90113646243866, "survivalProbability": 0.799, "monthlyEstimateKRW": 92732077, "salesPercentile": 44.2}, {"sangwonCode": 3130137, "sangwonName": "수유전통시장(수유시장, 수유골목시장)", "gu": "강북구", "lat": 37.631163727607486, "lon": 127.02263495817301, "survivalProbability": 0.799, "monthlyEstimateKRW": 87322227, "salesPercentile": 35.3}, {"sangwonCode": 3110770, "sangwonName": "영등포구청역 6번", "gu": "영등포구", "lat": 37.52289416609549, "lon": 126.8977131408658, "survivalProbability": 0.799, "monthlyEstimateKRW": 68816966, "salesPercentile": 17.0}, {"sangwonCode": 3110142, "sangwonName": "화양사거리", "gu": "광진구", "lat": 37.54629972809252, "lon": 127.06821255940088, "survivalProbability": 0.799, "monthlyEstimateKRW": 257621672, "salesPercentile": 72.8}, {"sangwonCode": 3120041, "sangwonName": "신용산역(용산역)", "gu": "용산구", "lat": 37.52899651132542, "lon": 126.96333347099194, "survivalProbability": 0.799, "monthlyEstimateKRW": 93828551, "salesPercentile": 45.1}, {"sangwonCode": 3120136, "sangwonName": "영등포구청역", "gu": "영등포구", "lat": 37.5253946047632, "lon": 126.89281128917447, "survivalProbability": 0.799, "monthlyEstimateKRW": 133211954, "salesPercentile": 57.1}, {"sangwonCode": 3110630, "sangwonName": "공항시장역 1번", "gu": "강서구", "lat": 37.56531932367912, "lon": 126.80849682132225, "survivalProbability": 0.799, "monthlyEstimateKRW": 57011500, "salesPercentile": 3.6}, {"sangwonCode": 3110139, "sangwonName": "자양4동주민센터", "gu": "광진구", "lat": 37.53512096389572, "lon": 127.06347301482698, "survivalProbability": 0.799, "monthlyEstimateKRW": 57499417, "salesPercentile": 5.8}, {"sangwonCode": 3120042, "sangwonName": "숙대입구역(남영역, 남영동)", "gu": "용산구", "lat": 37.54225254838164, "lon": 126.97176822424127, "survivalProbability": 0.799, "monthlyEstimateKRW": 150732279, "salesPercentile": 62.5}, {"sangwonCode": 3110138, "sangwonName": "송정체육공원", "gu": "성동구", "lat": 37.550787295336974, "lon": 127.06717551903371, "survivalProbability": 0.799, "monthlyEstimateKRW": 69470760, "salesPercentile": 20.1}, {"sangwonCode": 3120134, "sangwonName": "구로전화국", "gu": "금천구", "lat": 37.47993162827735, "lon": 126.9054145419079, "survivalProbability": 0.799, "monthlyEstimateKRW": 96534420, "salesPercentile": 46.9}, {"sangwonCode": 3110778, "sangwonName": "구로디지털단지역 4번", "gu": "영등포구", "lat": 37.48862394889115, "lon": 126.90245239287532, "survivalProbability": 0.799, "monthlyEstimateKRW": 110716191, "salesPercentile": 52.7}, {"sangwonCode": 3120043, "sangwonName": "서울역", "gu": "중구", "lat": 37.556353450145394, "lon": 126.97293992249331, "survivalProbability": 0.799, "monthlyEstimateKRW": 304820753, "salesPercentile": 76.8}, {"sangwonCode": 3120132, "sangwonName": "독산동", "gu": "금천구", "lat": 37.470740558781436, "lon": 126.89389548521771, "survivalProbability": 0.799, "monthlyEstimateKRW": 144466882, "salesPercentile": 60.3}, {"sangwonCode": 3130163, "sangwonName": "응암오거리상점가", "gu": "은평구", "lat": 37.589005588687364, "lon": 126.9157725618011, "survivalProbability": 0.799, "monthlyEstimateKRW": 158313426, "salesPercentile": 63.8}, {"sangwonCode": 3110134, "sangwonName": "성수119안전센터", "gu": "성동구", "lat": 37.536070183843606, "lon": 127.05727352526394, "survivalProbability": 0.799, "monthlyEstimateKRW": 69244130, "salesPercentile": 19.6}, {"sangwonCode": 3110780, "sangwonName": "신길대성유니드아파트", "gu": "영등포구", "lat": 37.50210357784792, "lon": 126.90314734322918, "survivalProbability": 0.799, "monthlyEstimateKRW": 84655177, "salesPercentile": 32.6}, {"sangwonCode": 3120131, "sangwonName": "가산디지털단지", "gu": "금천구", "lat": 37.47710029831843, "lon": 126.88288623812605, "survivalProbability": 0.799, "monthlyEstimateKRW": 275134902, "salesPercentile": 74.6}, {"sangwonCode": 3130167, "sangwonName": "연신내상점가(연빛거리)", "gu": "은평구", "lat": 37.620010847855006, "lon": 126.91890918747656, "survivalProbability": 0.799, "monthlyEstimateKRW": 98039281, "salesPercentile": 48.2}, {"sangwonCode": 3120045, "sangwonName": "남영동 먹자골목", "gu": "용산구", "lat": 37.54286558593868, "lon": 126.9733068920239, "survivalProbability": 0.799, "monthlyEstimateKRW": 154406063, "salesPercentile": 62.9}, {"sangwonCode": 3120130, "sangwonName": "구로디지털단지역", "gu": "구로구", "lat": 37.48321674132804, "lon": 126.9010574261167, "survivalProbability": 0.799, "monthlyEstimateKRW": 368803489, "salesPercentile": 82.1}, {"sangwonCode": 3110782, "sangwonName": "영등포시장역 4번", "gu": "영등포구", "lat": 37.52208833275841, "lon": 126.90374369195808, "survivalProbability": 0.799, "monthlyEstimateKRW": 98238808, "salesPercentile": 48.7}, {"sangwonCode": 3110128, "sangwonName": "성원중학교", "gu": "성동구", "lat": 37.53816384184272, "lon": 127.04992055728603, "survivalProbability": 0.799, "monthlyEstimateKRW": 69149939, "salesPercentile": 19.2}, {"sangwonCode": 3120046, "sangwonName": "이태원(이태원역)", "gu": "용산구", "lat": 37.534930676156144, "lon": 126.99478413778357, "survivalProbability": 0.799, "monthlyEstimateKRW": 231161279, "salesPercentile": 70.5}, {"sangwonCode": 3130171, "sangwonName": "불광먹자골목 골목형상점가", "gu": "은평구", "lat": 37.61042307337391, "lon": 126.9311060072656, "survivalProbability": 0.799, "monthlyEstimateKRW": 87152408, "salesPercentile": 34.8}, {"sangwonCode": 3130172, "sangwonName": "모래내시장(서중시장)", "gu": "서대문구", "lat": 37.570057260519455, "lon": 126.91517132922482, "survivalProbability": 0.799, "monthlyEstimateKRW": 90335232, "salesPercentile": 40.2}, {"sangwonCode": 3130177, "sangwonName": "인왕시장(홍제골목형상점가)", "gu": "서대문구", "lat": 37.59087804741556, "lon": 126.943261958856, "survivalProbability": 0.799, "monthlyEstimateKRW": 97112117, "salesPercentile": 47.3}, {"sangwonCode": 3130179, "sangwonName": "이화여대 3,5,7길 상점가", "gu": "서대문구", "lat": 37.55821781854949, "lon": 126.94500703113266, "survivalProbability": 0.799, "monthlyEstimateKRW": 180597047, "salesPercentile": 66.5}, {"sangwonCode": 3110121, "sangwonName": "한양대역 4번", "gu": "성동구", "lat": 37.55677259819984, "lon": 127.04186356587266, "survivalProbability": 0.799, "monthlyEstimateKRW": 90970552, "salesPercentile": 42.4}, {"sangwonCode": 3120126, "sangwonName": "디지털단지오거리", "gu": "구로구", "lat": 37.48110615433255, "lon": 126.88844259150426, "survivalProbability": 0.799, "monthlyEstimateKRW": 324411478, "salesPercentile": 78.6}, {"sangwonCode": 3110789, "sangwonName": "대림성모병원", "gu": "영등포구", "lat": 37.49068135537327, "lon": 126.90629428541293, "survivalProbability": 0.799, "monthlyEstimateKRW": 71569313, "salesPercentile": 23.7}, {"sangwonCode": 3120049, "sangwonName": "왕십리역(왕십리)", "gu": "성동구", "lat": 37.56090973532495, "lon": 127.03720279807932, "survivalProbability": 0.799, "monthlyEstimateKRW": 124736264, "salesPercentile": 54.9}, {"sangwonCode": 3120123, "sangwonName": "오류동역", "gu": "구로구", "lat": 37.495238716981696, "lon": 126.84478309040126, "survivalProbability": 0.799, "monthlyEstimateKRW": 822435564, "salesPercentile": 88.8}, {"sangwonCode": 3120122, "sangwonName": "강서구청", "gu": "강서구", "lat": 37.55257721737214, "lon": 126.85080932634085, "survivalProbability": 0.799, "monthlyEstimateKRW": 879894593, "salesPercentile": 90.6}, {"sangwonCode": 3110105, "sangwonName": "금동어린이공원", "gu": "성동구", "lat": 37.549119199553864, "lon": 127.02349280272007, "survivalProbability": 0.799, "monthlyEstimateKRW": 70685015, "salesPercentile": 21.9}, {"sangwonCode": 3110791, "sangwonName": "신풍역 3번", "gu": "영등포구", "lat": 37.49981832015513, "lon": 126.90725543679011, "survivalProbability": 0.799, "monthlyEstimateKRW": 160739803, "salesPercentile": 65.2}, {"sangwonCode": 3120121, "sangwonName": "까치산역", "gu": "강서구", "lat": 37.530165049640445, "lon": 126.84742598554176, "survivalProbability": 0.799, "monthlyEstimateKRW": 117198113, "salesPercentile": 53.6}, {"sangwonCode": 3120120, "sangwonName": "화곡역", "gu": "강서구", "lat": 37.54110975325988, "lon": 126.83880416630873, "survivalProbability": 0.799, "monthlyEstimateKRW": 89129084, "salesPercentile": 37.5}, {"sangwonCode": 3110469, "sangwonName": "응암정보도서관", "gu": "은평구", "lat": 37.586196487934636, "lon": 126.91861754570077, "survivalProbability": 0.799, "monthlyEstimateKRW": 68879024, "salesPercentile": 18.3}, {"sangwonCode": 3120116, "sangwonName": "송정역", "gu": "강서구", "lat": 37.56138378509555, "lon": 126.80961608028845, "survivalProbability": 0.799, "monthlyEstimateKRW": 106062066, "salesPercentile": 50.9}, {"sangwonCode": 3110803, "sangwonName": "신길2동우편취급국", "gu": "영등포구", "lat": 37.51263424047317, "lon": 126.91200145475099, "survivalProbability": 0.799, "monthlyEstimateKRW": 68825975, "salesPercentile": 17.4}, {"sangwonCode": 3120053, "sangwonName": "건대입구역(건대)", "gu": "광진구", "lat": 37.54052361998077, "lon": 127.0694180102895, "survivalProbability": 0.799, "monthlyEstimateKRW": 121074498, "salesPercentile": 54.0}, {"sangwonCode": 3120054, "sangwonName": "어린이대공원역", "gu": "광진구", "lat": 37.547820046908846, "lon": 127.07219724027671, "survivalProbability": 0.799, "monthlyEstimateKRW": 161722681, "salesPercentile": 65.6}, {"sangwonCode": 3110481, "sangwonName": "불광역 7번", "gu": "은평구", "lat": 37.61225839319223, "lon": 126.92663056899477, "survivalProbability": 0.799, "monthlyEstimateKRW": 77197361, "salesPercentile": 29.0}, {"sangwonCode": 3120110, "sangwonName": "목동역 8번출구", "gu": "양천구", "lat": 37.52574947721169, "lon": 126.8615081498464, "survivalProbability": 0.799, "monthlyEstimateKRW": 145371315, "salesPercentile": 60.7}, {"sangwonCode": 3110810, "sangwonName": "영신초등학교", "gu": "영등포구", "lat": 37.51093472393394, "lon": 126.91666342067874, "survivalProbability": 0.799, "monthlyEstimateKRW": 67699883, "salesPercentile": 15.6}, {"sangwonCode": 3110484, "sangwonName": "역촌역 3번", "gu": "은평구", "lat": 37.606267078274556, "lon": 126.92705548022388, "survivalProbability": 0.799, "monthlyEstimateKRW": 67588496, "salesPercentile": 15.2}, {"sangwonCode": 3120055, "sangwonName": "군자역", "gu": "광진구", "lat": 37.55713177654428, "lon": 127.0793476213953, "survivalProbability": 0.799, "monthlyEstimateKRW": 221732394, "salesPercentile": 69.6}, {"sangwonCode": 3110074, "sangwonName": "서울역 12번", "gu": "용산구", "lat": 37.551010804376816, "lon": 126.97415273729469, "survivalProbability": 0.799, "monthlyEstimateKRW": 328708398, "salesPercentile": 79.0}, {"sangwonCode": 3130221, "sangwonName": "남부골목시장(남부화곡시장, 남부시장)", "gu": "강서구", "lat": 37.53307374754431, "lon": 126.86077051500729, "survivalProbability": 0.799, "monthlyEstimateKRW": 79551245, "salesPercentile": 30.8}, {"sangwonCode": 3120108, "sangwonName": "신정네거리역", "gu": "양천구", "lat": 37.52184641197067, "lon": 126.8526352486175, "survivalProbability": 0.799, "monthlyEstimateKRW": 148705806, "salesPercentile": 62.1}, {"sangwonCode": 3120056, "sangwonName": "구의역", "gu": "광진구", "lat": 37.53754920268015, "lon": 127.08491629282449, "survivalProbability": 0.799, "monthlyEstimateKRW": 137069046, "salesPercentile": 58.5}, {"sangwonCode": 3130229, "sangwonName": "남구로시장", "gu": "구로구", "lat": 37.4900783818487, "lon": 126.88654090369849, "survivalProbability": 0.799, "monthlyEstimateKRW": 301328908, "salesPercentile": 76.3}, {"sangwonCode": 3110066, "sangwonName": "서울역 15번", "gu": "용산구", "lat": 37.55314437161729, "lon": 126.96694307959059, "survivalProbability": 0.799, "monthlyEstimateKRW": 69596002, "salesPercentile": 20.5}, {"sangwonCode": 3120057, "sangwonName": "아차산역", "gu": "광진구", "lat": 37.55425222476908, "lon": 127.08697232874627, "survivalProbability": 0.799, "monthlyEstimateKRW": 236911593, "salesPercentile": 71.0}, {"sangwonCode": 3120104, "sangwonName": "연남동(홍대)", "gu": "마포구", "lat": 37.56007023507463, "lon": 126.9224714657634, "survivalProbability": 0.799, "monthlyEstimateKRW": 264692130, "salesPercentile": 74.1}, {"sangwonCode": 3110062, "sangwonName": "한강로동땡땡거리(은행나무길)", "gu": "용산구", "lat": 37.524986638584856, "lon": 126.96202315666443, "survivalProbability": 0.799, "monthlyEstimateKRW": 89158615, "salesPercentile": 37.9}, {"sangwonCode": 3130235, "sangwonName": "대명여울빛거리시장(대명시장)", "gu": "금천구", "lat": 37.45356538993804, "lon": 126.90214758052595, "survivalProbability": 0.799, "monthlyEstimateKRW": 86469376, "salesPercentile": 33.9}, {"sangwonCode": 3110815, "sangwonName": "공군호텔", "gu": "영등포구", "lat": 37.51166828712483, "lon": 126.9221596147489, "survivalProbability": 0.799, "monthlyEstimateKRW": 67934180, "salesPercentile": 16.1}, {"sangwonCode": 3120103, "sangwonName": "홍대입구역(홍대)", "gu": "마포구", "lat": 37.55054422664607, "lon": 126.91880344160859, "survivalProbability": 0.799, "monthlyEstimateKRW": 227927580, "salesPercentile": 70.1}, {"sangwonCode": 3110057, "sangwonName": "황학코아루아파트", "gu": "중구", "lat": 37.56630135637733, "lon": 127.02278510211976, "survivalProbability": 0.799, "monthlyEstimateKRW": 75874257, "salesPercentile": 26.8}, {"sangwonCode": 3110819, "sangwonName": "신대방역 4번", "gu": "동작구", "lat": 37.48877490125431, "lon": 126.91105702584524, "survivalProbability": 0.799, "monthlyEstimateKRW": 59041511, "salesPercentile": 10.3}, {"sangwonCode": 3130246, "sangwonName": "영등포청과시장(조광시장)", "gu": "영등포구", "lat": 37.521662703518885, "lon": 126.90113111439317, "survivalProbability": 0.799, "monthlyEstimateKRW": 134264086, "salesPercentile": 57.6}, {"sangwonCode": 3120096, "sangwonName": "이화여대(이대역, 이대)", "gu": "서대문구", "lat": 37.558423971816815, "lon": 126.94274332269038, "survivalProbability": 0.799, "monthlyEstimateKRW": 277201438, "salesPercentile": 75.0}, {"sangwonCode": 3110040, "sangwonName": "중구회현체육센터(정화예술대남산캠퍼스)", "gu": "중구", "lat": 37.55612994758037, "lon": 126.98211844625749, "survivalProbability": 0.799, "monthlyEstimateKRW": 527604727, "salesPercentile": 86.2}, {"sangwonCode": 3120062, "sangwonName": "신설동역", "gu": "동대문구", "lat": 37.57495056845485, "lon": 127.024497100405, "survivalProbability": 0.799, "monthlyEstimateKRW": 867600402, "salesPercentile": 90.2}, {"sangwonCode": 3110520, "sangwonName": "경의중앙 신촌역", "gu": "서대문구", "lat": 37.557783235879384, "lon": 126.94066135843539, "survivalProbability": 0.799, "monthlyEstimateKRW": 72701483, "salesPercentile": 24.1}, {"sangwonCode": 3110037, "sangwonName": "신설동역 12번", "gu": "종로구", "lat": 37.577978389479746, "lon": 127.02206413216838, "survivalProbability": 0.799, "monthlyEstimateKRW": 80433374, "salesPercentile": 31.2}, {"sangwonCode": 3120094, "sangwonName": "신촌역(신촌역, 신촌로터리)", "gu": "서대문구", "lat": 37.55652864102824, "lon": 126.93641829163414, "survivalProbability": 0.799, "monthlyEstimateKRW": 985902823, "salesPercentile": 94.6}, {"sangwonCode": 3130273, "sangwonName": "남성사계시장(남성시장)", "gu": "동작구", "lat": 37.48822110802707, "lon": 126.98044987510083, "survivalProbability": 0.799, "monthlyEstimateKRW": 76540384, "salesPercentile": 27.7}, {"sangwonCode": 3120063, "sangwonName": "청량리역(청량리)", "gu": "동대문구", "lat": 37.58100711945642, "lon": 127.04780944194178, "survivalProbability": 0.799, "monthlyEstimateKRW": 259364360, "salesPercentile": 73.2}, {"sangwonCode": 3110528, "sangwonName": "서울여자간호대학교", "gu": "서대문구", "lat": 37.595682402161245, "lon": 126.9477423876718, "survivalProbability": 0.799, "monthlyEstimateKRW": 75637625, "salesPercentile": 26.3}, {"sangwonCode": 3110869, "sangwonName": "신림역 5번(신림동주민센터, 신림동별빛거리)", "gu": "관악구", "lat": 37.48705494828831, "lon": 126.92548680651547, "survivalProbability": 0.799, "monthlyEstimateKRW": 58821218, "salesPercentile": 9.8}, {"sangwonCode": 3120092, "sangwonName": "불광역", "gu": "은평구", "lat": 37.60861110244884, "lon": 126.92944284713957, "survivalProbability": 0.799, "monthlyEstimateKRW": 461651236, "salesPercentile": 84.4}, {"sangwonCode": 3120064, "sangwonName": "경희대학교(경희대)", "gu": "동대문구", "lat": 37.592510827212735, "lon": 127.0524478846258, "survivalProbability": 0.799, "monthlyEstimateKRW": 122198911, "salesPercentile": 54.5}, {"sangwonCode": 3120091, "sangwonName": "본서부병원", "gu": "은평구", "lat": 37.600560629824955, "lon": 126.92207842001997, "survivalProbability": 0.799, "monthlyEstimateKRW": 90458557, "salesPercentile": 40.6}, {"sangwonCode": 3120090, "sangwonName": "연신내역", "gu": "은평구", "lat": 37.619066940896616, "lon": 126.92207043712689, "survivalProbability": 0.799, "monthlyEstimateKRW": 748326583, "salesPercentile": 87.5}, {"sangwonCode": 3120065, "sangwonName": "회기역", "gu": "동대문구", "lat": 37.5894180127353, "lon": 127.05762008594603, "survivalProbability": 0.799, "monthlyEstimateKRW": 241410900, "salesPercentile": 72.3}, {"sangwonCode": 3130285, "sangwonName": "서원동상점가", "gu": "관악구", "lat": 37.482930294055336, "lon": 126.92866799741944, "survivalProbability": 0.799, "monthlyEstimateKRW": 86017695, "salesPercentile": 33.5}, {"sangwonCode": 3120066, "sangwonName": "장한평역(장한평)", "gu": "동대문구", "lat": 37.56213234191365, "lon": 127.06450325618981, "survivalProbability": 0.799, "monthlyEstimateKRW": 158742793, "salesPercentile": 64.3}, {"sangwonCode": 3120086, "sangwonName": "태릉입구역", "gu": "노원구", "lat": 37.61913962220151, "lon": 127.077012153305, "survivalProbability": 0.799, "monthlyEstimateKRW": 90616979, "salesPercentile": 41.1}, {"sangwonCode": 3120067, "sangwonName": "장안동사거리", "gu": "동대문구", "lat": 37.571931154399905, "lon": 127.07148472007246, "survivalProbability": 0.799, "monthlyEstimateKRW": 221658655, "salesPercentile": 69.2}, {"sangwonCode": 3110550, "sangwonName": "합정역 8번", "gu": "마포구", "lat": 37.551249164529125, "lon": 126.90938718433313, "survivalProbability": 0.799, "monthlyEstimateKRW": 76700187, "salesPercentile": 28.1}, {"sangwonCode": 3120081, "sangwonName": "노원역", "gu": "노원구", "lat": 37.65546707370536, "lon": 127.06218142111479, "survivalProbability": 0.799, "monthlyEstimateKRW": 944169096, "salesPercentile": 93.8}, {"sangwonCode": 3120069, "sangwonName": "상봉역", "gu": "중랑구", "lat": 37.596373128943156, "lon": 127.08775735921145, "survivalProbability": 0.799, "monthlyEstimateKRW": 898718053, "salesPercentile": 92.4}, {"sangwonCode": 3120079, "sangwonName": "창동역", "gu": "도봉구", "lat": 37.65239246410829, "lon": 127.04768518990885, "survivalProbability": 0.799, "monthlyEstimateKRW": 311261898, "salesPercentile": 77.7}, {"sangwonCode": 3110572, "sangwonName": "서강대역 1번", "gu": "마포구", "lat": 37.55050130200841, "lon": 126.93704582425697, "survivalProbability": 0.799, "monthlyEstimateKRW": 108574618, "salesPercentile": 51.8}, {"sangwonCode": 3081591, "sangwonName": null, "gu": null, "lat": null, "lon": null, "survivalProbability": 0.799, "monthlyEstimateKRW": 1455343393, "salesPercentile": 98.7}, {"sangwonCode": 3120078, "sangwonName": "미아사거리역", "gu": "강북구", "lat": 37.61260150303619, "lon": 127.03093128253391, "survivalProbability": 0.799, "monthlyEstimateKRW": 469214133, "salesPercentile": 85.3}, {"sangwonCode": 3120077, "sangwonName": "미아역", "gu": "강북구", "lat": 37.625667032174505, "lon": 127.02592973155743, "survivalProbability": 0.799, "monthlyEstimateKRW": 94931659, "salesPercentile": 45.5}, {"sangwonCode": 3130318, "sangwonName": "로데오거리상점가", "gu": "강동구", "lat": 37.539178245707355, "lon": 127.12704340647122, "survivalProbability": 0.799, "monthlyEstimateKRW": 323156783, "salesPercentile": 78.1}, {"sangwonCode": 3110850, "sangwonName": "사당역 10번", "gu": "동작구", "lat": 37.47941785252698, "lon": 126.97815707930891, "survivalProbability": 0.799, "monthlyEstimateKRW": 57204770, "salesPercentile": 4.9}, {"sangwonCode": 3120076, "sangwonName": "수유역", "gu": "강북구", "lat": 37.63775846565519, "lon": 127.0249935589031, "survivalProbability": 0.799, "monthlyEstimateKRW": 1510710293, "salesPercentile": 99.6}, {"sangwonCode": 3120072, "sangwonName": "성신여대", "gu": "성북구", "lat": 37.59236801480705, "lon": 127.01749391828598, "survivalProbability": 0.799, "monthlyEstimateKRW": 788704738, "salesPercentile": 88.4}]}