{"industryCode": "CS200033", "industryName": "부동산중개업", "dataAsOf": "2026-Q1", "survivalGranularity": "seoul_industry", "cells": [{"sangwonCode": 3120148, "sangwonName": "국회의사당역(국회의사당)", "gu": "영등포구", "lat": 37.528552135513465, "lon": 126.92073922815948, "survivalProbability": 0.8293, "monthlyEstimateKRW": 351803127, "salesPercentile": 64.3}, {"sangwonCode": 3120173, "sangwonName": "교대역(법원.검찰청)", "gu": "서초구", "lat": 37.49370893679033, "lon": 127.0147795736092, "survivalProbability": 0.8293, "monthlyEstimateKRW": 714267833, "salesPercentile": 95.2}, {"sangwonCode": 3110255, "sangwonName": "상봉역 4번", "gu": "중랑구", "lat": 37.593691768235416, "lon": 127.0827833599205, "survivalProbability": 0.8293, "monthlyEstimateKRW": 169545759, "salesPercentile": 26.2}, {"sangwonCode": 3110989, "sangwonName": "대치동아우편취급국", "gu": "강남구", "lat": 37.502878544358616, "lon": 127.05449997860173, "survivalProbability": 0.8293, "monthlyEstimateKRW": 186042966, "salesPercentile": 38.1}, {"sangwonCode": 3110781, "sangwonName": "대림한신아파트", "gu": "영등포구", "lat": 37.4943552577109, "lon": 126.90355313361495, "survivalProbability": 0.8293, "monthlyEstimateKRW": 82285969, "salesPercentile": 4.8}, {"sangwonCode": 3110895, "sangwonName": "샤로수길", "gu": "관악구", "lat": 37.47637531474311, "lon": 126.9561011279273, "survivalProbability": 0.8293, "monthlyEstimateKRW": 208713140, "salesPercentile": 42.9}, {"sangwonCode": 3110882, "sangwonName": "신성초등학교", "gu": "관악구", "lat": 37.473023526393646, "lon": 126.93625169251668, "survivalProbability": 0.8293, "monthlyEstimateKRW": 180585475, "salesPercentile": 33.3}, {"sangwonCode": 3110888, "sangwonName": "청룡동주민센터", "gu": "관악구", "lat": 37.47905502019646, "lon": 126.94360664715312, "survivalProbability": 0.8293, "monthlyEstimateKRW": 182514588, "salesPercentile": 35.7}, {"sangwonCode": 3110890, "sangwonName": "봉천역 1번(관악초등학교)", "gu": "관악구", "lat": 37.48009212372077, "lon": 126.94561832862236, "survivalProbability": 0.8293, "monthlyEstimateKRW": 147246233, "salesPercentile": 14.3}, {"sangwonCode": 3110740, "sangwonName": "금천해태공원", "gu": "금천구", "lat": 37.45862856769765, "lon": 126.90153063651739, "survivalProbability": 0.8293, "monthlyEstimateKRW": 173284273, "salesPercentile": 31.0}, {"sangwonCode": 3120225, "sangwonName": "잠실새내역(신천)", "gu": "송파구", "lat": 37.51048475437836, "lon": 127.0825782728224, "survivalProbability": 0.8293, "monthlyEstimateKRW": 602251986, "salesPercentile": 90.5}, {"sangwonCode": 3110650, "sangwonName": "우장산힐스테이트", "gu": "강서구", "lat": 37.55510210039808, "lon": 126.83869481098496, "survivalProbability": 0.8293, "monthlyEstimateKRW": 120668638, "salesPercentile": 7.1}, {"sangwonCode": 3120044, "sangwonName": "삼각지역", "gu": "용산구", "lat": 37.53391864671039, "lon": 126.97327613890431, "survivalProbability": 0.8293, "monthlyEstimateKRW": 291895289, "salesPercentile": 54.8}, {"sangwonCode": 3120062, "sangwonName": "신설동역", "gu": "동대문구", "lat": 37.57495056845485, "lon": 127.024497100405, "survivalProbability": 0.8293, "monthlyEstimateKRW": 508034999, "salesPercentile": 83.3}, {"sangwonCode": 3110759, "sangwonName": "문래예술촌(문래창작촌)", "gu": "영등포구", "lat": 37.51476153758128, "lon": 126.89145784534162, "survivalProbability": 0.8293, "monthlyEstimateKRW": 197076250, "salesPercentile": 40.5}, {"sangwonCode": 3120157, "sangwonName": "신림역(신림)", "gu": "관악구", "lat": 37.484724238201885, "lon": 126.93023791719077, "survivalProbability": 0.8293, "monthlyEstimateKRW": 540065868, "salesPercentile": 85.7}, {"sangwonCode": 3120027, "sangwonName": "명동역(명동재미로)", "gu": "중구", "lat": 37.55977021816383, "lon": 126.98379263879171, "survivalProbability": 0.8293, "monthlyEstimateKRW": 395596481, "salesPercentile": 71.4}, {"sangwonCode": 3110256, "sangwonName": "면목2동체육관", "gu": "중랑구", "lat": 37.589871676851374, "lon": 127.0826206130532, "survivalProbability": 0.8293, "monthlyEstimateKRW": 171786022, "salesPercentile": 28.6}, {"sangwonCode": 3110295, "sangwonName": "정릉우체국", "gu": "성북구", "lat": 37.606910650147945, "lon": 127.01242366605265, "survivalProbability": 0.8293, "monthlyEstimateKRW": 126072236, "salesPercentile": 9.5}, {"sangwonCode": 3120210, "sangwonName": "선릉역", "gu": "강남구", "lat": 37.50461073634166, "lon": 127.04935534409961, "survivalProbability": 0.8293, "monthlyEstimateKRW": 1275831944, "salesPercentile": 100.0}, {"sangwonCode": 3111080, "sangwonName": "굽은다리역 3번", "gu": "강동구", "lat": 37.54799505551849, "lon": 127.14605826969836, "survivalProbability": 0.8293, "monthlyEstimateKRW": 79176558, "salesPercentile": 2.4}, {"sangwonCode": 3120188, "sangwonName": "압구정역", "gu": "강남구", "lat": 37.52546693782541, "lon": 127.02807838256531, "survivalProbability": 0.8293, "monthlyEstimateKRW": 497068386, "salesPercentile": 73.8}, {"sangwonCode": 3110660, "sangwonName": "등촌3동주민센터", "gu": "강서구", "lat": 37.55832107704375, "lon": 126.84728936932454, "survivalProbability": 0.8293, "monthlyEstimateKRW": 149888203, "salesPercentile": 19.0}, {"sangwonCode": 3130051, "sangwonName": "동화동 골목형상점가", "gu": "중구", "lat": 37.56240094950935, "lon": 127.01746427209717, "survivalProbability": 0.8293, "monthlyEstimateKRW": 353997648, "salesPercentile": 66.7}, {"sangwonCode": 3120018, "sangwonName": "중림동", "gu": "중구", "lat": 37.55949660361493, "lon": 126.96766462208775, "survivalProbability": 0.8293, "monthlyEstimateKRW": 362925527, "salesPercentile": 69.0}, {"sangwonCode": 3120023, "sangwonName": "서울시청", "gu": "중구", "lat": 37.56803140163849, "lon": 126.97791616374444, "survivalProbability": 0.8293, "monthlyEstimateKRW": 237208259, "salesPercentile": 47.6}, {"sangwonCode": 3120158, "sangwonName": "녹두거리(대학동)", "gu": "관악구", "lat": 37.47031189276306, "lon": 126.93701139594275, "survivalProbability": 0.8293, "monthlyEstimateKRW": 279214934, "salesPercentile": 52.4}, {"sangwonCode": 3110756, "sangwonName": "문래중학교", "gu": "영등포구", "lat": 37.52289909328725, "lon": 126.88357261885149, "survivalProbability": 0.8293, "monthlyEstimateKRW": 161941948, "salesPercentile": 23.8}, {"sangwonCode": 3120032, "sangwonName": "충무로역", "gu": "중구", "lat": 37.56140202648682, "lon": 126.99494074826379, "survivalProbability": 0.8293, "monthlyEstimateKRW": 553371572, "salesPercentile": 88.1}, {"sangwonCode": 3120149, "sangwonName": "여의도역(여의도)", "gu": "영등포구", "lat": 37.5226811750762, "lon": 126.92625456940182, "survivalProbability": 0.8293, "monthlyEstimateKRW": 805221595, "salesPercentile": 97.6}, {"sangwonCode": 3120146, "sangwonName": "한강성심병원", "gu": "영등포구", "lat": 37.5230039545715, "lon": 126.91089197114088, "survivalProbability": 0.8293, "monthlyEstimateKRW": 253717825, "salesPercentile": 50.0}, {"sangwonCode": 3120136, "sangwonName": "영등포구청역", "gu": "영등포구", "lat": 37.5253946047632, "lon": 126.89281128917447, "survivalProbability": 0.8293, "monthlyEstimateKRW": 506652007, "salesPercentile": 81.0}, {"sangwonCode": 3110787, "sangwonName": "신길3동주민센터", "gu": "영등포구", "lat": 37.50674580845403, "lon": 126.90568609063068, "survivalProbability": 0.8293, "monthlyEstimateKRW": 149458883, "salesPercentile": 16.7}, {"sangwonCode": 3110790, "sangwonName": "대림1동주민센터", "gu": "영등포구", "lat": 37.497619252474074, "lon": 126.90647786314138, "survivalProbability": 0.8293, "monthlyEstimateKRW": 212267795, "salesPercentile": 45.2}, {"sangwonCode": 3120121, "sangwonName": "까치산역", "gu": "강서구", "lat": 37.530165049640445, "lon": 126.84742598554176, "survivalProbability": 0.8293, "monthlyEstimateKRW": 614802639, "salesPercentile": 92.9}, {"sangwonCode": 3120118, "sangwonName": "마곡역(마곡)", "gu": "강서구", "lat": 37.559968767639305, "lon": 126.82687963835888, "survivalProbability": 0.8293, "monthlyEstimateKRW": 336137445, "salesPercentile": 59.5}, {"sangwonCode": 3120112, "sangwonName": "등촌역", "gu": "양천구", "lat": 37.5509181198166, "lon": 126.86472078637462, "survivalProbability": 0.8293, "monthlyEstimateKRW": 500870617, "salesPercentile": 78.6}, {"sangwonCode": 3130221, "sangwonName": "남부골목시장(남부화곡시장, 남부시장)", "gu": "강서구", "lat": 37.53307374754431, "lon": 126.86077051500729, "survivalProbability": 0.8293, "monthlyEstimateKRW": 317748010, "salesPercentile": 57.1}, {"sangwonCode": 3120105, "sangwonName": "상수역(홍대)", "gu": "마포구", "lat": 37.54836672037311, "lon": 126.92315124845221, "survivalProbability": 0.8293, "monthlyEstimateKRW": 497947809, "salesPercentile": 76.2}, {"sangwonCode": 3130242, "sangwonName": "대림중앙 골목형상점가", "gu": "영등포구", "lat": 37.488719696595915, "lon": 126.89846080667903, "survivalProbability": 0.8293, "monthlyEstimateKRW": 140735530, "salesPercentile": 11.9}, {"sangwonCode": 3130246, "sangwonName": "영등포청과시장(조광시장)", "gu": "영등포구", "lat": 37.521662703518885, "lon": 126.90113111439317, "survivalProbability": 0.8293, "monthlyEstimateKRW": 345993127, "salesPercentile": 61.9}, {"sangwonCode": 3081591, "sangwonName": null, "gu": null, "lat": null, "lon": null, "survivalProbability": 0.8293, "monthlyEstimateKRW": 159794357, "salesPercentile": 21.4}]}