{"industryCode": "CS200032", "industryName": "가전제품수리", "dataAsOf": "2026-Q1", "survivalGranularity": "seoul_industry", "cells": [{"sangwonCode": 3111044, "sangwonName": "남천초등학교", "gu": "송파구", "lat": 37.49924726592884, "lon": 127.14893749244365, "survivalProbability": 0.925, "monthlyEstimateKRW": 92385653, "salesPercentile": 68.2}, {"sangwonCode": 3120011, "sangwonName": "종로4가", "gu": "종로구", "lat": 37.571150886858554, "lon": 126.9975889014172, "survivalProbability": 0.925, "monthlyEstimateKRW": 127654268, "salesPercentile": 84.1}, {"sangwonCode": 3110474, "sangwonName": "세명컴퓨터고등학교", "gu": "은평구", "lat": 37.62574305642576, "lon": 126.92176894024712, "survivalProbability": 0.925, "monthlyEstimateKRW": 80239357, "salesPercentile": 53.4}, {"sangwonCode": 3110211, "sangwonName": "전곡마을마당공원", "gu": "동대문구", "lat": 37.5798238453243, "lon": 127.05465790447084, "survivalProbability": 0.925, "monthlyEstimateKRW": 81563154, "salesPercentile": 59.1}, {"sangwonCode": 3110690, "sangwonName": "오류2동버들시장", "gu": "구로구", "lat": 37.49227211395636, "lon": 126.84304783057685, "survivalProbability": 0.925, "monthlyEstimateKRW": 68060977, "salesPercentile": 15.9}, {"sangwonCode": 3110712, "sangwonName": "남구로역 5번", "gu": "구로구", "lat": 37.487447465830186, "lon": 126.88656749689855, "survivalProbability": 0.925, "monthlyEstimateKRW": 82360245, "salesPercentile": 60.2}, {"sangwonCode": 3110808, "sangwonName": "신길역 1번", "gu": "영등포구", "lat": 37.516609318608964, "lon": 126.91424776874355, "survivalProbability": 0.925, "monthlyEstimateKRW": 71870539, "salesPercentile": 29.5}, {"sangwonCode": 3110905, "sangwonName": "방배노인종합복지관(이수중학교)", "gu": "서초구", "lat": 37.481815733304714, "lon": 126.98605942962958, "survivalProbability": 0.925, "monthlyEstimateKRW": 75646459, "salesPercentile": 38.6}, {"sangwonCode": 3110137, "sangwonName": "성수초등학교", "gu": "성동구", "lat": 37.54616776510738, "lon": 127.06245263029955, "survivalProbability": 0.925, "monthlyEstimateKRW": 79132637, "salesPercentile": 45.5}, {"sangwonCode": 3110159, "sangwonName": "구의역 4번", "gu": "광진구", "lat": 37.534966184561476, "lon": 127.0808515528512, "survivalProbability": 0.925, "monthlyEstimateKRW": 69234392, "salesPercentile": 20.5}, {"sangwonCode": 3110753, "sangwonName": "시흥동 은행나무사거리", "gu": "금천구", "lat": 37.448849129363595, "lon": 126.90844852214423, "survivalProbability": 0.925, "monthlyEstimateKRW": 74270324, "salesPercentile": 37.5}, {"sangwonCode": 3110188, "sangwonName": "용두동신동아아파트", "gu": "동대문구", "lat": 37.57211950664692, "lon": 127.0325219523249, "survivalProbability": 0.925, "monthlyEstimateKRW": 69365350, "salesPercentile": 21.6}, {"sangwonCode": 3110242, "sangwonName": "면목5동주민센터", "gu": "중랑구", "lat": 37.58466695176947, "lon": 127.07819937597111, "survivalProbability": 0.925, "monthlyEstimateKRW": 79437041, "salesPercentile": 47.7}, {"sangwonCode": 3120236, "sangwonName": "장지역(가든파이브)", "gu": "송파구", "lat": 37.47804006486017, "lon": 127.12329941653981, "survivalProbability": 0.925, "monthlyEstimateKRW": 125330871, "salesPercentile": 81.8}, {"sangwonCode": 3110264, "sangwonName": "면목역 2번", "gu": "중랑구", "lat": 37.58726118530816, "lon": 127.09159619054651, "survivalProbability": 0.925, "monthlyEstimateKRW": 59028295, "salesPercentile": 6.8}, {"sangwonCode": 3110297, "sangwonName": "경동고등학교", "gu": "성북구", "lat": 37.588205872807336, "lon": 127.01419815660745, "survivalProbability": 0.925, "monthlyEstimateKRW": 81061658, "salesPercentile": 58.0}, {"sangwonCode": 3110316, "sangwonName": "숭곡초등학교", "gu": "성북구", "lat": 37.60814966101142, "lon": 127.03438366024915, "survivalProbability": 0.925, "monthlyEstimateKRW": 154915767, "salesPercentile": 93.2}, {"sangwonCode": 3110374, "sangwonName": "송중초등학교", "gu": "강북구", "lat": 37.61982748768701, "lon": 127.0307077341858, "survivalProbability": 0.925, "monthlyEstimateKRW": 51170256, "salesPercentile": 2.3}, {"sangwonCode": 3110612, "sangwonName": "신정역 5번", "gu": "양천구", "lat": 37.52343623301962, "lon": 126.85592405599932, "survivalProbability": 0.925, "monthlyEstimateKRW": 80077603, "salesPercentile": 52.3}, {"sangwonCode": 3110604, "sangwonName": "신월4동주민센터", "gu": "양천구", "lat": 37.52336983439267, "lon": 126.83937402800503, "survivalProbability": 0.925, "monthlyEstimateKRW": 70984401, "salesPercentile": 27.3}, {"sangwonCode": 3120057, "sangwonName": "아차산역", "gu": "광진구", "lat": 37.55425222476908, "lon": 127.08697232874627, "survivalProbability": 0.925, "monthlyEstimateKRW": 117745386, "salesPercentile": 75.0}, {"sangwonCode": 3110370, "sangwonName": "도봉세무서", "gu": "강북구", "lat": 37.61866612696216, "lon": 127.0269693758849, "survivalProbability": 0.925, "monthlyEstimateKRW": 70859532, "salesPercentile": 26.1}, {"sangwonCode": 3120009, "sangwonName": "종로3가역", "gu": "종로구", "lat": 37.57165510209864, "lon": 126.99069513429947, "survivalProbability": 0.925, "monthlyEstimateKRW": 214555693, "salesPercentile": 96.6}, {"sangwonCode": 3111043, "sangwonName": "마천공원", "gu": "송파구", "lat": 37.500756183807006, "lon": 127.14553646050463, "survivalProbability": 0.925, "monthlyEstimateKRW": 78748653, "salesPercentile": 44.3}, {"sangwonCode": 3111083, "sangwonName": "GS강동자이아파트", "gu": "강동구", "lat": 37.538289959838245, "lon": 127.14713686672866, "survivalProbability": 0.925, "monthlyEstimateKRW": 91571875, "salesPercentile": 67.0}, {"sangwonCode": 3111078, "sangwonName": "굽은다리역 4번", "gu": "강동구", "lat": 37.54284297310578, "lon": 127.14473562941309, "survivalProbability": 0.925, "monthlyEstimateKRW": 81009303, "salesPercentile": 56.8}, {"sangwonCode": 3110278, "sangwonName": "망우본동주민센터", "gu": "중랑구", "lat": 37.60150500683647, "lon": 127.10352681954076, "survivalProbability": 0.925, "monthlyEstimateKRW": 79602420, "salesPercentile": 50.0}, {"sangwonCode": 3110710, "sangwonName": "남구로역 3번", "gu": "구로구", "lat": 37.486886294270526, "lon": 126.88394512624056, "survivalProbability": 0.925, "monthlyEstimateKRW": 84592235, "salesPercentile": 65.9}, {"sangwonCode": 3111063, "sangwonName": "강동구립 천호도서관", "gu": "강동구", "lat": 37.54009151114284, "lon": 127.13228380422073, "survivalProbability": 0.925, "monthlyEstimateKRW": 67765157, "salesPercentile": 14.8}, {"sangwonCode": 3111085, "sangwonName": "묘곡초등학교(고덕아이파크아파트)", "gu": "강동구", "lat": 37.56094142583823, "lon": 127.1539043851388, "survivalProbability": 0.925, "monthlyEstimateKRW": 72962808, "salesPercentile": 31.8}, {"sangwonCode": 3110694, "sangwonName": "세곡초등학교", "gu": "구로구", "lat": 37.50475669640574, "lon": 126.84736461127714, "survivalProbability": 0.925, "monthlyEstimateKRW": 84305590, "salesPercentile": 63.6}, {"sangwonCode": 3110266, "sangwonName": "면목동우체국", "gu": "중랑구", "lat": 37.5831706467708, "lon": 127.09163646470414, "survivalProbability": 0.925, "monthlyEstimateKRW": 76954908, "salesPercentile": 39.8}, {"sangwonCode": 3111089, "sangwonName": "상일여고(상일초등학교)", "gu": "강동구", "lat": 37.54811423179494, "lon": 127.17135024456684, "survivalProbability": 0.925, "monthlyEstimateKRW": 78386300, "salesPercentile": 43.2}, {"sangwonCode": 3120228, "sangwonName": "석촌역(석촌호수)", "gu": "송파구", "lat": 37.50602362134798, "lon": 127.1065389661683, "survivalProbability": 0.925, "monthlyEstimateKRW": 131002996, "salesPercentile": 87.5}, {"sangwonCode": 3110259, "sangwonName": "사가정역 1번", "gu": "중랑구", "lat": 37.582264812341826, "lon": 127.08609919438236, "survivalProbability": 0.925, "monthlyEstimateKRW": 77918595, "salesPercentile": 42.0}, {"sangwonCode": 3120002, "sangwonName": "서촌(경복궁역)", "gu": "종로구", "lat": 37.579283529870374, "lon": 126.97182217376677, "survivalProbability": 0.925, "monthlyEstimateKRW": 129300848, "salesPercentile": 86.4}, {"sangwonCode": 3110255, "sangwonName": "상봉역 4번", "gu": "중랑구", "lat": 37.593691768235416, "lon": 127.0827833599205, "survivalProbability": 0.925, "monthlyEstimateKRW": 80270893, "salesPercentile": 54.5}, {"sangwonCode": 3110254, "sangwonName": "오거리공원", "gu": "중랑구", "lat": 37.57668988738031, "lon": 127.08299094516109, "survivalProbability": 0.925, "monthlyEstimateKRW": 99363062, "salesPercentile": 70.5}, {"sangwonCode": 3110675, "sangwonName": "화곡4동주민센터", "gu": "강서구", "lat": 37.53623598406385, "lon": 126.86053834758106, "survivalProbability": 0.925, "monthlyEstimateKRW": 68128482, "salesPercentile": 17.0}, {"sangwonCode": 3120239, "sangwonName": "오금역", "gu": "송파구", "lat": 37.50177860016498, "lon": 127.12614312912417, "survivalProbability": 0.925, "monthlyEstimateKRW": 128935182, "salesPercentile": 85.2}, {"sangwonCode": 3110247, "sangwonName": "먹골역 1번", "gu": "중랑구", "lat": 37.610200308625146, "lon": 127.07929071096504, "survivalProbability": 0.925, "monthlyEstimateKRW": 102822238, "salesPercentile": 72.7}, {"sangwonCode": 3110671, "sangwonName": "등촌1동주민센터", "gu": "강서구", "lat": 37.55565994906193, "lon": 126.8592232956464, "survivalProbability": 0.925, "monthlyEstimateKRW": 69370634, "salesPercentile": 22.7}, {"sangwonCode": 3120189, "sangwonName": "강남역", "gu": "서초구", "lat": 37.497571920870165, "lon": 127.02775129423334, "survivalProbability": 0.925, "monthlyEstimateKRW": 331817310, "salesPercentile": 97.7}, {"sangwonCode": 3110241, "sangwonName": "먹골역 5번", "gu": "중랑구", "lat": 37.60822843634927, "lon": 127.07734066163741, "survivalProbability": 0.925, "monthlyEstimateKRW": 79534665, "salesPercentile": 48.9}, {"sangwonCode": 3111034, "sangwonName": "오동나무공원(송파레미니스1단지)", "gu": "송파구", "lat": 37.50662576054443, "lon": 127.13453196048948, "survivalProbability": 0.925, "monthlyEstimateKRW": 71503381, "salesPercentile": 28.4}, {"sangwonCode": 3110236, "sangwonName": "신묵초등학교", "gu": "중랑구", "lat": 37.60887870447146, "lon": 127.07492901956759, "survivalProbability": 0.925, "monthlyEstimateKRW": 64414619, "salesPercentile": 10.2}, {"sangwonCode": 3110233, "sangwonName": "중랑역 1번", "gu": "중랑구", "lat": 37.59596815056542, "lon": 127.07391960683593, "survivalProbability": 0.925, "monthlyEstimateKRW": 79325215, "salesPercentile": 46.6}, {"sangwonCode": 3120185, "sangwonName": "논현역", "gu": "강남구", "lat": 37.51104318245634, "lon": 127.02189737579353, "survivalProbability": 0.925, "monthlyEstimateKRW": 211433039, "salesPercentile": 95.5}, {"sangwonCode": 3110229, "sangwonName": "장평중학교", "gu": "동대문구", "lat": 37.56456190380795, "lon": 127.06999492654315, "survivalProbability": 0.925, "monthlyEstimateKRW": 69134540, "salesPercentile": 19.3}, {"sangwonCode": 3130005, "sangwonName": "세운상가가동", "gu": "종로구", "lat": 37.569384872406744, "lon": 126.99543826391316, "survivalProbability": 0.925, "monthlyEstimateKRW": 154064737, "salesPercentile": 92.0}, {"sangwonCode": 3110226, "sangwonName": "장안1동주민센터", "gu": "동대문구", "lat": 37.568960725192056, "lon": 127.06660322921046, "survivalProbability": 0.925, "monthlyEstimateKRW": 51606221, "salesPercentile": 4.5}, {"sangwonCode": 3130024, "sangwonName": "남대문시장(자유상가)", "gu": "중구", "lat": 37.55957999880267, "lon": 126.97761307341452, "survivalProbability": 0.925, "monthlyEstimateKRW": 164687365, "salesPercentile": 94.3}, {"sangwonCode": 3110659, "sangwonName": "화곡역 4번", "gu": "강서구", "lat": 37.54056131421404, "lon": 126.84644302224991, "survivalProbability": 0.925, "monthlyEstimateKRW": 42860161, "salesPercentile": 1.1}, {"sangwonCode": 3120173, "sangwonName": "교대역(법원.검찰청)", "gu": "서초구", "lat": 37.49370893679033, "lon": 127.0147795736092, "survivalProbability": 0.925, "monthlyEstimateKRW": 107186848, "salesPercentile": 73.9}, {"sangwonCode": 3120171, "sangwonName": "서초3동사거리", "gu": "서초구", "lat": 37.48268994804575, "lon": 127.01176991309515, "survivalProbability": 0.925, "monthlyEstimateKRW": 122308725, "salesPercentile": 80.7}, {"sangwonCode": 3110404, "sangwonName": "신창초등학교", "gu": "도봉구", "lat": 37.63624951166753, "lon": 127.04051457750556, "survivalProbability": 0.925, "monthlyEstimateKRW": 51547345, "salesPercentile": 3.4}, {"sangwonCode": 3110405, "sangwonName": "방학역 1번", "gu": "도봉구", "lat": 37.66914421552273, "lon": 127.04101983972981, "survivalProbability": 0.925, "monthlyEstimateKRW": 80384875, "salesPercentile": 55.7}, {"sangwonCode": 3110997, "sangwonName": "대청초등학교", "gu": "강남구", "lat": 37.491544188739695, "lon": 127.08459279952699, "survivalProbability": 0.925, "monthlyEstimateKRW": 66584763, "salesPercentile": 12.5}, {"sangwonCode": 3110158, "sangwonName": "중곡3동주민센터", "gu": "광진구", "lat": 37.56872649117577, "lon": 127.08097858537985, "survivalProbability": 0.925, "monthlyEstimateKRW": 74190941, "salesPercentile": 36.4}, {"sangwonCode": 3110428, "sangwonName": "상계5동주민센터", "gu": "노원구", "lat": 37.66417450773257, "lon": 127.07113106886153, "survivalProbability": 0.925, "monthlyEstimateKRW": 73538745, "salesPercentile": 34.1}, {"sangwonCode": 3110638, "sangwonName": "신방화역 2번", "gu": "강서구", "lat": 37.56875208070871, "lon": 126.81411374137508, "survivalProbability": 0.925, "monthlyEstimateKRW": 96680286, "salesPercentile": 69.3}, {"sangwonCode": 3120145, "sangwonName": "영등포역(영등포)", "gu": "영등포구", "lat": 37.51843182609498, "lon": 126.90568269638135, "survivalProbability": 0.925, "monthlyEstimateKRW": 65433181, "salesPercentile": 11.4}, {"sangwonCode": 3110151, "sangwonName": "자양한강도서관", "gu": "광진구", "lat": 37.531139452835596, "lon": 127.07707997341757, "survivalProbability": 0.925, "monthlyEstimateKRW": 67047630, "salesPercentile": 13.6}, {"sangwonCode": 3120040, "sangwonName": "용산전자상가(용산역)", "gu": "용산구", "lat": 37.53327570203355, "lon": 126.96155508063566, "survivalProbability": 0.925, "monthlyEstimateKRW": 1285771613, "salesPercentile": 100.0}, {"sangwonCode": 3120139, "sangwonName": "대림3동사거리", "gu": "영등포구", "lat": 37.50016185253768, "lon": 126.89773284883364, "survivalProbability": 0.925, "monthlyEstimateKRW": 138650896, "salesPercentile": 89.8}, {"sangwonCode": 3120132, "sangwonName": "독산동", "gu": "금천구", "lat": 37.470740558781436, "lon": 126.89389548521771, "survivalProbability": 0.925, "monthlyEstimateKRW": 119655657, "salesPercentile": 78.4}, {"sangwonCode": 3110781, "sangwonName": "대림한신아파트", "gu": "영등포구", "lat": 37.4943552577109, "lon": 126.90355313361495, "survivalProbability": 0.925, "monthlyEstimateKRW": 77630221, "salesPercentile": 40.9}, {"sangwonCode": 3120131, "sangwonName": "가산디지털단지", "gu": "금천구", "lat": 37.47710029831843, "lon": 126.88288623812605, "survivalProbability": 0.925, "monthlyEstimateKRW": 564304852, "salesPercentile": 98.9}, {"sangwonCode": 3120129, "sangwonName": "구로디지털단지", "gu": "구로구", "lat": 37.48404057803035, "lon": 126.89515431983698, "survivalProbability": 0.925, "monthlyEstimateKRW": 138421062, "salesPercentile": 88.6}, {"sangwonCode": 3110128, "sangwonName": "성원중학교", "gu": "성동구", "lat": 37.53816384184272, "lon": 127.04992055728603, "survivalProbability": 0.925, "monthlyEstimateKRW": 70650574, "salesPercentile": 25.0}, {"sangwonCode": 3120125, "sangwonName": "구로역", "gu": "구로구", "lat": 37.50228754471039, "lon": 126.87802914643336, "survivalProbability": 0.925, "monthlyEstimateKRW": 119133143, "salesPercentile": 77.3}, {"sangwonCode": 3110620, "sangwonName": "목동보건지소", "gu": "양천구", "lat": 37.539081745942845, "lon": 126.86714092211024, "survivalProbability": 0.925, "monthlyEstimateKRW": 84434802, "salesPercentile": 64.8}, {"sangwonCode": 3120123, "sangwonName": "오류동역", "gu": "구로구", "lat": 37.495238716981696, "lon": 126.84478309040126, "survivalProbability": 0.925, "monthlyEstimateKRW": 117999031, "salesPercentile": 76.1}, {"sangwonCode": 3110611, "sangwonName": "신정역 1번", "gu": "양천구", "lat": 37.526464568346604, "lon": 126.85672145126978, "survivalProbability": 0.925, "monthlyEstimateKRW": 68477208, "salesPercentile": 18.2}, {"sangwonCode": 3110477, "sangwonName": "은평세무서", "gu": "은평구", "lat": 37.60271559223417, "lon": 126.92453358673295, "survivalProbability": 0.925, "monthlyEstimateKRW": 83091463, "salesPercentile": 61.4}, {"sangwonCode": 3120108, "sangwonName": "신정네거리역", "gu": "양천구", "lat": 37.52184641197067, "lon": 126.8526352486175, "survivalProbability": 0.925, "monthlyEstimateKRW": 127306540, "salesPercentile": 83.0}, {"sangwonCode": 3120103, "sangwonName": "홍대입구역(홍대)", "gu": "마포구", "lat": 37.55054422664607, "lon": 126.91880344160859, "survivalProbability": 0.925, "monthlyEstimateKRW": 72646290, "salesPercentile": 30.7}, {"sangwonCode": 3130240, "sangwonName": "영등포유통상가", "gu": "영등포구", "lat": 37.522602705909264, "lon": 126.89415014284982, "survivalProbability": 0.925, "monthlyEstimateKRW": 149254554, "salesPercentile": 90.9}, {"sangwonCode": 3120060, "sangwonName": "강변역(테크노마트)", "gu": "광진구", "lat": 37.534811785832595, "lon": 127.09463209799448, "survivalProbability": 0.925, "monthlyEstimateKRW": 119943403, "salesPercentile": 79.5}, {"sangwonCode": 3110052, "sangwonName": "장충초등학교", "gu": "중구", "lat": 37.55958143097188, "lon": 127.01276666015386, "survivalProbability": 0.925, "monthlyEstimateKRW": 79851980, "salesPercentile": 51.1}, {"sangwonCode": 3110595, "sangwonName": "메디힐병원", "gu": "양천구", "lat": 37.537799778862734, "lon": 126.8300198040713, "survivalProbability": 0.925, "monthlyEstimateKRW": 70506299, "salesPercentile": 23.9}, {"sangwonCode": 3110020, "sangwonName": "서울국제고등학교", "gu": "종로구", "lat": 37.58827871837829, "lon": 126.9954484333874, "survivalProbability": 0.925, "monthlyEstimateKRW": 99751327, "salesPercentile": 71.6}, {"sangwonCode": 3110544, "sangwonName": "망리단길", "gu": "마포구", "lat": 37.5549489373919, "lon": 126.90515005082226, "survivalProbability": 0.925, "monthlyEstimateKRW": 63568516, "salesPercentile": 9.1}, {"sangwonCode": 3110861, "sangwonName": "관악구신사동주민센터", "gu": "관악구", "lat": 37.483905325185546, "lon": 126.91779018557327, "survivalProbability": 0.925, "monthlyEstimateKRW": 73302535, "salesPercentile": 33.0}, {"sangwonCode": 3110850, "sangwonName": "사당역 10번", "gu": "동작구", "lat": 37.47941785252698, "lon": 126.97815707930891, "survivalProbability": 0.925, "monthlyEstimateKRW": 74160683, "salesPercentile": 35.2}, {"sangwonCode": 3120076, "sangwonName": "수유역", "gu": "강북구", "lat": 37.63775846565519, "lon": 127.0249935589031, "survivalProbability": 0.925, "monthlyEstimateKRW": 83319129, "salesPercentile": 62.5}, {"sangwonCode": 3110846, "sangwonName": "남성역 1번", "gu": "동작구", "lat": 37.48110151163349, "lon": 126.97230002266343, "survivalProbability": 0.925, "monthlyEstimateKRW": 60123759, "salesPercentile": 8.0}, {"sangwonCode": 3081591, "sangwonName": null, "gu": null, "lat": null, "lon": null, "survivalProbability": 0.925, "monthlyEstimateKRW": 54162532, "salesPercentile": 5.7}]}