{"industryCode": "CS200001", "industryName": "일반교습학원", "dataAsOf": "2026-Q1", "survivalGranularity": "seoul_industry", "cells": [{"sangwonCode": 3130319, "sangwonName": "성내전통시장", "gu": "강동구", "lat": 37.53365462601447, "lon": 127.12749791159769, "survivalProbability": 0.7131, "monthlyEstimateKRW": 92819641, "salesPercentile": 3.6}, {"sangwonCode": 3110075, "sangwonName": "숙대입구역 1번", "gu": "용산구", "lat": 37.54693819857306, "lon": 126.9737354497403, "survivalProbability": 0.7131, "monthlyEstimateKRW": 100445445, "salesPercentile": 12.8}, {"sangwonCode": 3110080, "sangwonName": "해방촌예술마을", "gu": "용산구", "lat": 37.5473273581668, "lon": 126.98322952776942, "survivalProbability": 0.7131, "monthlyEstimateKRW": 169660612, "salesPercentile": 39.1}, {"sangwonCode": 3111008, "sangwonName": "석촌고분역 3번", "gu": "송파구", "lat": 37.49998331948502, "lon": 127.1003217674192, "survivalProbability": 0.7131, "monthlyEstimateKRW": 91426721, "salesPercentile": 2.0}, {"sangwonCode": 3110123, "sangwonName": "마장역 3번", "gu": "성동구", "lat": 37.56668240119376, "lon": 127.04501580273998, "survivalProbability": 0.7131, "monthlyEstimateKRW": 92933261, "salesPercentile": 3.8}, {"sangwonCode": 3110237, "sangwonName": "메가박스 상봉", "gu": "중랑구", "lat": 37.591408615387756, "lon": 127.07474165969481, "survivalProbability": 0.7131, "monthlyEstimateKRW": 92815134, "salesPercentile": 3.5}, {"sangwonCode": 3110515, "sangwonName": "홍은중학교", "gu": "서대문구", "lat": 37.59266626188652, "lon": 126.93410032016293, "survivalProbability": 0.7131, "monthlyEstimateKRW": 122699554, "salesPercentile": 21.3}, {"sangwonCode": 3120183, "sangwonName": "양재천카페거리", "gu": "서초구", "lat": 37.48059219225856, "lon": 127.04348301557079, "survivalProbability": 0.7131, "monthlyEstimateKRW": 302951434, "salesPercentile": 57.7}, {"sangwonCode": 3120161, "sangwonName": "방배동가구거리(사당동가구거리)", "gu": "서초구", "lat": 37.49497011583308, "lon": 126.9834787145183, "survivalProbability": 0.7131, "monthlyEstimateKRW": 417152477, "salesPercentile": 65.0}, {"sangwonCode": 3110327, "sangwonName": "상월곡역 2번", "gu": "성북구", "lat": 37.60873878305574, "lon": 127.049877085475, "survivalProbability": 0.7131, "monthlyEstimateKRW": 93859437, "salesPercentile": 6.2}, {"sangwonCode": 3120051, "sangwonName": "뚝섬역", "gu": "성동구", "lat": 37.54667891193152, "lon": 127.04842120587679, "survivalProbability": 0.7131, "monthlyEstimateKRW": 457781348, "salesPercentile": 67.9}, {"sangwonCode": 3110230, "sangwonName": "장안현대홈타운1차아파트", "gu": "동대문구", "lat": 37.56900286007882, "lon": 127.07158379588344, "survivalProbability": 0.7131, "monthlyEstimateKRW": 90556054, "salesPercentile": 0.6}, {"sangwonCode": 3110142, "sangwonName": "화양사거리", "gu": "광진구", "lat": 37.54629972809252, "lon": 127.06821255940088, "survivalProbability": 0.7131, "monthlyEstimateKRW": 90732158, "salesPercentile": 1.3}, {"sangwonCode": 3110736, "sangwonName": "독산119안전센터", "gu": "금천구", "lat": 37.46757501512585, "lon": 126.90081805088234, "survivalProbability": 0.7131, "monthlyEstimateKRW": 97045850, "salesPercentile": 9.8}, {"sangwonCode": 3130278, "sangwonName": "미성동 도깨비시장 골목형상점가", "gu": "관악구", "lat": 37.47438964512814, "lon": 126.91633094652599, "survivalProbability": 0.7131, "monthlyEstimateKRW": 124952058, "salesPercentile": 22.8}, {"sangwonCode": 3130294, "sangwonName": "관악중부시장", "gu": "관악구", "lat": 37.48443937758363, "lon": 126.95618686302697, "survivalProbability": 0.7131, "monthlyEstimateKRW": 109838950, "salesPercentile": 14.9}, {"sangwonCode": 3110012, "sangwonName": "성곡미술관", "gu": "종로구", "lat": 37.57330931964528, "lon": 126.96934533653334, "survivalProbability": 0.7131, "monthlyEstimateKRW": 93760387, "salesPercentile": 5.7}, {"sangwonCode": 3110871, "sangwonName": "신원동주민센터", "gu": "관악구", "lat": 37.480514744310774, "lon": 126.92727965292688, "survivalProbability": 0.7131, "monthlyEstimateKRW": 91379064, "salesPercentile": 1.9}, {"sangwonCode": 3110061, "sangwonName": "효창동주민센터", "gu": "용산구", "lat": 37.54211378231579, "lon": 126.95936668628885, "survivalProbability": 0.7131, "monthlyEstimateKRW": 195707339, "salesPercentile": 42.2}, {"sangwonCode": 3110922, "sangwonName": "내방역 1번", "gu": "서초구", "lat": 37.486249479293164, "lon": 126.99698106061803, "survivalProbability": 0.7131, "monthlyEstimateKRW": 122406233, "salesPercentile": 21.0}, {"sangwonCode": 3111044, "sangwonName": "남천초등학교", "gu": "송파구", "lat": 37.49924726592884, "lon": 127.14893749244365, "survivalProbability": 0.7131, "monthlyEstimateKRW": 92478046, "salesPercentile": 2.9}, {"sangwonCode": 3110259, "sangwonName": "사가정역 1번", "gu": "중랑구", "lat": 37.582264812341826, "lon": 127.08609919438236, "survivalProbability": 0.7131, "monthlyEstimateKRW": 92359919, "salesPercentile": 2.8}, {"sangwonCode": 3110323, "sangwonName": "상월곡역 1번", "gu": "성북구", "lat": 37.605821668355986, "lon": 127.04465432991722, "survivalProbability": 0.7131, "monthlyEstimateKRW": 89985302, "salesPercentile": 0.1}, {"sangwonCode": 3120191, "sangwonName": "학동역", "gu": "강남구", "lat": 37.51355518491261, "lon": 127.03007596762794, "survivalProbability": 0.7131, "monthlyEstimateKRW": 791360977, "salesPercentile": 79.3}, {"sangwonCode": 3120128, "sangwonName": "신도림역", "gu": "구로구", "lat": 37.50819222492761, "lon": 126.89038157947542, "survivalProbability": 0.7131, "monthlyEstimateKRW": 420715836, "salesPercentile": 65.3}, {"sangwonCode": 3130314, "sangwonName": "풍납시장", "gu": "송파구", "lat": 37.53741056029039, "lon": 127.12008192689979, "survivalProbability": 0.7131, "monthlyEstimateKRW": 90961790, "salesPercentile": 1.8}, {"sangwonCode": 3110787, "sangwonName": "신길3동주민센터", "gu": "영등포구", "lat": 37.50674580845403, "lon": 126.90568609063068, "survivalProbability": 0.7131, "monthlyEstimateKRW": 115545662, "salesPercentile": 16.4}, {"sangwonCode": 3110782, "sangwonName": "영등포시장역 4번", "gu": "영등포구", "lat": 37.52208833275841, "lon": 126.90374369195808, "survivalProbability": 0.7131, "monthlyEstimateKRW": 124698677, "salesPercentile": 22.4}, {"sangwonCode": 3110436, "sangwonName": "상계제일중학교", "gu": "노원구", "lat": 37.658873767809375, "lon": 127.07589721053684, "survivalProbability": 0.7131, "monthlyEstimateKRW": 146547449, "salesPercentile": 33.0}, {"sangwonCode": 3110433, "sangwonName": "공릉역 2번", "gu": "노원구", "lat": 37.62447424820976, "lon": 127.07580558296289, "survivalProbability": 0.7131, "monthlyEstimateKRW": 93400644, "salesPercentile": 4.8}, {"sangwonCode": 3110391, "sangwonName": "샘말어린이공원", "gu": "도봉구", "lat": 37.66943498973112, "lon": 127.03319911031681, "survivalProbability": 0.7131, "monthlyEstimateKRW": 93682407, "salesPercentile": 5.5}, {"sangwonCode": 3110218, "sangwonName": "답십리사거리", "gu": "동대문구", "lat": 37.57059598801341, "lon": 127.05816024441098, "survivalProbability": 0.7131, "monthlyEstimateKRW": 93025320, "salesPercentile": 4.0}, {"sangwonCode": 3110662, "sangwonName": "까치산역 1번", "gu": "강서구", "lat": 37.53485244846705, "lon": 126.84913619684757, "survivalProbability": 0.7131, "monthlyEstimateKRW": 218811282, "salesPercentile": 45.6}, {"sangwonCode": 3120008, "sangwonName": "인사동", "gu": "종로구", "lat": 37.57390703196603, "lon": 126.98522723193123, "survivalProbability": 0.7131, "monthlyEstimateKRW": 370859741, "salesPercentile": 63.9}, {"sangwonCode": 3110718, "sangwonName": "한국SGI본부", "gu": "구로구", "lat": 37.503462343662285, "lon": 126.89080694582884, "survivalProbability": 0.7131, "monthlyEstimateKRW": 93025320, "salesPercentile": 4.0}, {"sangwonCode": 3110250, "sangwonName": "화랑대역 7번", "gu": "중랑구", "lat": 37.61775786420861, "lon": 127.08183593250513, "survivalProbability": 0.7131, "monthlyEstimateKRW": 272764512, "salesPercentile": 56.1}, {"sangwonCode": 3110333, "sangwonName": "돌곶이역 5번", "gu": "성북구", "lat": 37.60947324115329, "lon": 127.0592890795929, "survivalProbability": 0.7131, "monthlyEstimateKRW": 153838204, "salesPercentile": 35.3}, {"sangwonCode": 3110317, "sangwonName": "종암중학교", "gu": "성북구", "lat": 37.59327436938832, "lon": 127.03416167700084, "survivalProbability": 0.7131, "monthlyEstimateKRW": 112218040, "salesPercentile": 15.0}, {"sangwonCode": 3120229, "sangwonName": "방이동먹자골목", "gu": "송파구", "lat": 37.51438248056646, "lon": 127.10923158441152, "survivalProbability": 0.7131, "monthlyEstimateKRW": 611766495, "salesPercentile": 72.3}, {"sangwonCode": 3110846, "sangwonName": "남성역 1번", "gu": "동작구", "lat": 37.48110151163349, "lon": 126.97230002266343, "survivalProbability": 0.7131, "monthlyEstimateKRW": 221442726, "salesPercentile": 46.7}, {"sangwonCode": 3110291, "sangwonName": "한성대입구역 3번", "gu": "성북구", "lat": 37.58566550742506, "lon": 127.00995195817097, "survivalProbability": 0.7131, "monthlyEstimateKRW": 219521194, "salesPercentile": 46.1}, {"sangwonCode": 3110701, "sangwonName": "고척동성당", "gu": "구로구", "lat": 37.505447814423974, "lon": 126.85975871674793, "survivalProbability": 0.7131, "monthlyEstimateKRW": 232425283, "salesPercentile": 49.6}, {"sangwonCode": 3110702, "sangwonName": "개봉초등학교", "gu": "구로구", "lat": 37.48854391817313, "lon": 126.85889705315547, "survivalProbability": 0.7131, "monthlyEstimateKRW": 121329721, "salesPercentile": 20.6}, {"sangwonCode": 3120214, "sangwonName": "영동대교남단교차로", "gu": "강남구", "lat": 37.52405199944059, "lon": 127.05479819195304, "survivalProbability": 0.7131, "monthlyEstimateKRW": 143864850, "salesPercentile": 31.4}, {"sangwonCode": 3111075, "sangwonName": "굽은다리역 2번", "gu": "강동구", "lat": 37.548667873482714, "lon": 127.14105777722531, "survivalProbability": 0.7131, "monthlyEstimateKRW": 98390423, "salesPercentile": 10.9}, {"sangwonCode": 3120215, "sangwonName": "포스코사거리", "gu": "강남구", "lat": 37.50682411890163, "lon": 127.05626720528876, "survivalProbability": 0.7131, "monthlyEstimateKRW": 1268033084, "salesPercentile": 90.4}, {"sangwonCode": 3110293, "sangwonName": "삼선중학교", "gu": "성북구", "lat": 37.59134172158123, "lon": 127.01040562471103, "survivalProbability": 0.7131, "monthlyEstimateKRW": 736105438, "salesPercentile": 77.1}, {"sangwonCode": 3111073, "sangwonName": "둔촌동역 1번(한산중학교)", "gu": "강동구", "lat": 37.53115405950385, "lon": 127.13970109005331, "survivalProbability": 0.7131, "monthlyEstimateKRW": 546700376, "salesPercentile": 70.9}, {"sangwonCode": 3110287, "sangwonName": "정릉3동주민센터", "gu": "성북구", "lat": 37.609343919599404, "lon": 127.00364681020984, "survivalProbability": 0.7131, "monthlyEstimateKRW": 127257688, "salesPercentile": 26.7}, {"sangwonCode": 3110294, "sangwonName": "서경대학교", "gu": "성북구", "lat": 37.61092006857486, "lon": 127.01227709840207, "survivalProbability": 0.7131, "monthlyEstimateKRW": 90311067, "salesPercentile": 0.4}, {"sangwonCode": 3111076, "sangwonName": "둔촌2동주민센터", "gu": "강동구", "lat": 37.53356458912888, "lon": 127.14316767622354, "survivalProbability": 0.7131, "monthlyEstimateKRW": 146590771, "salesPercentile": 33.1}, {"sangwonCode": 3110699, "sangwonName": "덕의초등학교", "gu": "구로구", "lat": 37.506136184220836, "lon": 126.85527871714595, "survivalProbability": 0.7131, "monthlyEstimateKRW": 681779781, "salesPercentile": 74.5}, {"sangwonCode": 3110284, "sangwonName": "정릉북한산국립공원입구", "gu": "성북구", "lat": 37.6185971259526, "lon": 126.99904854031827, "survivalProbability": 0.7131, "monthlyEstimateKRW": 124974173, "salesPercentile": 23.0}, {"sangwonCode": 3110285, "sangwonName": "홍대부중", "gu": "성북구", "lat": 37.5941893066819, "lon": 127.00138143045521, "survivalProbability": 0.7131, "monthlyEstimateKRW": 125462271, "salesPercentile": 23.4}, {"sangwonCode": 3110295, "sangwonName": "정릉우체국", "gu": "성북구", "lat": 37.606910650147945, "lon": 127.01242366605265, "survivalProbability": 0.7131, "monthlyEstimateKRW": 233133707, "salesPercentile": 50.1}, {"sangwonCode": 3120212, "sangwonName": "한티역", "gu": "강남구", "lat": 37.49742786864853, "lon": 127.05360263990124, "survivalProbability": 0.7131, "monthlyEstimateKRW": 1895121061, "salesPercentile": 98.1}, {"sangwonCode": 3120217, "sangwonName": "대치사거리", "gu": "강남구", "lat": 37.503038855171134, "lon": 127.05841315411669, "survivalProbability": 0.7131, "monthlyEstimateKRW": 1668658647, "salesPercentile": 95.5}, {"sangwonCode": 3111072, "sangwonName": "굽은다리역 1번(십자성마을)", "gu": "강동구", "lat": 37.54295769170239, "lon": 127.1392478634447, "survivalProbability": 0.7131, "monthlyEstimateKRW": 222736382, "salesPercentile": 47.0}, {"sangwonCode": 3110698, "sangwonName": "개웅초등학교(개웅중학교)", "gu": "구로구", "lat": 37.48845594025623, "lon": 126.85324361249401, "survivalProbability": 0.7131, "monthlyEstimateKRW": 358864274, "salesPercentile": 63.2}, {"sangwonCode": 3111077, "sangwonName": "길동주민센터(강동도서관)", "gu": "강동구", "lat": 37.537195500867774, "lon": 127.14326513418865, "survivalProbability": 0.7131, "monthlyEstimateKRW": 254744906, "salesPercentile": 52.0}, {"sangwonCode": 3110296, "sangwonName": "성신여대입구역 4번", "gu": "성북구", "lat": 37.59370183429791, "lon": 127.01493520393063, "survivalProbability": 0.7131, "monthlyEstimateKRW": 1060541376, "salesPercentile": 86.6}, {"sangwonCode": 3120211, "sangwonName": "도성초등학교", "gu": "강남구", "lat": 37.50063596235816, "lon": 127.05246271839206, "survivalProbability": 0.7131, "monthlyEstimateKRW": 1642516768, "salesPercentile": 95.2}, {"sangwonCode": 3110278, "sangwonName": "망우본동주민센터", "gu": "중랑구", "lat": 37.60150500683647, "lon": 127.10352681954076, "survivalProbability": 0.7131, "monthlyEstimateKRW": 146306655, "salesPercentile": 32.7}, {"sangwonCode": 3110697, "sangwonName": "개봉3동주민센터", "gu": "구로구", "lat": 37.484402313249085, "lon": 126.85397516427814, "survivalProbability": 0.7131, "monthlyEstimateKRW": 151499176, "salesPercentile": 34.3}, {"sangwonCode": 3111069, "sangwonName": "천호1동주민센터", "gu": "강동구", "lat": 37.544474825181176, "lon": 127.13628598009838, "survivalProbability": 0.7131, "monthlyEstimateKRW": 92314428, "salesPercentile": 2.6}, {"sangwonCode": 3110298, "sangwonName": "솔숲어린이공원", "gu": "성북구", "lat": 37.60450462764689, "lon": 127.0156168492766, "survivalProbability": 0.7131, "monthlyEstimateKRW": 148177013, "salesPercentile": 33.6}, {"sangwonCode": 3120219, "sangwonName": "은마아파트", "gu": "강남구", "lat": 37.49884807441995, "lon": 127.06060379417535, "survivalProbability": 0.7131, "monthlyEstimateKRW": 2178833201, "salesPercentile": 99.1}, {"sangwonCode": 3120210, "sangwonName": "선릉역", "gu": "강남구", "lat": 37.50461073634166, "lon": 127.04935534409961, "survivalProbability": 0.7131, "monthlyEstimateKRW": 912307237, "salesPercentile": 82.6}, {"sangwonCode": 3110299, "sangwonName": "정릉역 1번", "gu": "성북구", "lat": 37.60190042877038, "lon": 127.01798309800381, "survivalProbability": 0.7131, "monthlyEstimateKRW": 818177207, "salesPercentile": 80.3}, {"sangwonCode": 3111067, "sangwonName": "강동구립성내도서관", "gu": "강동구", "lat": 37.531988464913475, "lon": 127.13498479934741, "survivalProbability": 0.7131, "monthlyEstimateKRW": 97235499, "salesPercentile": 10.0}, {"sangwonCode": 3111078, "sangwonName": "굽은다리역 4번", "gu": "강동구", "lat": 37.54284297310578, "lon": 127.14473562941309, "survivalProbability": 0.7131, "monthlyEstimateKRW": 194840705, "salesPercentile": 42.0}, {"sangwonCode": 3120220, "sangwonName": "대치역", "gu": "강남구", "lat": 37.494188996315316, "lon": 127.06228493383824, "survivalProbability": 0.7131, "monthlyEstimateKRW": 2262843005, "salesPercentile": 100.0}, {"sangwonCode": 3110274, "sangwonName": "서일대학교", "gu": "중랑구", "lat": 37.58956195338933, "lon": 127.09875482708568, "survivalProbability": 0.7131, "monthlyEstimateKRW": 315871111, "salesPercentile": 58.7}, {"sangwonCode": 3110300, "sangwonName": "삼선동주민센터", "gu": "성북구", "lat": 37.58927728633153, "lon": 127.01956520434038, "survivalProbability": 0.7131, "monthlyEstimateKRW": 113761992, "salesPercentile": 15.4}, {"sangwonCode": 3120209, "sangwonName": "강남구청(청담역_8번, 강남세무서)", "gu": "강남구", "lat": 37.51874742762321, "lon": 127.04951170686684, "survivalProbability": 0.7131, "monthlyEstimateKRW": 1302985700, "salesPercentile": 90.8}, {"sangwonCode": 3120221, "sangwonName": "봉은사역", "gu": "강남구", "lat": 37.51446155948791, "lon": 127.06239226670147, "survivalProbability": 0.7131, "monthlyEstimateKRW": 1019927851, "salesPercentile": 85.8}, {"sangwonCode": 3110695, "sangwonName": "개봉1동주민센터", "gu": "구로구", "lat": 37.50051860479138, "lon": 126.8517950693802, "survivalProbability": 0.7131, "monthlyEstimateKRW": 96574148, "salesPercentile": 9.1}, {"sangwonCode": 3111079, "sangwonName": "둔촌고등학교(둔촌중학교)", "gu": "강동구", "lat": 37.53076044252061, "lon": 127.14483672836192, "survivalProbability": 0.7131, "monthlyEstimateKRW": 218469800, "salesPercentile": 45.3}, {"sangwonCode": 3110302, "sangwonName": "보문역 8번", "gu": "성북구", "lat": 37.58356504559915, "lon": 127.01923538316017, "survivalProbability": 0.7131, "monthlyEstimateKRW": 126401621, "salesPercentile": 24.7}, {"sangwonCode": 3111064, "sangwonName": "둔촌동역 4번", "gu": "강동구", "lat": 37.52761260530839, "lon": 127.13232964353003, "survivalProbability": 0.7131, "monthlyEstimateKRW": 156322483, "salesPercentile": 36.4}, {"sangwonCode": 3111080, "sangwonName": "굽은다리역 3번", "gu": "강동구", "lat": 37.54799505551849, "lon": 127.14605826969836, "survivalProbability": 0.7131, "monthlyEstimateKRW": 234316109, "salesPercentile": 50.7}, {"sangwonCode": 3110272, "sangwonName": "신내1동주민센터", "gu": "중랑구", "lat": 37.60615847906632, "lon": 127.09842568909319, "survivalProbability": 0.7131, "monthlyEstimateKRW": 741211256, "salesPercentile": 77.4}, {"sangwonCode": 3120223, "sangwonName": "휘문고교사거리", "gu": "강남구", "lat": 37.50434150525624, "lon": 127.06566363237532, "survivalProbability": 0.7131, "monthlyEstimateKRW": 1169627129, "salesPercentile": 88.0}, {"sangwonCode": 3120207, "sangwonName": "선정릉역", "gu": "강남구", "lat": 37.511468934172726, "lon": 127.04549160322158, "survivalProbability": 0.7131, "monthlyEstimateKRW": 1094258456, "salesPercentile": 86.9}, {"sangwonCode": 3111083, "sangwonName": "GS강동자이아파트", "gu": "강동구", "lat": 37.538289959838245, "lon": 127.14713686672866, "survivalProbability": 0.7131, "monthlyEstimateKRW": 334723333, "salesPercentile": 60.6}, {"sangwonCode": 3110694, "sangwonName": "세곡초등학교", "gu": "구로구", "lat": 37.50475669640574, "lon": 126.84736461127714, "survivalProbability": 0.7131, "monthlyEstimateKRW": 118358298, "salesPercentile": 19.3}, {"sangwonCode": 3110305, "sangwonName": "보문역 5번", "gu": "성북구", "lat": 37.58440245928824, "lon": 127.02214528008177, "survivalProbability": 0.7131, "monthlyEstimateKRW": 113761992, "salesPercentile": 15.4}, {"sangwonCode": 3111062, "sangwonName": "둔촌동역 3번(성내3동주민센터)", "gu": "강동구", "lat": 37.5243968073635, "lon": 127.13163389250455, "survivalProbability": 0.7131, "monthlyEstimateKRW": 260784170, "salesPercentile": 54.2}, {"sangwonCode": 3120224, "sangwonName": "수서역", "gu": "강남구", "lat": 37.487781357677065, "lon": 127.10303046246761, "survivalProbability": 0.7131, "monthlyEstimateKRW": 693900037, "salesPercentile": 74.9}, {"sangwonCode": 3111084, "sangwonName": "길동신동아아파트", "gu": "강동구", "lat": 37.54210915495064, "lon": 127.14797038945525, "survivalProbability": 0.7131, "monthlyEstimateKRW": 134544025, "salesPercentile": 30.4}, {"sangwonCode": 3110711, "sangwonName": "구로초등학교", "gu": "구로구", "lat": 37.49662631952319, "lon": 126.88408837350633, "survivalProbability": 0.7131, "monthlyEstimateKRW": 96279679, "salesPercentile": 8.8}, {"sangwonCode": 3110307, "sangwonName": "길음역 7번", "gu": "성북구", "lat": 37.60415200470216, "lon": 127.02314770784841, "survivalProbability": 0.7131, "monthlyEstimateKRW": 231363070, "salesPercentile": 48.6}, {"sangwonCode": 3120206, "sangwonName": "개나리아파트", "gu": "강남구", "lat": 37.49725157451181, "lon": 127.04415987749276, "survivalProbability": 0.7131, "monthlyEstimateKRW": 1520546822, "salesPercentile": 94.2}, {"sangwonCode": 3110308, "sangwonName": "길음역 8번", "gu": "성북구", "lat": 37.607269174073934, "lon": 127.02441709427482, "survivalProbability": 0.7131, "monthlyEstimateKRW": 1128014951, "salesPercentile": 87.2}, {"sangwonCode": 3111061, "sangwonName": "암사역 1번", "gu": "강동구", "lat": 37.55185075538313, "lon": 127.13119554025, "survivalProbability": 0.7131, "monthlyEstimateKRW": 115135069, "salesPercentile": 16.2}, {"sangwonCode": 3111085, "sangwonName": "묘곡초등학교(고덕아이파크아파트)", "gu": "강동구", "lat": 37.56094142583823, "lon": 127.1539043851388, "survivalProbability": 0.7131, "monthlyEstimateKRW": 1053264560, "salesPercentile": 86.4}, {"sangwonCode": 3110267, "sangwonName": "망우역 2번", "gu": "중랑구", "lat": 37.60077772897528, "lon": 127.08941586511447, "survivalProbability": 0.7131, "monthlyEstimateKRW": 649436186, "salesPercentile": 73.4}, {"sangwonCode": 3120225, "sangwonName": "잠실새내역(신천)", "gu": "송파구", "lat": 37.51048475437836, "lon": 127.0825782728224, "survivalProbability": 0.7131, "monthlyEstimateKRW": 2215862224, "salesPercentile": 99.4}, {"sangwonCode": 3110266, "sangwonName": "면목동우체국", "gu": "중랑구", "lat": 37.5831706467708, "lon": 127.09163646470414, "survivalProbability": 0.7131, "monthlyEstimateKRW": 205106252, "salesPercentile": 43.2}, {"sangwonCode": 3111086, "sangwonName": "한영중고", "gu": "강동구", "lat": 37.5479481533716, "lon": 127.15459058686204, "survivalProbability": 0.7131, "monthlyEstimateKRW": 1559923344, "salesPercentile": 94.6}, {"sangwonCode": 3120226, "sangwonName": "석촌고분역", "gu": "송파구", "lat": 37.5033197760243, "lon": 127.09704648858848, "survivalProbability": 0.7131, "monthlyEstimateKRW": 500088330, "salesPercentile": 69.5}, {"sangwonCode": 3110313, "sangwonName": "안암역 3번", "gu": "성북구", "lat": 37.58398634417268, "lon": 127.02969670042593, "survivalProbability": 0.7131, "monthlyEstimateKRW": 93662333, "salesPercentile": 5.4}, {"sangwonCode": 3111060, "sangwonName": "암사역 2번(서울강동초등학교)", "gu": "강동구", "lat": 37.54699551295604, "lon": 127.13016858602187, "survivalProbability": 0.7131, "monthlyEstimateKRW": 252685934, "salesPercentile": 51.5}, {"sangwonCode": 3111087, "sangwonName": "고덕중학교(고덕2동주민센터)", "gu": "강동구", "lat": 37.56143419088499, "lon": 127.16269966363117, "survivalProbability": 0.7131, "monthlyEstimateKRW": 128401776, "salesPercentile": 27.6}, {"sangwonCode": 3110690, "sangwonName": "오류2동버들시장", "gu": "구로구", "lat": 37.49227211395636, "lon": 126.84304783057685, "survivalProbability": 0.7131, "monthlyEstimateKRW": 325002008, "salesPercentile": 59.3}, {"sangwonCode": 3120203, "sangwonName": "강남구청역", "gu": "강남구", "lat": 37.51624600772093, "lon": 127.04068715258765, "survivalProbability": 0.7131, "monthlyEstimateKRW": 1179334056, "salesPercentile": 88.6}, {"sangwonCode": 3110314, "sangwonName": "종암경찰서", "gu": "성북구", "lat": 37.60114052292245, "lon": 127.03238736566581, "survivalProbability": 0.7131, "monthlyEstimateKRW": 720399467, "salesPercentile": 76.4}, {"sangwonCode": 3110315, "sangwonName": "종암아이파크2차", "gu": "성북구", "lat": 37.59732899315395, "lon": 127.03359734683603, "survivalProbability": 0.7131, "monthlyEstimateKRW": 285068459, "salesPercentile": 56.8}, {"sangwonCode": 3110713, "sangwonName": "구로보건소", "gu": "구로구", "lat": 37.50126053635339, "lon": 126.88723646192494, "survivalProbability": 0.7131, "monthlyEstimateKRW": 98959058, "salesPercentile": 12.0}, {"sangwonCode": 3120202, "sangwonName": "압구정로데오역(압구정로데오)", "gu": "강남구", "lat": 37.526769907891094, "lon": 127.04013853060529, "survivalProbability": 0.7131, "monthlyEstimateKRW": 430351910, "salesPercentile": 66.7}, {"sangwonCode": 3120228, "sangwonName": "석촌역(석촌호수)", "gu": "송파구", "lat": 37.50602362134798, "lon": 127.1065389661683, "survivalProbability": 0.7131, "monthlyEstimateKRW": 794401468, "salesPercentile": 79.7}, {"sangwonCode": 3111089, "sangwonName": "상일여고(상일초등학교)", "gu": "강동구", "lat": 37.54811423179494, "lon": 127.17135024456684, "survivalProbability": 0.7131, "monthlyEstimateKRW": 427692492, "salesPercentile": 66.1}, {"sangwonCode": 3110689, "sangwonName": "오류동역 3번", "gu": "구로구", "lat": 37.49760566370818, "lon": 126.84274264528946, "survivalProbability": 0.7131, "monthlyEstimateKRW": 116723810, "salesPercentile": 18.0}, {"sangwonCode": 3110261, "sangwonName": "사가정역 4번", "gu": "중랑구", "lat": 37.57810062863918, "lon": 127.08825666448381, "survivalProbability": 0.7131, "monthlyEstimateKRW": 187586088, "salesPercentile": 40.4}, {"sangwonCode": 3110316, "sangwonName": "숭곡초등학교", "gu": "성북구", "lat": 37.60814966101142, "lon": 127.03438366024915, "survivalProbability": 0.7131, "monthlyEstimateKRW": 188112840, "salesPercentile": 40.8}, {"sangwonCode": 3111058, "sangwonName": "성내중학교", "gu": "강동구", "lat": 37.529849435267344, "lon": 127.13021797817682, "survivalProbability": 0.7131, "monthlyEstimateKRW": 158230554, "salesPercentile": 37.5}, {"sangwonCode": 3120201, "sangwonName": "도곡1동", "gu": "강남구", "lat": 37.49256784501679, "lon": 127.03992798739, "survivalProbability": 0.7131, "monthlyEstimateKRW": 1065375523, "salesPercentile": 86.7}, {"sangwonCode": 3110260, "sangwonName": "면목역 3번", "gu": "중랑구", "lat": 37.58958078442301, "lon": 127.08622084620522, "survivalProbability": 0.7131, "monthlyEstimateKRW": 95881208, "salesPercentile": 8.0}, {"sangwonCode": 3111090, "sangwonName": "강일동주민센터", "gu": "강동구", "lat": 37.565085473474284, "lon": 127.17376605352426, "survivalProbability": 0.7131, "monthlyEstimateKRW": 1316848132, "salesPercentile": 91.2}, {"sangwonCode": 3110686, "sangwonName": "수궁동주민센터", "gu": "구로구", "lat": 37.494638620747644, "lon": 126.83415467880374, "survivalProbability": 0.7131, "monthlyEstimateKRW": 153402941, "salesPercentile": 34.9}, {"sangwonCode": 3120230, "sangwonName": "송파사거리(송파역)", "gu": "송파구", "lat": 37.50111869275051, "lon": 127.11030924458171, "survivalProbability": 0.7131, "monthlyEstimateKRW": 541383024, "salesPercentile": 70.8}, {"sangwonCode": 3111054, "sangwonName": "암사역 4번(삼성광나루아파트)", "gu": "강동구", "lat": 37.553935288237795, "lon": 127.12825674847986, "survivalProbability": 0.7131, "monthlyEstimateKRW": 308612149, "salesPercentile": 58.0}, {"sangwonCode": 3110714, "sangwonName": "구로4동주민센터", "gu": "구로구", "lat": 37.49132429193936, "lon": 126.88919631652536, "survivalProbability": 0.7131, "monthlyEstimateKRW": 100313192, "salesPercentile": 12.4}, {"sangwonCode": 3110258, "sangwonName": "면동초등학교", "gu": "중랑구", "lat": 37.58630144712347, "lon": 127.08584343751289, "survivalProbability": 0.7131, "monthlyEstimateKRW": 100445445, "salesPercentile": 12.8}, {"sangwonCode": 3110319, "sangwonName": "종암동주민센터", "gu": "성북구", "lat": 37.59923839992779, "lon": 127.03595359013545, "survivalProbability": 0.7131, "monthlyEstimateKRW": 227974058, "salesPercentile": 47.4}, {"sangwonCode": 3110684, "sangwonName": "서울공연예술고등학교", "gu": "구로구", "lat": 37.49865116120828, "lon": 126.82997287787619, "survivalProbability": 0.7131, "monthlyEstimateKRW": 134189500, "salesPercentile": 29.9}, {"sangwonCode": 3111053, "sangwonName": "성내천어린이공원(하니사랑길)", "gu": "강동구", "lat": 37.526187642325176, "lon": 127.12533575007856, "survivalProbability": 0.7131, "monthlyEstimateKRW": 116708136, "salesPercentile": 17.8}, {"sangwonCode": 3120232, "sangwonName": "송파나루역", "gu": "송파구", "lat": 37.51012711047405, "lon": 127.11204169365998, "survivalProbability": 0.7131, "monthlyEstimateKRW": 145621371, "salesPercentile": 32.4}, {"sangwonCode": 3120001, "sangwonName": "서대문역", "gu": "종로구", "lat": 37.566677102939934, "lon": 126.96608817274021, "survivalProbability": 0.7131, "monthlyEstimateKRW": 97856973, "salesPercentile": 10.8}, {"sangwonCode": 3120233, "sangwonName": "몽촌토성역", "gu": "송파구", "lat": 37.51596426713219, "lon": 127.11345302908573, "survivalProbability": 0.7131, "monthlyEstimateKRW": 1228676336, "salesPercentile": 89.8}, {"sangwonCode": 3110256, "sangwonName": "면목2동체육관", "gu": "중랑구", "lat": 37.589871676851374, "lon": 127.0826206130532, "survivalProbability": 0.7131, "monthlyEstimateKRW": 204835514, "salesPercentile": 42.8}, {"sangwonCode": 3111052, "sangwonName": "암사역 3번(천호동자전거거리)", "gu": "강동구", "lat": 37.54790198936116, "lon": 127.12510051019554, "survivalProbability": 0.7131, "monthlyEstimateKRW": 344722573, "salesPercentile": 61.6}, {"sangwonCode": 3110325, "sangwonName": "장곡초등학교", "gu": "성북구", "lat": 37.6169032997047, "lon": 127.04604280668192, "survivalProbability": 0.7131, "monthlyEstimateKRW": 255659439, "salesPercentile": 52.4}, {"sangwonCode": 3120234, "sangwonName": "가락시장역", "gu": "송파구", "lat": 37.494695372813744, "lon": 127.11872437303792, "survivalProbability": 0.7131, "monthlyEstimateKRW": 716722262, "salesPercentile": 75.9}, {"sangwonCode": 3110677, "sangwonName": "등촌역 1번", "gu": "강서구", "lat": 37.55366734475919, "lon": 126.86575698649337, "survivalProbability": 0.7131, "monthlyEstimateKRW": 134704342, "salesPercentile": 30.5}, {"sangwonCode": 3111051, "sangwonName": "천호역 6번", "gu": "강동구", "lat": 37.53472111071503, "lon": 127.1243996374976, "survivalProbability": 0.7131, "monthlyEstimateKRW": 97235499, "salesPercentile": 10.0}, {"sangwonCode": 3120002, "sangwonName": "서촌(경복궁역)", "gu": "종로구", "lat": 37.579283529870374, "lon": 126.97182217376677, "survivalProbability": 0.7131, "monthlyEstimateKRW": 438532629, "salesPercentile": 67.0}, {"sangwonCode": 3120197, "sangwonName": "역삼역", "gu": "강남구", "lat": 37.500398869563554, "lon": 127.03595138126002, "survivalProbability": 0.7131, "monthlyEstimateKRW": 1184552135, "salesPercentile": 88.9}, {"sangwonCode": 3111050, "sangwonName": "강동구청(강동구청역 2번)", "gu": "강동구", "lat": 37.5307476217246, "lon": 127.12447223310747, "survivalProbability": 0.7131, "monthlyEstimateKRW": 125679178, "salesPercentile": 23.8}, {"sangwonCode": 3110254, "sangwonName": "오거리공원", "gu": "중랑구", "lat": 37.57668988738031, "lon": 127.08299094516109, "survivalProbability": 0.7131, "monthlyEstimateKRW": 262821979, "salesPercentile": 54.6}, {"sangwonCode": 3110675, "sangwonName": "화곡4동주민센터", "gu": "강서구", "lat": 37.53623598406385, "lon": 126.86053834758106, "survivalProbability": 0.7131, "monthlyEstimateKRW": 188835919, "salesPercentile": 41.3}, {"sangwonCode": 3111049, "sangwonName": "천호지구대(천호동자전거거리)", "gu": "강동구", "lat": 37.54358791690794, "lon": 127.12347517955997, "survivalProbability": 0.7131, "monthlyEstimateKRW": 116821743, "salesPercentile": 18.2}, {"sangwonCode": 3110253, "sangwonName": "중곡초등학교", "gu": "중랑구", "lat": 37.57314927575237, "lon": 127.08256817561062, "survivalProbability": 0.7131, "monthlyEstimateKRW": 255443751, "salesPercentile": 52.1}, {"sangwonCode": 3110674, "sangwonName": "강서구청가양동별관", "gu": "강서구", "lat": 37.56098595628063, "lon": 126.86016400106026, "survivalProbability": 0.7131, "monthlyEstimateKRW": 127270333, "salesPercentile": 26.9}, {"sangwonCode": 3120003, "sangwonName": "광화문역", "gu": "종로구", "lat": 37.57196808426292, "lon": 126.97459828971189, "survivalProbability": 0.7131, "monthlyEstimateKRW": 891844943, "salesPercentile": 82.0}, {"sangwonCode": 3110717, "sangwonName": "남구로역 2번", "gu": "구로구", "lat": 37.48428725232738, "lon": 126.88901449779476, "survivalProbability": 0.7131, "monthlyEstimateKRW": 125582110, "salesPercentile": 23.6}, {"sangwonCode": 3120236, "sangwonName": "장지역(가든파이브)", "gu": "송파구", "lat": 37.47804006486017, "lon": 127.12329941653981, "survivalProbability": 0.7131, "monthlyEstimateKRW": 1226210785, "salesPercentile": 89.3}, {"sangwonCode": 3120195, "sangwonName": "성수대교남단", "gu": "강남구", "lat": 37.527672703247156, "lon": 127.03445981915029, "survivalProbability": 0.7131, "monthlyEstimateKRW": 1448895368, "salesPercentile": 92.7}, {"sangwonCode": 3110251, "sangwonName": "장안중학교", "gu": "중랑구", "lat": 37.59968387623888, "lon": 127.08204261261062, "survivalProbability": 0.7131, "monthlyEstimateKRW": 243514481, "salesPercentile": 51.1}, {"sangwonCode": 3120237, "sangwonName": "경찰병원역", "gu": "송파구", "lat": 37.49717102650773, "lon": 127.12080906154488, "survivalProbability": 0.7131, "monthlyEstimateKRW": 1099325323, "salesPercentile": 87.0}, {"sangwonCode": 3110672, "sangwonName": "백석중학교", "gu": "강서구", "lat": 37.5466324179359, "lon": 126.85961370194514, "survivalProbability": 0.7131, "monthlyEstimateKRW": 156937953, "salesPercentile": 36.9}, {"sangwonCode": 3111046, "sangwonName": "마천역(마천초등학교)", "gu": "송파구", "lat": 37.495999240540726, "lon": 127.15239139655954, "survivalProbability": 0.7131, "monthlyEstimateKRW": 814711888, "salesPercentile": 80.1}, {"sangwonCode": 3110335, "sangwonName": "석계역 7번", "gu": "성북구", "lat": 37.612849524067954, "lon": 127.06393543121227, "survivalProbability": 0.7131, "monthlyEstimateKRW": 90749561, "salesPercentile": 1.6}, {"sangwonCode": 3110249, "sangwonName": "중화역 1번", "gu": "중랑구", "lat": 37.60427126674587, "lon": 127.08007714819284, "survivalProbability": 0.7131, "monthlyEstimateKRW": 325564767, "salesPercentile": 59.4}, {"sangwonCode": 3120193, "sangwonName": "도산공원교차로", "gu": "강남구", "lat": 37.521564162466845, "lon": 127.03357465676805, "survivalProbability": 0.7131, "monthlyEstimateKRW": 464658716, "salesPercentile": 68.3}, {"sangwonCode": 3120238, "sangwonName": "방이역", "gu": "송파구", "lat": 37.509239712678266, "lon": 127.1253978901468, "survivalProbability": 0.7131, "monthlyEstimateKRW": 1269456352, "salesPercentile": 90.5}, {"sangwonCode": 3110671, "sangwonName": "등촌1동주민센터", "gu": "강서구", "lat": 37.55565994906193, "lon": 126.8592232956464, "survivalProbability": 0.7131, "monthlyEstimateKRW": 475794960, "salesPercentile": 69.1}, {"sangwonCode": 3120239, "sangwonName": "오금역", "gu": "송파구", "lat": 37.50177860016498, "lon": 127.12614312912417, "survivalProbability": 0.7131, "monthlyEstimateKRW": 426326487, "salesPercentile": 66.0}, {"sangwonCode": 3120192, "sangwonName": "뱅뱅사거리", "gu": "강남구", "lat": 37.4902548060724, "lon": 127.03149136697971, "survivalProbability": 0.7131, "monthlyEstimateKRW": 1485014667, "salesPercentile": 93.7}, {"sangwonCode": 3110247, "sangwonName": "먹골역 1번", "gu": "중랑구", "lat": 37.610200308625146, "lon": 127.07929071096504, "survivalProbability": 0.7131, "monthlyEstimateKRW": 120222476, "salesPercentile": 20.0}, {"sangwonCode": 3120240, "sangwonName": "개롱역", "gu": "송파구", "lat": 37.49604787721762, "lon": 127.13460345002983, "survivalProbability": 0.7131, "monthlyEstimateKRW": 960274265, "salesPercentile": 84.7}, {"sangwonCode": 3110343, "sangwonName": "무너미어린이공원", "gu": "강북구", "lat": 37.644878286044325, "lon": 127.0119427585941, "survivalProbability": 0.7131, "monthlyEstimateKRW": 231640891, "salesPercentile": 48.8}, {"sangwonCode": 3110670, "sangwonName": "신곡초등학교", "gu": "강서구", "lat": 37.53553664636464, "lon": 126.85590077983865, "survivalProbability": 0.7131, "monthlyEstimateKRW": 336445857, "salesPercentile": 60.7}, {"sangwonCode": 3110245, "sangwonName": "KB국민은행 중화동지점", "gu": "중랑구", "lat": 37.59708224403993, "lon": 127.0787672252466, "survivalProbability": 0.7131, "monthlyEstimateKRW": 92047245, "salesPercentile": 2.2}, {"sangwonCode": 3110345, "sangwonName": "솔밭공원역 2번", "gu": "강북구", "lat": 37.65729376201776, "lon": 127.01261338082156, "survivalProbability": 0.7131, "monthlyEstimateKRW": 92250416, "salesPercentile": 2.5}, {"sangwonCode": 3120241, "sangwonName": "거여역", "gu": "송파구", "lat": 37.49283633341059, "lon": 127.1455437075945, "survivalProbability": 0.7131, "monthlyEstimateKRW": 934113693, "salesPercentile": 83.6}, {"sangwonCode": 3120006, "sangwonName": "종각역", "gu": "종로구", "lat": 37.57037490191488, "lon": 126.98349603169189, "survivalProbability": 0.7131, "monthlyEstimateKRW": 911674368, "salesPercentile": 82.5}, {"sangwonCode": 3111042, "sangwonName": "거여역 1번(거여공원)", "gu": "송파구", "lat": 37.49713654406891, "lon": 127.14357306164347, "survivalProbability": 0.7131, "monthlyEstimateKRW": 205106252, "salesPercentile": 43.2}, {"sangwonCode": 3110348, "sangwonName": "강북문화예술회관", "gu": "강북구", "lat": 37.64216601575762, "lon": 127.01467296968984, "survivalProbability": 0.7131, "monthlyEstimateKRW": 93859437, "salesPercentile": 6.2}, {"sangwonCode": 3120190, "sangwonName": "강남을지병원", "gu": "강남구", "lat": 37.520006819268275, "lon": 127.02825732811267, "survivalProbability": 0.7131, "monthlyEstimateKRW": 1469099963, "salesPercentile": 93.1}, {"sangwonCode": 3110243, "sangwonName": "중랑노인종합복지관", "gu": "중랑구", "lat": 37.58811789372319, "lon": 127.0779878628827, "survivalProbability": 0.7131, "monthlyEstimateKRW": 370228951, "salesPercentile": 63.8}, {"sangwonCode": 3120242, "sangwonName": "강동구청역", "gu": "강동구", "lat": 37.52923581309821, "lon": 127.12268220880003, "survivalProbability": 0.7131, "monthlyEstimateKRW": 383654583, "salesPercentile": 64.4}, {"sangwonCode": 3110350, "sangwonName": "가오리역 2번", "gu": "강북구", "lat": 37.63947200306674, "lon": 127.01521628317677, "survivalProbability": 0.7131, "monthlyEstimateKRW": 231987647, "salesPercentile": 49.1}, {"sangwonCode": 3110668, "sangwonName": "화곡2동주민센터", "gu": "강서구", "lat": 37.53247006333166, "lon": 126.85331580752785, "survivalProbability": 0.7131, "monthlyEstimateKRW": 718135286, "salesPercentile": 76.1}, {"sangwonCode": 3111039, "sangwonName": "벌말어린이공원", "gu": "송파구", "lat": 37.50217000650291, "lon": 127.13867447153532, "survivalProbability": 0.7131, "monthlyEstimateKRW": 94924487, "salesPercentile": 7.3}, {"sangwonCode": 3110351, "sangwonName": "수유북부시장옆", "gu": "강북구", "lat": 37.63627345900942, "lon": 127.01557817756292, "survivalProbability": 0.7131, "monthlyEstimateKRW": 92639707, "salesPercentile": 3.4}, {"sangwonCode": 3120007, "sangwonName": "북촌(안국역)", "gu": "종로구", "lat": 37.57915989328047, "lon": 126.98574695667236, "survivalProbability": 0.7131, "monthlyEstimateKRW": 95488858, "salesPercentile": 7.6}, {"sangwonCode": 3120189, "sangwonName": "강남역", "gu": "서초구", "lat": 37.497571920870165, "lon": 127.02775129423334, "survivalProbability": 0.7131, "monthlyEstimateKRW": 1927663796, "salesPercentile": 98.2}, {"sangwonCode": 3110352, "sangwonName": "수유1동주민센터", "gu": "강북구", "lat": 37.6301286649574, "lon": 127.01610934145873, "survivalProbability": 0.7131, "monthlyEstimateKRW": 310871108, "salesPercentile": 58.2}, {"sangwonCode": 3111038, "sangwonName": "보인중학교", "gu": "송파구", "lat": 37.49972782218089, "lon": 127.13906576695737, "survivalProbability": 0.7131, "monthlyEstimateKRW": 212060325, "salesPercentile": 43.9}, {"sangwonCode": 3110354, "sangwonName": "삼각산119안전센터", "gu": "강북구", "lat": 37.61992037016402, "lon": 127.01691136280665, "survivalProbability": 0.7131, "monthlyEstimateKRW": 134364886, "salesPercentile": 30.2}, {"sangwonCode": 3120244, "sangwonName": "암사역", "gu": "강동구", "lat": 37.55137688969368, "lon": 127.12785627932669, "survivalProbability": 0.7131, "monthlyEstimateKRW": 499137449, "salesPercentile": 69.3}, {"sangwonCode": 3120188, "sangwonName": "압구정역", "gu": "강남구", "lat": 37.52546693782541, "lon": 127.02807838256531, "survivalProbability": 0.7131, "monthlyEstimateKRW": 1857968766, "salesPercentile": 97.5}, {"sangwonCode": 3110355, "sangwonName": "삼양사거리역 2번", "gu": "강북구", "lat": 37.621596021966724, "lon": 127.01815775151192, "survivalProbability": 0.7131, "monthlyEstimateKRW": 92131816, "salesPercentile": 2.3}, {"sangwonCode": 3111034, "sangwonName": "오동나무공원(송파레미니스1단지)", "gu": "송파구", "lat": 37.50662576054443, "lon": 127.13453196048948, "survivalProbability": 0.7131, "monthlyEstimateKRW": 227975225, "salesPercentile": 47.6}, {"sangwonCode": 3110357, "sangwonName": "가오리역 1번", "gu": "강북구", "lat": 37.643417950047436, "lon": 127.01782314180417, "survivalProbability": 0.7131, "monthlyEstimateKRW": 119198302, "salesPercentile": 19.8}, {"sangwonCode": 3120245, "sangwonName": "둔촌역", "gu": "강동구", "lat": 37.526339264817906, "lon": 127.13491805500612, "survivalProbability": 0.7131, "monthlyEstimateKRW": 1841937780, "salesPercentile": 97.2}, {"sangwonCode": 3110665, "sangwonName": "곰달래도서관", "gu": "강서구", "lat": 37.52964910739219, "lon": 126.85265383966636, "survivalProbability": 0.7131, "monthlyEstimateKRW": 95974281, "salesPercentile": 8.3}, {"sangwonCode": 3120187, "sangwonName": "신논현역", "gu": "강남구", "lat": 37.50502379497898, "lon": 127.02527722374786, "survivalProbability": 0.7131, "monthlyEstimateKRW": 1357762309, "salesPercentile": 91.8}, {"sangwonCode": 3110359, "sangwonName": "수유시장옆", "gu": "강북구", "lat": 37.63881357448498, "lon": 127.01997473599367, "survivalProbability": 0.7131, "monthlyEstimateKRW": 115596849, "salesPercentile": 16.6}, {"sangwonCode": 3110236, "sangwonName": "신묵초등학교", "gu": "중랑구", "lat": 37.60887870447146, "lon": 127.07492901956759, "survivalProbability": 0.7131, "monthlyEstimateKRW": 295568739, "salesPercentile": 57.2}, {"sangwonCode": 3111032, "sangwonName": "방이역 1번", "gu": "송파구", "lat": 37.50879300826817, "lon": 127.13021532267395, "survivalProbability": 0.7131, "monthlyEstimateKRW": 1220194145, "salesPercentile": 89.2}, {"sangwonCode": 3110360, "sangwonName": "수유초등학교", "gu": "강북구", "lat": 37.63250662510774, "lon": 127.02027893106107, "survivalProbability": 0.7131, "monthlyEstimateKRW": 187359782, "salesPercentile": 40.1}, {"sangwonCode": 3120246, "sangwonName": "길동역", "gu": "강동구", "lat": 37.536471614031555, "lon": 127.13829670196402, "survivalProbability": 0.7131, "monthlyEstimateKRW": 908165517, "salesPercentile": 82.3}, {"sangwonCode": 3120009, "sangwonName": "종로3가역", "gu": "종로구", "lat": 37.57165510209864, "lon": 126.99069513429947, "survivalProbability": 0.7131, "monthlyEstimateKRW": 1179330663, "salesPercentile": 88.5}, {"sangwonCode": 3110730, "sangwonName": "서울축산농협 독산역지점(독산파출소)", "gu": "금천구", "lat": 37.46490291619055, "lon": 126.89490976198287, "survivalProbability": 0.7131, "monthlyEstimateKRW": 94029190, "salesPercentile": 6.4}, {"sangwonCode": 3120186, "sangwonName": "가로수길", "gu": "강남구", "lat": 37.52077389382864, "lon": 127.0225789449648, "survivalProbability": 0.7131, "monthlyEstimateKRW": 1477075154, "salesPercentile": 93.4}, {"sangwonCode": 3110362, "sangwonName": "우이천 계성교", "gu": "강북구", "lat": 37.646318365703095, "lon": 127.02225429849477, "survivalProbability": 0.7131, "monthlyEstimateKRW": 95064481, "salesPercentile": 7.4}, {"sangwonCode": 3110232, "sangwonName": "동대부고", "gu": "동대문구", "lat": 37.577299862320345, "lon": 127.07347096415802, "survivalProbability": 0.7131, "monthlyEstimateKRW": 1325842649, "salesPercentile": 91.4}, {"sangwonCode": 3111031, "sangwonName": "장지동주민센터(한림연예예술고교)", "gu": "송파구", "lat": 37.486051200890266, "lon": 127.1305941940208, "survivalProbability": 0.7131, "monthlyEstimateKRW": 258642904, "salesPercentile": 53.8}, {"sangwonCode": 3120247, "sangwonName": "굽은다리역", "gu": "강동구", "lat": 37.54581880892867, "lon": 127.14264794652553, "survivalProbability": 0.7131, "monthlyEstimateKRW": 1638070904, "salesPercentile": 95.0}, {"sangwonCode": 3110364, "sangwonName": "미아역 8번", "gu": "강북구", "lat": 37.62728941870225, "lon": 127.02298495804368, "survivalProbability": 0.7131, "monthlyEstimateKRW": 92552907, "salesPercentile": 3.2}, {"sangwonCode": 3111030, "sangwonName": "방이역 2번", "gu": "송파구", "lat": 37.506334079138135, "lon": 127.12947590742026, "survivalProbability": 0.7131, "monthlyEstimateKRW": 931167310, "salesPercentile": 83.5}, {"sangwonCode": 3111029, "sangwonName": "오금역 4번", "gu": "송파구", "lat": 37.497884928294894, "lon": 127.12738052925893, "survivalProbability": 0.7131, "monthlyEstimateKRW": 835502134, "salesPercentile": 80.6}, {"sangwonCode": 3120248, "sangwonName": "명일역", "gu": "강동구", "lat": 37.55124972345866, "lon": 127.1443784336575, "survivalProbability": 0.7131, "monthlyEstimateKRW": 1954323495, "salesPercentile": 98.4}, {"sangwonCode": 3110229, "sangwonName": "장평중학교", "gu": "동대문구", "lat": 37.56456190380795, "lon": 127.06999492654315, "survivalProbability": 0.7131, "monthlyEstimateKRW": 372054905, "salesPercentile": 64.1}, {"sangwonCode": 3110228, "sangwonName": "장안근린공원", "gu": "동대문구", "lat": 37.5758335619501, "lon": 127.0696432221665, "survivalProbability": 0.7131, "monthlyEstimateKRW": 90734657, "salesPercentile": 1.5}, {"sangwonCode": 3111028, "sangwonName": "문현중학교(장지역 1번)", "gu": "송파구", "lat": 37.48182002557716, "lon": 127.12733063992445, "survivalProbability": 0.7131, "monthlyEstimateKRW": 96506472, "salesPercentile": 8.9}, {"sangwonCode": 3110368, "sangwonName": "송천초등학교", "gu": "강북구", "lat": 37.61467534388805, "lon": 127.02422696852264, "survivalProbability": 0.7131, "monthlyEstimateKRW": 217180200, "salesPercentile": 44.7}, {"sangwonCode": 3120184, "sangwonName": "포이사거리(삼호물산)", "gu": "서초구", "lat": 37.47696053249972, "lon": 127.04506367970757, "survivalProbability": 0.7131, "monthlyEstimateKRW": 1174032705, "salesPercentile": 88.2}, {"sangwonCode": 3120249, "sangwonName": "고덕역", "gu": "강동구", "lat": 37.553416674247536, "lon": 127.15499797751727, "survivalProbability": 0.7131, "monthlyEstimateKRW": 2247511644, "salesPercentile": 99.9}, {"sangwonCode": 3110227, "sangwonName": "답십리공원", "gu": "동대문구", "lat": 37.57615943992586, "lon": 127.06701717715495, "survivalProbability": 0.7131, "monthlyEstimateKRW": 233886013, "salesPercentile": 50.4}, {"sangwonCode": 3111027, "sangwonName": "문정초등학교", "gu": "송파구", "lat": 37.48862354516316, "lon": 127.12648283683586, "survivalProbability": 0.7131, "monthlyEstimateKRW": 953844682, "salesPercentile": 84.4}, {"sangwonCode": 3110660, "sangwonName": "등촌3동주민센터", "gu": "강서구", "lat": 37.55832107704375, "lon": 126.84728936932454, "survivalProbability": 0.7131, "monthlyEstimateKRW": 1338419914, "salesPercentile": 91.7}, {"sangwonCode": 3130002, "sangwonName": "세종마을음식문화거리(금천교시장)", "gu": "종로구", "lat": 37.5768145641106, "lon": 126.9708268941168, "survivalProbability": 0.7131, "monthlyEstimateKRW": 155668339, "salesPercentile": 35.9}, {"sangwonCode": 3110226, "sangwonName": "장안1동주민센터", "gu": "동대문구", "lat": 37.568960725192056, "lon": 127.06660322921046, "survivalProbability": 0.7131, "monthlyEstimateKRW": 219879797, "salesPercentile": 46.4}, {"sangwonCode": 3111026, "sangwonName": "문정역 2번", "gu": "송파구", "lat": 37.48402890980623, "lon": 127.12601152245665, "survivalProbability": 0.7131, "monthlyEstimateKRW": 802061225, "salesPercentile": 79.9}, {"sangwonCode": 3120181, "sangwonName": "교육개발원입구사거리", "gu": "서초구", "lat": 37.47719715795056, "lon": 127.038370951405, "survivalProbability": 0.7131, "monthlyEstimateKRW": 112819556, "salesPercentile": 15.2}, {"sangwonCode": 3110225, "sangwonName": "촬영소사거리", "gu": "동대문구", "lat": 37.569647147721206, "lon": 127.06358153868928, "survivalProbability": 0.7131, "monthlyEstimateKRW": 341420530, "salesPercentile": 61.2}, {"sangwonCode": 3110374, "sangwonName": "송중초등학교", "gu": "강북구", "lat": 37.61982748768701, "lon": 127.0307077341858, "survivalProbability": 0.7131, "monthlyEstimateKRW": 217180200, "salesPercentile": 44.7}, {"sangwonCode": 3120179, "sangwonName": "양재역", "gu": "서초구", "lat": 37.484496660060245, "lon": 127.03403294046717, "survivalProbability": 0.7131, "monthlyEstimateKRW": 877411725, "salesPercentile": 81.5}, {"sangwonCode": 3110659, "sangwonName": "화곡역 4번", "gu": "강서구", "lat": 37.54056131421404, "lon": 126.84644302224991, "survivalProbability": 0.7131, "monthlyEstimateKRW": 613489031, "salesPercentile": 72.4}, {"sangwonCode": 3110220, "sangwonName": "외대앞역 1번", "gu": "동대문구", "lat": 37.59521860885541, "lon": 127.06118009171786, "survivalProbability": 0.7131, "monthlyEstimateKRW": 188460105, "salesPercentile": 41.2}, {"sangwonCode": 3111022, "sangwonName": "석촌중학교(방이육교)", "gu": "송파구", "lat": 37.502906487064415, "lon": 127.12460694915103, "survivalProbability": 0.7131, "monthlyEstimateKRW": 184839438, "salesPercentile": 39.7}, {"sangwonCode": 3110376, "sangwonName": "수송초등학교", "gu": "강북구", "lat": 37.63939671921139, "lon": 127.03142958043486, "survivalProbability": 0.7131, "monthlyEstimateKRW": 220068792, "salesPercentile": 46.6}, {"sangwonCode": 3111021, "sangwonName": "방이역 4번", "gu": "송파구", "lat": 37.51121564107836, "lon": 127.12279974688528, "survivalProbability": 0.7131, "monthlyEstimateKRW": 2070622638, "salesPercentile": 98.8}, {"sangwonCode": 3110219, "sangwonName": "삼육보건대학교", "gu": "동대문구", "lat": 37.587713860831755, "lon": 127.06017759350853, "survivalProbability": 0.7131, "monthlyEstimateKRW": 210718439, "salesPercentile": 43.6}, {"sangwonCode": 3120178, "sangwonName": "신사역", "gu": "서초구", "lat": 37.515963075171285, "lon": 127.01955735958383, "survivalProbability": 0.7131, "monthlyEstimateKRW": 1030286038, "salesPercentile": 86.0}, {"sangwonCode": 3110378, "sangwonName": "송중동주민센터", "gu": "강북구", "lat": 37.61465474806964, "lon": 127.0345678760869, "survivalProbability": 0.7131, "monthlyEstimateKRW": 94831773, "salesPercentile": 7.2}, {"sangwonCode": 3110381, "sangwonName": "번동주공2단지", "gu": "강북구", "lat": 37.628022144194425, "lon": 127.04431643020384, "survivalProbability": 0.7131, "monthlyEstimateKRW": 124929485, "salesPercentile": 22.6}, {"sangwonCode": 3120177, "sangwonName": "신논현역 1번", "gu": "서초구", "lat": 37.50543027854698, "lon": 127.01988259526811, "survivalProbability": 0.7131, "monthlyEstimateKRW": 95894760, "salesPercentile": 8.2}, {"sangwonCode": 3110383, "sangwonName": "덕성여대시반거리", "gu": "도봉구", "lat": 37.6514192269792, "lon": 127.0137682393538, "survivalProbability": 0.7131, "monthlyEstimateKRW": 148181179, "salesPercentile": 33.7}, {"sangwonCode": 3111020, "sangwonName": "방이동고분군(방산고등학교)", "gu": "송파구", "lat": 37.50698317749334, "lon": 127.1206099818534, "survivalProbability": 0.7131, "monthlyEstimateKRW": 554398905, "salesPercentile": 71.1}, {"sangwonCode": 3110387, "sangwonName": "쌍문초등학교", "gu": "도봉구", "lat": 37.650408392580964, "lon": 127.02446520633931, "survivalProbability": 0.7131, "monthlyEstimateKRW": 204879945, "salesPercentile": 42.9}, {"sangwonCode": 3111019, "sangwonName": "한성백제역 3번", "gu": "송파구", "lat": 37.5135634626904, "lon": 127.11767970969707, "survivalProbability": 0.7131, "monthlyEstimateKRW": 721125363, "salesPercentile": 76.5}, {"sangwonCode": 3120175, "sangwonName": "남부터미널역", "gu": "서초구", "lat": 37.48511285891225, "lon": 127.01811336179759, "survivalProbability": 0.7131, "monthlyEstimateKRW": 1476130548, "salesPercentile": 93.3}, {"sangwonCode": 3110741, "sangwonName": "독산2동주민센터", "gu": "금천구", "lat": 37.46383656022357, "lon": 126.9017046630445, "survivalProbability": 0.7131, "monthlyEstimateKRW": 168908289, "salesPercentile": 39.0}, {"sangwonCode": 3110388, "sangwonName": "도봉우체국", "gu": "도봉구", "lat": 37.6475509095685, "lon": 127.03034521174627, "survivalProbability": 0.7131, "monthlyEstimateKRW": 357114778, "salesPercentile": 62.8}, {"sangwonCode": 3110213, "sangwonName": "청량초등학교", "gu": "동대문구", "lat": 37.59303145545398, "lon": 127.05666041481288, "survivalProbability": 0.7131, "monthlyEstimateKRW": 125472644, "salesPercentile": 23.5}, {"sangwonCode": 3110212, "sangwonName": "답십리초등학교", "gu": "동대문구", "lat": 37.570011170999635, "lon": 127.05645053947013, "survivalProbability": 0.7131, "monthlyEstimateKRW": 860501257, "salesPercentile": 81.0}, {"sangwonCode": 3111016, "sangwonName": "송파역 2번", "gu": "송파구", "lat": 37.500681404240055, "lon": 127.11534113261456, "survivalProbability": 0.7131, "monthlyEstimateKRW": 266084376, "salesPercentile": 55.0}, {"sangwonCode": 3130051, "sangwonName": "동화동 골목형상점가", "gu": "중구", "lat": 37.56240094950935, "lon": 127.01746427209717, "survivalProbability": 0.7131, "monthlyEstimateKRW": 93172275, "salesPercentile": 4.4}, {"sangwonCode": 3110390, "sangwonName": "방학초등학교", "gu": "도봉구", "lat": 37.66294826180096, "lon": 127.0319948557538, "survivalProbability": 0.7131, "monthlyEstimateKRW": 291406515, "salesPercentile": 57.1}, {"sangwonCode": 3120173, "sangwonName": "교대역(법원.검찰청)", "gu": "서초구", "lat": 37.49370893679033, "lon": 127.0147795736092, "survivalProbability": 0.7131, "monthlyEstimateKRW": 1719303009, "salesPercentile": 96.1}, {"sangwonCode": 3110656, "sangwonName": "까치산역 3번", "gu": "강서구", "lat": 37.52876264452878, "lon": 126.84296009158733, "survivalProbability": 0.7131, "monthlyEstimateKRW": 115851740, "salesPercentile": 16.9}, {"sangwonCode": 3110211, "sangwonName": "전곡마을마당공원", "gu": "동대문구", "lat": 37.5798238453243, "lon": 127.05465790447084, "survivalProbability": 0.7131, "monthlyEstimateKRW": 93831029, "salesPercentile": 5.8}, {"sangwonCode": 3110742, "sangwonName": "KT금천빌딩(금천구시설관리공단)", "gu": "금천구", "lat": 37.44707867860115, "lon": 126.90285669090942, "survivalProbability": 0.7131, "monthlyEstimateKRW": 126917259, "salesPercentile": 26.0}, {"sangwonCode": 3111015, "sangwonName": "석촌역 3번", "gu": "송파구", "lat": 37.50603667404324, "lon": 127.11191117169507, "survivalProbability": 0.7131, "monthlyEstimateKRW": 669351513, "salesPercentile": 73.9}, {"sangwonCode": 3110392, "sangwonName": "발바닥공원", "gu": "도봉구", "lat": 37.659380273733284, "lon": 127.03236731659005, "survivalProbability": 0.7131, "monthlyEstimateKRW": 884077129, "salesPercentile": 81.8}, {"sangwonCode": 3110393, "sangwonName": "국민은행방학지점", "gu": "도봉구", "lat": 37.66212802425333, "lon": 127.03324118997118, "survivalProbability": 0.7131, "monthlyEstimateKRW": 127385289, "salesPercentile": 27.0}, {"sangwonCode": 3110743, "sangwonName": "시흥초등학교(시흥1동우체국)", "gu": "금천구", "lat": 37.45541423177664, "lon": 126.90430389990269, "survivalProbability": 0.7131, "monthlyEstimateKRW": 117931961, "salesPercentile": 18.8}, {"sangwonCode": 3120172, "sangwonName": "교대입구교차로", "gu": "서초구", "lat": 37.48774452227515, "lon": 127.01257351118738, "survivalProbability": 0.7131, "monthlyEstimateKRW": 1314859042, "salesPercentile": 91.1}, {"sangwonCode": 3110206, "sangwonName": "텃골근린공원", "gu": "동대문구", "lat": 37.57905927730038, "lon": 127.05182711868238, "survivalProbability": 0.7131, "monthlyEstimateKRW": 93835959, "salesPercentile": 6.0}, {"sangwonCode": 3120171, "sangwonName": "서초3동사거리", "gu": "서초구", "lat": 37.48268994804575, "lon": 127.01176991309515, "survivalProbability": 0.7131, "monthlyEstimateKRW": 1314660855, "salesPercentile": 90.9}, {"sangwonCode": 3110744, "sangwonName": "독산동성당", "gu": "금천구", "lat": 37.47067726744691, "lon": 126.90418270467585, "survivalProbability": 0.7131, "monthlyEstimateKRW": 124099822, "salesPercentile": 21.9}, {"sangwonCode": 3110204, "sangwonName": "간데메공원", "gu": "동대문구", "lat": 37.573518572379605, "lon": 127.05088371301225, "survivalProbability": 0.7131, "monthlyEstimateKRW": 350720650, "salesPercentile": 62.0}, {"sangwonCode": 3120170, "sangwonName": "삼호가든사거리", "gu": "서초구", "lat": 37.502142774318706, "lon": 127.01094738816995, "survivalProbability": 0.7131, "monthlyEstimateKRW": 1986246969, "salesPercentile": 98.5}, {"sangwonCode": 3111012, "sangwonName": "석촌역 6번", "gu": "송파구", "lat": 37.50219517719213, "lon": 127.10561747375874, "survivalProbability": 0.7131, "monthlyEstimateKRW": 343678734, "salesPercentile": 61.5}, {"sangwonCode": 3130059, "sangwonName": "후암시장", "gu": "용산구", "lat": 37.55011025033981, "lon": 126.97626923912605, "survivalProbability": 0.7131, "monthlyEstimateKRW": 127117807, "salesPercentile": 26.3}, {"sangwonCode": 3110654, "sangwonName": "까치산역 4번", "gu": "강서구", "lat": 37.53303109083655, "lon": 126.8412427376533, "survivalProbability": 0.7131, "monthlyEstimateKRW": 255634446, "salesPercentile": 52.3}, {"sangwonCode": 3110397, "sangwonName": "도봉산입구", "gu": "도봉구", "lat": 37.684497981920416, "lon": 127.03777459924743, "survivalProbability": 0.7131, "monthlyEstimateKRW": 187701402, "salesPercentile": 40.6}, {"sangwonCode": 3130063, "sangwonName": "신금호역 골목형상점가", "gu": "성동구", "lat": 37.55379600299772, "lon": 127.02012177910736, "survivalProbability": 0.7131, "monthlyEstimateKRW": 127683330, "salesPercentile": 27.3}, {"sangwonCode": 3120169, "sangwonName": "서초역", "gu": "서초구", "lat": 37.49146604063206, "lon": 127.0085938332724, "survivalProbability": 0.7131, "monthlyEstimateKRW": 678351986, "salesPercentile": 74.2}, {"sangwonCode": 3111011, "sangwonName": "잠실나루역", "gu": "송파구", "lat": 37.52106332251792, "lon": 127.10435448058153, "survivalProbability": 0.7131, "monthlyEstimateKRW": 127213708, "salesPercentile": 26.4}, {"sangwonCode": 3120168, "sangwonName": "서울고교교차로", "gu": "서초구", "lat": 37.482474210317946, "lon": 127.00439815853709, "survivalProbability": 0.7131, "monthlyEstimateKRW": 1558253734, "salesPercentile": 94.3}, {"sangwonCode": 3110398, "sangwonName": "쌍문2동우체국", "gu": "도봉구", "lat": 37.654891974674136, "lon": 127.03714764587913, "survivalProbability": 0.7131, "monthlyEstimateKRW": 847427138, "salesPercentile": 80.9}, {"sangwonCode": 3130065, "sangwonName": "무학봉상점가", "gu": "성동구", "lat": 37.56179460093203, "lon": 127.0306273084275, "survivalProbability": 0.7131, "monthlyEstimateKRW": 100803610, "salesPercentile": 13.0}, {"sangwonCode": 3110745, "sangwonName": "독산동정훈단지", "gu": "금천구", "lat": 37.46594683806725, "lon": 126.90403048852814, "survivalProbability": 0.7131, "monthlyEstimateKRW": 140574748, "salesPercentile": 31.1}, {"sangwonCode": 3120167, "sangwonName": "고속터미널(고속터미널역)", "gu": "서초구", "lat": 37.50505341252054, "lon": 127.00525902182616, "survivalProbability": 0.7131, "monthlyEstimateKRW": 1883859746, "salesPercentile": 97.7}, {"sangwonCode": 3110653, "sangwonName": "화곡역 2번", "gu": "강서구", "lat": 37.54464527300884, "lon": 126.8414670572051, "survivalProbability": 0.7131, "monthlyEstimateKRW": 98498460, "salesPercentile": 11.5}, {"sangwonCode": 3110399, "sangwonName": "창2동주민센터", "gu": "도봉구", "lat": 37.64157479754697, "lon": 127.03913516200645, "survivalProbability": 0.7131, "monthlyEstimateKRW": 633834801, "salesPercentile": 73.0}, {"sangwonCode": 3120166, "sangwonName": "방배역", "gu": "서초구", "lat": 37.48166335251674, "lon": 126.99726390009168, "survivalProbability": 0.7131, "monthlyEstimateKRW": 1479319966, "salesPercentile": 93.6}, {"sangwonCode": 3110748, "sangwonName": "백산초등학교", "gu": "금천구", "lat": 37.44853971878937, "lon": 126.90457258515943, "survivalProbability": 0.7131, "monthlyEstimateKRW": 272891297, "salesPercentile": 56.2}, {"sangwonCode": 3110651, "sangwonName": "화원중학교", "gu": "강서구", "lat": 37.53644305357173, "lon": 126.83915364557924, "survivalProbability": 0.7131, "monthlyEstimateKRW": 233659707, "salesPercentile": 50.2}, {"sangwonCode": 3110188, "sangwonName": "용두동신동아아파트", "gu": "동대문구", "lat": 37.57211950664692, "lon": 127.0325219523249, "survivalProbability": 0.7131, "monthlyEstimateKRW": 152835773, "salesPercentile": 34.6}, {"sangwonCode": 3120165, "sangwonName": "서래마을카페거리(서래마을)", "gu": "서초구", "lat": 37.498079728383495, "lon": 126.99807752566676, "survivalProbability": 0.7131, "monthlyEstimateKRW": 1226749530, "salesPercentile": 89.5}, {"sangwonCode": 3111007, "sangwonName": "석촌고분역 4번", "gu": "송파구", "lat": 37.499943567584296, "lon": 127.09387561308928, "survivalProbability": 0.7131, "monthlyEstimateKRW": 229581332, "salesPercentile": 48.0}, {"sangwonCode": 3110403, "sangwonName": "방학1동주민센터", "gu": "도봉구", "lat": 37.66485586862868, "lon": 127.0400880977698, "survivalProbability": 0.7131, "monthlyEstimateKRW": 96109981, "salesPercentile": 8.6}, {"sangwonCode": 3130070, "sangwonName": "뚝섬역상점가", "gu": "성동구", "lat": 37.548444588661376, "lon": 127.04910132457829, "survivalProbability": 0.7131, "monthlyEstimateKRW": 463893282, "salesPercentile": 68.2}, {"sangwonCode": 3110650, "sangwonName": "우장산힐스테이트", "gu": "강서구", "lat": 37.55510210039808, "lon": 126.83869481098496, "survivalProbability": 0.7131, "monthlyEstimateKRW": 508283446, "salesPercentile": 69.9}, {"sangwonCode": 3110187, "sangwonName": "제기동역 6번", "gu": "동대문구", "lat": 37.576083873726574, "lon": 127.03255763774018, "survivalProbability": 0.7131, "monthlyEstimateKRW": 96613602, "salesPercentile": 9.3}, {"sangwonCode": 3110749, "sangwonName": "금산초등학교(금천고등학교)", "gu": "금천구", "lat": 37.44205287827401, "lon": 126.90514583518677, "survivalProbability": 0.7131, "monthlyEstimateKRW": 278788210, "salesPercentile": 56.5}, {"sangwonCode": 3110186, "sangwonName": "종암초등학교", "gu": "동대문구", "lat": 37.58187782946985, "lon": 127.03044307101194, "survivalProbability": 0.7131, "monthlyEstimateKRW": 289977126, "salesPercentile": 56.9}, {"sangwonCode": 3120164, "sangwonName": "내방역", "gu": "서초구", "lat": 37.48818651312079, "lon": 126.9936227499084, "survivalProbability": 0.7131, "monthlyEstimateKRW": 948116989, "salesPercentile": 84.1}, {"sangwonCode": 3130072, "sangwonName": "성동용답상가시장", "gu": "성동구", "lat": 37.56397605579394, "lon": 127.05309567240342, "survivalProbability": 0.7131, "monthlyEstimateKRW": 117017483, "salesPercentile": 18.4}, {"sangwonCode": 3111006, "sangwonName": "석촌고분역 1번", "gu": "송파구", "lat": 37.50490803067036, "lon": 127.09397230648412, "survivalProbability": 0.7131, "monthlyEstimateKRW": 915878920, "salesPercentile": 82.9}, {"sangwonCode": 3110404, "sangwonName": "신창초등학교", "gu": "도봉구", "lat": 37.63624951166753, "lon": 127.04051457750556, "survivalProbability": 0.7131, "monthlyEstimateKRW": 190367115, "salesPercentile": 41.5}, {"sangwonCode": 3120163, "sangwonName": "사당역 11번(사당역먹자골목)", "gu": "서초구", "lat": 37.47941000949856, "lon": 126.98581114766932, "survivalProbability": 0.7131, "monthlyEstimateKRW": 668736227, "salesPercentile": 73.7}, {"sangwonCode": 3110649, "sangwonName": "우장산역 1번", "gu": "강서구", "lat": 37.55298352357683, "lon": 126.83779402108571, "survivalProbability": 0.7131, "monthlyEstimateKRW": 1255631168, "salesPercentile": 90.2}, {"sangwonCode": 3120162, "sangwonName": "방배동카페골목", "gu": "서초구", "lat": 37.495754294560726, "lon": 126.98580805606072, "survivalProbability": 0.7131, "monthlyEstimateKRW": 744386198, "salesPercentile": 77.5}, {"sangwonCode": 3110750, "sangwonName": "시흥4동주민센터(서울신흥초등학교)", "gu": "금천구", "lat": 37.45774067716475, "lon": 126.90659536161563, "survivalProbability": 0.7131, "monthlyEstimateKRW": 120498939, "salesPercentile": 20.1}, {"sangwonCode": 3111005, "sangwonName": "삼전역 3번", "gu": "송파구", "lat": 37.501461266767535, "lon": 127.08868660012052, "survivalProbability": 0.7131, "monthlyEstimateKRW": 610571107, "salesPercentile": 72.1}, {"sangwonCode": 3110405, "sangwonName": "방학역 1번", "gu": "도봉구", "lat": 37.66914421552273, "lon": 127.04101983972981, "survivalProbability": 0.7131, "monthlyEstimateKRW": 341844761, "salesPercentile": 61.3}, {"sangwonCode": 3110751, "sangwonName": "난곡중학교", "gu": "금천구", "lat": 37.478094765834626, "lon": 126.90692050938276, "survivalProbability": 0.7131, "monthlyEstimateKRW": 118658001, "salesPercentile": 19.4}, {"sangwonCode": 3120160, "sangwonName": "사당역(사당)", "gu": "서초구", "lat": 37.47752639125283, "lon": 126.98206935862181, "survivalProbability": 0.7131, "monthlyEstimateKRW": 760326220, "salesPercentile": 78.4}, {"sangwonCode": 3110176, "sangwonName": "해오름공원", "gu": "광진구", "lat": 37.557816247579865, "lon": 127.09214865556346, "survivalProbability": 0.7131, "monthlyEstimateKRW": 336808585, "salesPercentile": 60.9}, {"sangwonCode": 3111004, "sangwonName": "삼전역 1번", "gu": "송파구", "lat": 37.50671672745682, "lon": 127.08515279573975, "survivalProbability": 0.7131, "monthlyEstimateKRW": 1040863706, "salesPercentile": 86.1}, {"sangwonCode": 3110647, "sangwonName": "화곡역 5번", "gu": "강서구", "lat": 37.5386573219103, "lon": 126.8375535045462, "survivalProbability": 0.7131, "monthlyEstimateKRW": 218811282, "salesPercentile": 45.6}, {"sangwonCode": 3110752, "sangwonName": "한울중학교", "gu": "금천구", "lat": 37.46170696090743, "lon": 126.90894149141734, "survivalProbability": 0.7131, "monthlyEstimateKRW": 193883264, "salesPercentile": 41.8}, {"sangwonCode": 3110174, "sangwonName": "아차산역 1번", "gu": "광진구", "lat": 37.55541144781092, "lon": 127.0910365963174, "survivalProbability": 0.7131, "monthlyEstimateKRW": 258642904, "salesPercentile": 53.8}, {"sangwonCode": 3120159, "sangwonName": "서울대입구역", "gu": "관악구", "lat": 37.48095081268923, "lon": 126.95191519812431, "survivalProbability": 0.7131, "monthlyEstimateKRW": 979352302, "salesPercentile": 85.1}, {"sangwonCode": 3130086, "sangwonName": "서울약령시장", "gu": "동대문구", "lat": 37.58210104091711, "lon": 127.0375190174434, "survivalProbability": 0.7131, "monthlyEstimateKRW": 90629192, "salesPercentile": 0.9}, {"sangwonCode": 3110408, "sangwonName": "가인초등학교", "gu": "도봉구", "lat": 37.65879177963506, "lon": 127.04149012943236, "survivalProbability": 0.7131, "monthlyEstimateKRW": 312520571, "salesPercentile": 58.4}, {"sangwonCode": 3110173, "sangwonName": "구남초등학교", "gu": "광진구", "lat": 37.53546343842295, "lon": 127.09089919867607, "survivalProbability": 0.7131, "monthlyEstimateKRW": 168044835, "salesPercentile": 38.8}, {"sangwonCode": 3110172, "sangwonName": "광진초등학교", "gu": "광진구", "lat": 37.5470873761971, "lon": 127.08953275126271, "survivalProbability": 0.7131, "monthlyEstimateKRW": 123313571, "salesPercentile": 21.5}, {"sangwonCode": 3110409, "sangwonName": "창동역 2번", "gu": "도봉구", "lat": 37.65508805919096, "lon": 127.0433919186031, "survivalProbability": 0.7131, "monthlyEstimateKRW": 696140168, "salesPercentile": 75.2}, {"sangwonCode": 3120158, "sangwonName": "녹두거리(대학동)", "gu": "관악구", "lat": 37.47031189276306, "lon": 126.93701139594275, "survivalProbability": 0.7131, "monthlyEstimateKRW": 902785461, "salesPercentile": 82.2}, {"sangwonCode": 3110646, "sangwonName": "푸른들청소년도서관", "gu": "강서구", "lat": 37.54405127997964, "lon": 126.83536920594427, "survivalProbability": 0.7131, "monthlyEstimateKRW": 600329536, "salesPercentile": 71.5}, {"sangwonCode": 3111003, "sangwonName": "삼전역 4번", "gu": "송파구", "lat": 37.504276899620265, "lon": 127.0824809580479, "survivalProbability": 0.7131, "monthlyEstimateKRW": 793040065, "salesPercentile": 79.4}, {"sangwonCode": 3110410, "sangwonName": "방학역 2번", "gu": "도봉구", "lat": 37.66910685916636, "lon": 127.04464688230316, "survivalProbability": 0.7131, "monthlyEstimateKRW": 231867197, "salesPercentile": 48.9}, {"sangwonCode": 3110168, "sangwonName": "대원고등학교", "gu": "광진구", "lat": 37.563261633023764, "lon": 127.0877298231472, "survivalProbability": 0.7131, "monthlyEstimateKRW": 349995516, "salesPercentile": 61.9}, {"sangwonCode": 3130098, "sangwonName": "회기시장", "gu": "동대문구", "lat": 37.59108583569478, "lon": 127.05556063508617, "survivalProbability": 0.7131, "monthlyEstimateKRW": 153497699, "salesPercentile": 35.0}, {"sangwonCode": 3130099, "sangwonName": "전농로터리시장", "gu": "동대문구", "lat": 37.57771453733629, "lon": 127.05673937211033, "survivalProbability": 0.7131, "monthlyEstimateKRW": 124499804, "salesPercentile": 22.2}, {"sangwonCode": 3120156, "sangwonName": "총신대입구역(이수, 총신대)", "gu": "동작구", "lat": 37.48599581916168, "lon": 126.98170551541705, "survivalProbability": 0.7131, "monthlyEstimateKRW": 886969840, "salesPercentile": 81.9}, {"sangwonCode": 3110415, "sangwonName": "수락산역 4번", "gu": "노원구", "lat": 37.67578860179999, "lon": 127.05315257704137, "survivalProbability": 0.7131, "monthlyEstimateKRW": 231349443, "salesPercentile": 48.5}, {"sangwonCode": 3110755, "sangwonName": "동일여자고등학교", "gu": "금천구", "lat": 37.45088873344512, "lon": 126.91283104206283, "survivalProbability": 0.7131, "monthlyEstimateKRW": 382585070, "salesPercentile": 64.2}, {"sangwonCode": 3110166, "sangwonName": "구의1동주민센터", "gu": "광진구", "lat": 37.54099058656442, "lon": 127.08551989838477, "survivalProbability": 0.7131, "monthlyEstimateKRW": 326473131, "salesPercentile": 59.7}, {"sangwonCode": 3120155, "sangwonName": "총신대학교", "gu": "동작구", "lat": 37.488541763695316, "lon": 126.96452920576121, "survivalProbability": 0.7131, "monthlyEstimateKRW": 133022411, "salesPercentile": 29.5}, {"sangwonCode": 3110645, "sangwonName": "우장산역 4번", "gu": "강서구", "lat": 37.55222974420196, "lon": 126.83351789025177, "survivalProbability": 0.7131, "monthlyEstimateKRW": 1731790790, "salesPercentile": 96.2}, {"sangwonCode": 3120154, "sangwonName": "장승배기역", "gu": "동작구", "lat": 37.5044258725142, "lon": 126.94052266021389, "survivalProbability": 0.7131, "monthlyEstimateKRW": 440887556, "salesPercentile": 67.3}, {"sangwonCode": 3110416, "sangwonName": "노원초등학교", "gu": "노원구", "lat": 37.67269635062584, "lon": 127.05719700834393, "survivalProbability": 0.7131, "monthlyEstimateKRW": 100161433, "salesPercentile": 12.3}, {"sangwonCode": 3110165, "sangwonName": "국립정신건강센터", "gu": "광진구", "lat": 37.56214586200675, "lon": 127.08573648594626, "survivalProbability": 0.7131, "monthlyEstimateKRW": 411883127, "salesPercentile": 64.8}, {"sangwonCode": 3110997, "sangwonName": "대청초등학교", "gu": "강남구", "lat": 37.491544188739695, "lon": 127.08459279952699, "survivalProbability": 0.7131, "monthlyEstimateKRW": 714241501, "salesPercentile": 75.6}, {"sangwonCode": 3120153, "sangwonName": "노량진역(노량진)", "gu": "동작구", "lat": 37.51400342189709, "lon": 126.94026621686946, "survivalProbability": 0.7131, "monthlyEstimateKRW": 1160497560, "salesPercentile": 87.7}, {"sangwonCode": 3110757, "sangwonName": "양평역 2번", "gu": "영등포구", "lat": 37.52482776865417, "lon": 126.88411263138504, "survivalProbability": 0.7131, "monthlyEstimateKRW": 132074739, "salesPercentile": 29.3}, {"sangwonCode": 3110163, "sangwonName": "성자초등학교", "gu": "광진구", "lat": 37.53069298250582, "lon": 127.08436546700541, "survivalProbability": 0.7131, "monthlyEstimateKRW": 359057718, "salesPercentile": 63.4}, {"sangwonCode": 3110418, "sangwonName": "광운대학교 남단", "gu": "노원구", "lat": 37.61777199035563, "lon": 127.05799308954444, "survivalProbability": 0.7131, "monthlyEstimateKRW": 101528678, "salesPercentile": 13.1}, {"sangwonCode": 3130110, "sangwonName": "면목골목시장(면목시장)", "gu": "중랑구", "lat": 37.57866134278171, "lon": 127.08540447332199, "survivalProbability": 0.7131, "monthlyEstimateKRW": 109281860, "salesPercentile": 14.7}, {"sangwonCode": 3110162, "sangwonName": "군자역 4번", "gu": "광진구", "lat": 37.55806645047751, "lon": 127.08278920214391, "survivalProbability": 0.7131, "monthlyEstimateKRW": 630805667, "salesPercentile": 72.7}, {"sangwonCode": 3120152, "sangwonName": "신대방삼거리역", "gu": "동작구", "lat": 37.49943591770157, "lon": 126.92730654329986, "survivalProbability": 0.7131, "monthlyEstimateKRW": 1653114688, "salesPercentile": 95.3}, {"sangwonCode": 3110996, "sangwonName": "대치2동주민센터", "gu": "강남구", "lat": 37.50186467208032, "lon": 127.06396507703604, "survivalProbability": 0.7131, "monthlyEstimateKRW": 1995827452, "salesPercentile": 98.7}, {"sangwonCode": 3120151, "sangwonName": "보라매공원", "gu": "동작구", "lat": 37.49122632464743, "lon": 126.92503035748912, "survivalProbability": 0.7131, "monthlyEstimateKRW": 433203030, "salesPercentile": 66.9}, {"sangwonCode": 3110994, "sangwonName": "개포고등학교", "gu": "강남구", "lat": 37.48338636262938, "lon": 127.06142798105036, "survivalProbability": 0.7131, "monthlyEstimateKRW": 1512838487, "salesPercentile": 94.0}, {"sangwonCode": 3110759, "sangwonName": "문래예술촌(문래창작촌)", "gu": "영등포구", "lat": 37.51476153758128, "lon": 126.89145784534162, "survivalProbability": 0.7131, "monthlyEstimateKRW": 218432364, "salesPercentile": 45.1}, {"sangwonCode": 3110421, "sangwonName": "석계역 1번", "gu": "노원구", "lat": 37.615823223737245, "lon": 127.06312247081314, "survivalProbability": 0.7131, "monthlyEstimateKRW": 128762680, "salesPercentile": 28.0}, {"sangwonCode": 3110159, "sangwonName": "구의역 4번", "gu": "광진구", "lat": 37.534966184561476, "lon": 127.0808515528512, "survivalProbability": 0.7131, "monthlyEstimateKRW": 114711118, "salesPercentile": 16.1}, {"sangwonCode": 3130113, "sangwonName": "신아타운", "gu": "중랑구", "lat": 37.60640493075793, "lon": 127.09453019739227, "survivalProbability": 0.7131, "monthlyEstimateKRW": 1440939713, "salesPercentile": 92.6}, {"sangwonCode": 3110992, "sangwonName": "도곡초등학교", "gu": "강남구", "lat": 37.50003036704142, "lon": 127.05662399395345, "survivalProbability": 0.7131, "monthlyEstimateKRW": 1693104921, "salesPercentile": 95.6}, {"sangwonCode": 3110422, "sangwonName": "노원역 9번", "gu": "노원구", "lat": 37.65916053762221, "lon": 127.06323847595549, "survivalProbability": 0.7131, "monthlyEstimateKRW": 122406233, "salesPercentile": 21.0}, {"sangwonCode": 3120149, "sangwonName": "여의도역(여의도)", "gu": "영등포구", "lat": 37.5226811750762, "lon": 126.92625456940182, "survivalProbability": 0.7131, "monthlyEstimateKRW": 1700414270, "salesPercentile": 95.8}, {"sangwonCode": 3110158, "sangwonName": "중곡3동주민센터", "gu": "광진구", "lat": 37.56872649117577, "lon": 127.08097858537985, "survivalProbability": 0.7131, "monthlyEstimateKRW": 96613602, "salesPercentile": 9.3}, {"sangwonCode": 3110989, "sangwonName": "대치동아우편취급국", "gu": "강남구", "lat": 37.502878544358616, "lon": 127.05449997860173, "survivalProbability": 0.7131, "monthlyEstimateKRW": 233995960, "salesPercentile": 50.5}, {"sangwonCode": 3120148, "sangwonName": "국회의사당역(국회의사당)", "gu": "영등포구", "lat": 37.528552135513465, "lon": 126.92073922815948, "survivalProbability": 0.7131, "monthlyEstimateKRW": 455270933, "salesPercentile": 67.7}, {"sangwonCode": 3110425, "sangwonName": "계상초등학교", "gu": "노원구", "lat": 37.661320204941866, "lon": 127.06806833085822, "survivalProbability": 0.7131, "monthlyEstimateKRW": 352070125, "salesPercentile": 62.3}, {"sangwonCode": 3110157, "sangwonName": "자양동우체국", "gu": "광진구", "lat": 37.52999274825613, "lon": 127.08072173589979, "survivalProbability": 0.7131, "monthlyEstimateKRW": 328196474, "salesPercentile": 60.1}, {"sangwonCode": 3110638, "sangwonName": "신방화역 2번", "gu": "강서구", "lat": 37.56875208070871, "lon": 126.81411374137508, "survivalProbability": 0.7131, "monthlyEstimateKRW": 518627022, "salesPercentile": 70.5}, {"sangwonCode": 3120147, "sangwonName": "보라매역", "gu": "동작구", "lat": 37.49934180334875, "lon": 126.92105283479724, "survivalProbability": 0.7131, "monthlyEstimateKRW": 439316789, "salesPercentile": 67.2}, {"sangwonCode": 3110156, "sangwonName": "군자역 5번", "gu": "광진구", "lat": 37.55374327045005, "lon": 127.08046441912305, "survivalProbability": 0.7131, "monthlyEstimateKRW": 97290836, "salesPercentile": 10.2}, {"sangwonCode": 3110762, "sangwonName": "선유도역 1번", "gu": "영등포구", "lat": 37.54030612628488, "lon": 126.89276731629242, "survivalProbability": 0.7131, "monthlyEstimateKRW": 610084360, "salesPercentile": 72.0}, {"sangwonCode": 3110984, "sangwonName": "포이초등학교(개포목련어린이공원)", "gu": "강남구", "lat": 37.473804098067625, "lon": 127.05211611260901, "survivalProbability": 0.7131, "monthlyEstimateKRW": 950215501, "salesPercentile": 84.2}, {"sangwonCode": 3130126, "sangwonName": "새석관시장", "gu": "성북구", "lat": 37.60830501690517, "lon": 127.05284403459633, "survivalProbability": 0.7131, "monthlyEstimateKRW": 143939239, "salesPercentile": 31.7}, {"sangwonCode": 3110428, "sangwonName": "상계5동주민센터", "gu": "노원구", "lat": 37.66417450773257, "lon": 127.07113106886153, "survivalProbability": 0.7131, "monthlyEstimateKRW": 229314963, "salesPercentile": 47.9}, {"sangwonCode": 3110982, "sangwonName": "강남구보훈회관", "gu": "강남구", "lat": 37.515026175047964, "lon": 127.04976940660319, "survivalProbability": 0.7131, "monthlyEstimateKRW": 370145396, "salesPercentile": 63.6}, {"sangwonCode": 3120038, "sangwonName": "약수역", "gu": "중구", "lat": 37.554283830627085, "lon": 127.0100270036947, "survivalProbability": 0.7131, "monthlyEstimateKRW": 448084290, "salesPercentile": 67.4}, {"sangwonCode": 3110154, "sangwonName": "광진정말공원", "gu": "광진구", "lat": 37.53307535534298, "lon": 127.07897139566221, "survivalProbability": 0.7131, "monthlyEstimateKRW": 219713362, "salesPercentile": 46.3}, {"sangwonCode": 3110981, "sangwonName": "국악고교사거리", "gu": "강남구", "lat": 37.475598470393415, "lon": 127.04892926875071, "survivalProbability": 0.7131, "monthlyEstimateKRW": 159707140, "salesPercentile": 37.7}, {"sangwonCode": 3130133, "sangwonName": "우이골목시장(우이시장)", "gu": "강북구", "lat": 37.64641790449734, "lon": 127.0198407987359, "survivalProbability": 0.7131, "monthlyEstimateKRW": 107543288, "salesPercentile": 14.5}, {"sangwonCode": 3110429, "sangwonName": "공릉동 국수거리", "gu": "노원구", "lat": 37.62103417354386, "lon": 127.07311752729491, "survivalProbability": 0.7131, "monthlyEstimateKRW": 215100282, "salesPercentile": 44.2}, {"sangwonCode": 3110152, "sangwonName": "중곡어린이공원", "gu": "광진구", "lat": 37.56488120178216, "lon": 127.07806550149179, "survivalProbability": 0.7131, "monthlyEstimateKRW": 146396854, "salesPercentile": 32.8}, {"sangwonCode": 3110636, "sangwonName": "방화역 2번", "gu": "강서구", "lat": 37.57418328295361, "lon": 126.81297954691757, "survivalProbability": 0.7131, "monthlyEstimateKRW": 156476695, "salesPercentile": 36.5}, {"sangwonCode": 3120144, "sangwonName": "영중로", "gu": "영등포구", "lat": 37.527089960245775, "lon": 126.9050608920636, "survivalProbability": 0.7131, "monthlyEstimateKRW": 102516365, "salesPercentile": 13.7}, {"sangwonCode": 3130134, "sangwonName": "솔샘시장(미아6,7동골목시장)", "gu": "강북구", "lat": 37.619424392767016, "lon": 127.0197090259674, "survivalProbability": 0.7131, "monthlyEstimateKRW": 126580104, "salesPercentile": 25.3}, {"sangwonCode": 3110151, "sangwonName": "자양한강도서관", "gu": "광진구", "lat": 37.531139452835596, "lon": 127.07707997341757, "survivalProbability": 0.7131, "monthlyEstimateKRW": 308895913, "salesPercentile": 58.1}, {"sangwonCode": 3110430, "sangwonName": "중계초등학교", "gu": "노원구", "lat": 37.65738803037677, "lon": 127.07451309787947, "survivalProbability": 0.7131, "monthlyEstimateKRW": 709309041, "salesPercentile": 75.5}, {"sangwonCode": 3110973, "sangwonName": "강남구청역 4번", "gu": "강남구", "lat": 37.518821856356446, "lon": 127.04355043686776, "survivalProbability": 0.7131, "monthlyEstimateKRW": 637369228, "salesPercentile": 73.1}, {"sangwonCode": 3120142, "sangwonName": "대림역", "gu": "영등포구", "lat": 37.494062057605184, "lon": 126.89775247469098, "survivalProbability": 0.7131, "monthlyEstimateKRW": 93599461, "salesPercentile": 5.3}, {"sangwonCode": 3110634, "sangwonName": "송정역 3번", "gu": "강서구", "lat": 37.557416444538866, "lon": 126.81340625888835, "survivalProbability": 0.7131, "monthlyEstimateKRW": 219309834, "salesPercentile": 46.0}, {"sangwonCode": 3110147, "sangwonName": "능동우편취급국", "gu": "광진구", "lat": 37.55618033078989, "lon": 127.07377843003759, "survivalProbability": 0.7131, "monthlyEstimateKRW": 96011517, "salesPercentile": 8.5}, {"sangwonCode": 3110970, "sangwonName": "학동초등학교", "gu": "강남구", "lat": 37.51156961384925, "lon": 127.04121621721019, "survivalProbability": 0.7131, "monthlyEstimateKRW": 165430038, "salesPercentile": 38.5}, {"sangwonCode": 3130141, "sangwonName": "강북북부골목시장", "gu": "강북구", "lat": 37.635739123584685, "lon": 127.0298758979746, "survivalProbability": 0.7131, "monthlyEstimateKRW": 126558294, "salesPercentile": 25.1}, {"sangwonCode": 3110146, "sangwonName": "신자초등학교", "gu": "광진구", "lat": 37.531520314025855, "lon": 127.07324501528619, "survivalProbability": 0.7131, "monthlyEstimateKRW": 840930432, "salesPercentile": 80.7}, {"sangwonCode": 3110143, "sangwonName": "뚝섬유원지역 1번", "gu": "광진구", "lat": 37.53387472420694, "lon": 127.06858591973413, "survivalProbability": 0.7131, "monthlyEstimateKRW": 124698677, "salesPercentile": 22.4}, {"sangwonCode": 3120139, "sangwonName": "대림3동사거리", "gu": "영등포구", "lat": 37.50016185253768, "lon": 126.89773284883364, "survivalProbability": 0.7131, "monthlyEstimateKRW": 929366626, "salesPercentile": 83.4}, {"sangwonCode": 3110437, "sangwonName": "당고개역 2번", "gu": "노원구", "lat": 37.667278815856335, "lon": 127.07759457818734, "survivalProbability": 0.7131, "monthlyEstimateKRW": 92519934, "salesPercentile": 3.1}, {"sangwonCode": 3120138, "sangwonName": "당산2동(영등포우체국)", "gu": "영등포구", "lat": 37.529597277291366, "lon": 126.89731933174514, "survivalProbability": 0.7131, "monthlyEstimateKRW": 451002771, "salesPercentile": 67.6}, {"sangwonCode": 3110631, "sangwonName": "방화초등학교", "gu": "강서구", "lat": 37.56903380193178, "lon": 126.80997014983072, "survivalProbability": 0.7131, "monthlyEstimateKRW": 234474920, "salesPercentile": 50.8}, {"sangwonCode": 3120041, "sangwonName": "신용산역(용산역)", "gu": "용산구", "lat": 37.52899651132542, "lon": 126.96333347099194, "survivalProbability": 0.7131, "monthlyEstimateKRW": 770889304, "salesPercentile": 78.5}, {"sangwonCode": 3110438, "sangwonName": "경춘선숲길 우측", "gu": "노원구", "lat": 37.625932128128525, "lon": 127.07843516211, "survivalProbability": 0.7131, "monthlyEstimateKRW": 200068999, "salesPercentile": 42.3}, {"sangwonCode": 3110774, "sangwonName": "당산반도유보라팰리스아파트", "gu": "영등포구", "lat": 37.52837403542412, "lon": 126.89978729477909, "survivalProbability": 0.7131, "monthlyEstimateKRW": 268989197, "salesPercentile": 55.6}, {"sangwonCode": 3110140, "sangwonName": "건대입구역 6번", "gu": "광진구", "lat": 37.538597604470354, "lon": 127.06570497470408, "survivalProbability": 0.7131, "monthlyEstimateKRW": 93586043, "salesPercentile": 5.1}, {"sangwonCode": 3130149, "sangwonName": "창동신창시장", "gu": "도봉구", "lat": 37.6397193964298, "lon": 127.03719674055571, "survivalProbability": 0.7131, "monthlyEstimateKRW": 122099147, "salesPercentile": 20.7}, {"sangwonCode": 3110139, "sangwonName": "자양4동주민센터", "gu": "광진구", "lat": 37.53512096389572, "lon": 127.06347301482698, "survivalProbability": 0.7131, "monthlyEstimateKRW": 96613602, "salesPercentile": 9.3}, {"sangwonCode": 3120135, "sangwonName": "양평역", "gu": "영등포구", "lat": 37.52540900747815, "lon": 126.88889704279723, "survivalProbability": 0.7131, "monthlyEstimateKRW": 143896218, "salesPercentile": 31.5}, {"sangwonCode": 3110441, "sangwonName": "영신여고", "gu": "노원구", "lat": 37.650445067206704, "lon": 127.08261968164804, "survivalProbability": 0.7131, "monthlyEstimateKRW": 676080605, "salesPercentile": 74.0}, {"sangwonCode": 3120134, "sangwonName": "구로전화국", "gu": "금천구", "lat": 37.47993162827735, "lon": 126.9054145419079, "survivalProbability": 0.7131, "monthlyEstimateKRW": 103462918, "salesPercentile": 14.0}, {"sangwonCode": 3110138, "sangwonName": "송정체육공원", "gu": "성동구", "lat": 37.550787295336974, "lon": 127.06717551903371, "survivalProbability": 0.7131, "monthlyEstimateKRW": 115868600, "salesPercentile": 17.1}, {"sangwonCode": 3110442, "sangwonName": "화랑대철도공원", "gu": "노원구", "lat": 37.62434716517718, "lon": 127.08997649461074, "survivalProbability": 0.7131, "monthlyEstimateKRW": 129146312, "salesPercentile": 28.5}, {"sangwonCode": 3130153, "sangwonName": "창동역상점가", "gu": "도봉구", "lat": 37.65291437249457, "lon": 127.04929468332354, "survivalProbability": 0.7131, "monthlyEstimateKRW": 131632667, "salesPercentile": 29.2}, {"sangwonCode": 3110776, "sangwonName": "도신초등학교", "gu": "영등포구", "lat": 37.49754391638084, "lon": 126.90245209989303, "survivalProbability": 0.7131, "monthlyEstimateKRW": 96919130, "salesPercentile": 9.6}, {"sangwonCode": 3110446, "sangwonName": "내를건너서숲으로도서관", "gu": "은평구", "lat": 37.59086414192362, "lon": 126.90710860708315, "survivalProbability": 0.7131, "monthlyEstimateKRW": 144874032, "salesPercentile": 32.1}, {"sangwonCode": 3130154, "sangwonName": "상계주공1단지(가)상가", "gu": "노원구", "lat": 37.6469091307803, "lon": 127.05947746098052, "survivalProbability": 0.7131, "monthlyEstimateKRW": 411335662, "salesPercentile": 64.7}, {"sangwonCode": 3110955, "sangwonName": "논현초등학교", "gu": "강남구", "lat": 37.508996262830124, "lon": 127.02944076055603, "survivalProbability": 0.7131, "monthlyEstimateKRW": 116571998, "salesPercentile": 17.4}, {"sangwonCode": 3110447, "sangwonName": "구산초등학교", "gu": "은평구", "lat": 37.61352413877604, "lon": 126.90722766750562, "survivalProbability": 0.7131, "monthlyEstimateKRW": 109117855, "salesPercentile": 14.6}, {"sangwonCode": 3110448, "sangwonName": "상신초등학교입구", "gu": "은평구", "lat": 37.596441345078325, "lon": 126.90719226269528, "survivalProbability": 0.7131, "monthlyEstimateKRW": 125214862, "salesPercentile": 23.2}, {"sangwonCode": 3120133, "sangwonName": "서울시흥동우체국(홈플러스시흥점)", "gu": "금천구", "lat": 37.45251953006894, "lon": 126.90132391118351, "survivalProbability": 0.7131, "monthlyEstimateKRW": 421519374, "salesPercentile": 65.5}, {"sangwonCode": 3110627, "sangwonName": "신정롯데캐슬아파트", "gu": "양천구", "lat": 37.519996696799005, "lon": 126.87366784052162, "survivalProbability": 0.7131, "monthlyEstimateKRW": 716223993, "salesPercentile": 75.8}, {"sangwonCode": 3110137, "sangwonName": "성수초등학교", "gu": "성동구", "lat": 37.54616776510738, "lon": 127.06245263029955, "survivalProbability": 0.7131, "monthlyEstimateKRW": 204609207, "salesPercentile": 42.6}, {"sangwonCode": 3110449, "sangwonName": "증산역 3번", "gu": "은평구", "lat": 37.5834218710177, "lon": 126.90701596105264, "survivalProbability": 0.7131, "monthlyEstimateKRW": 700425221, "salesPercentile": 75.3}, {"sangwonCode": 3110951, "sangwonName": "신사은행나무공원", "gu": "강남구", "lat": 37.520746311113015, "lon": 127.02530515090473, "survivalProbability": 0.7131, "monthlyEstimateKRW": 175385108, "salesPercentile": 39.6}, {"sangwonCode": 3110778, "sangwonName": "구로디지털단지역 4번", "gu": "영등포구", "lat": 37.48862394889115, "lon": 126.90245239287532, "survivalProbability": 0.7131, "monthlyEstimateKRW": 95881208, "salesPercentile": 8.0}, {"sangwonCode": 3130161, "sangwonName": "증산종합시장", "gu": "은평구", "lat": 37.58169056142214, "lon": 126.90525199100244, "survivalProbability": 0.7131, "monthlyEstimateKRW": 128640276, "salesPercentile": 27.9}, {"sangwonCode": 3110450, "sangwonName": "시립서북병원", "gu": "은평구", "lat": 37.60544380707197, "lon": 126.90920823667845, "survivalProbability": 0.7131, "monthlyEstimateKRW": 560562672, "salesPercentile": 71.2}, {"sangwonCode": 3110626, "sangwonName": "양화초등학교", "gu": "양천구", "lat": 37.54452164704416, "lon": 126.87340015358663, "survivalProbability": 0.7131, "monthlyEstimateKRW": 330526390, "salesPercentile": 60.3}, {"sangwonCode": 3110134, "sangwonName": "성수119안전센터", "gu": "성동구", "lat": 37.536070183843606, "lon": 127.05727352526394, "survivalProbability": 0.7131, "monthlyEstimateKRW": 94306636, "salesPercentile": 6.6}, {"sangwonCode": 3110943, "sangwonName": "법제교육센터(버들어린이공원)", "gu": "서초구", "lat": 37.47347311339665, "lon": 127.0463842665295, "survivalProbability": 0.7131, "monthlyEstimateKRW": 258914010, "salesPercentile": 54.0}, {"sangwonCode": 3110780, "sangwonName": "신길대성유니드아파트", "gu": "영등포구", "lat": 37.50210357784792, "lon": 126.90314734322918, "survivalProbability": 0.7131, "monthlyEstimateKRW": 130819510, "salesPercentile": 28.8}, {"sangwonCode": 3120131, "sangwonName": "가산디지털단지", "gu": "금천구", "lat": 37.47710029831843, "lon": 126.88288623812605, "survivalProbability": 0.7131, "monthlyEstimateKRW": 1458345277, "salesPercentile": 93.0}, {"sangwonCode": 3130167, "sangwonName": "연신내상점가(연빛거리)", "gu": "은평구", "lat": 37.620010847855006, "lon": 126.91890918747656, "survivalProbability": 0.7131, "monthlyEstimateKRW": 429396971, "salesPercentile": 66.4}, {"sangwonCode": 3110452, "sangwonName": "새절역 3번", "gu": "은평구", "lat": 37.59016549565589, "lon": 126.91251034948718, "survivalProbability": 0.7131, "monthlyEstimateKRW": 152190414, "salesPercentile": 34.5}, {"sangwonCode": 3110625, "sangwonName": "신정2동주민센터", "gu": "양천구", "lat": 37.518444828950926, "lon": 126.87167959095326, "survivalProbability": 0.7131, "monthlyEstimateKRW": 1042741668, "salesPercentile": 86.3}, {"sangwonCode": 3110453, "sangwonName": "신사1동주민센터", "gu": "은평구", "lat": 37.59576090018161, "lon": 126.91284350185038, "survivalProbability": 0.7131, "monthlyEstimateKRW": 257114358, "salesPercentile": 53.0}, {"sangwonCode": 3110941, "sangwonName": "언남고등학교", "gu": "서초구", "lat": 37.473790159444405, "lon": 127.04185115304308, "survivalProbability": 0.7131, "monthlyEstimateKRW": 126641763, "salesPercentile": 25.4}, {"sangwonCode": 3110454, "sangwonName": "선정중학교", "gu": "은평구", "lat": 37.61729449862414, "lon": 126.91277306605426, "survivalProbability": 0.7131, "monthlyEstimateKRW": 187586088, "salesPercentile": 40.4}, {"sangwonCode": 3110128, "sangwonName": "성원중학교", "gu": "성동구", "lat": 37.53816384184272, "lon": 127.04992055728603, "survivalProbability": 0.7131, "monthlyEstimateKRW": 254615786, "salesPercentile": 51.8}, {"sangwonCode": 3110939, "sangwonName": "양재역 8번(양재동우체국)", "gu": "서초구", "lat": 37.482044176111465, "lon": 127.03961711792392, "survivalProbability": 0.7131, "monthlyEstimateKRW": 254438559, "salesPercentile": 51.7}, {"sangwonCode": 3120129, "sangwonName": "구로디지털단지", "gu": "구로구", "lat": 37.48404057803035, "lon": 126.89515431983698, "survivalProbability": 0.7131, "monthlyEstimateKRW": 1455462674, "salesPercentile": 92.8}, {"sangwonCode": 3110455, "sangwonName": "역촌노인복지관", "gu": "은평구", "lat": 37.60345508523692, "lon": 126.91247213883027, "survivalProbability": 0.7131, "monthlyEstimateKRW": 328140416, "salesPercentile": 60.0}, {"sangwonCode": 3130171, "sangwonName": "불광먹자골목 골목형상점가", "gu": "은평구", "lat": 37.61042307337391, "lon": 126.9311060072656, "survivalProbability": 0.7131, "monthlyEstimateKRW": 127437951, "salesPercentile": 27.2}, {"sangwonCode": 3110622, "sangwonName": "달마을공원", "gu": "양천구", "lat": 37.545319284332244, "lon": 126.8694948546841, "survivalProbability": 0.7131, "monthlyEstimateKRW": 113771494, "salesPercentile": 15.6}, {"sangwonCode": 3110785, "sangwonName": "영등포푸르지오아파트", "gu": "영등포구", "lat": 37.5091772342772, "lon": 126.90408827327902, "survivalProbability": 0.7131, "monthlyEstimateKRW": 216772998, "salesPercentile": 44.4}, {"sangwonCode": 3110456, "sangwonName": "구산보건지소", "gu": "은평구", "lat": 37.60779823704551, "lon": 126.91298801162269, "survivalProbability": 0.7131, "monthlyEstimateKRW": 319826437, "salesPercentile": 59.0}, {"sangwonCode": 3110935, "sangwonName": "한전아트센터", "gu": "서초구", "lat": 37.486336610397004, "lon": 127.02666167514542, "survivalProbability": 0.7131, "monthlyEstimateKRW": 102186585, "salesPercentile": 13.3}, {"sangwonCode": 3110457, "sangwonName": "예일여고", "gu": "은평구", "lat": 37.611717602893464, "lon": 126.91307405227352, "survivalProbability": 0.7131, "monthlyEstimateKRW": 232425283, "salesPercentile": 49.6}, {"sangwonCode": 3110621, "sangwonName": "목동역 5번", "gu": "양천구", "lat": 37.525161822788036, "lon": 126.86761812174178, "survivalProbability": 0.7131, "monthlyEstimateKRW": 1240013439, "salesPercentile": 90.1}, {"sangwonCode": 3110934, "sangwonName": "우면주공아파트", "gu": "서초구", "lat": 37.46893822662192, "lon": 127.02616941071274, "survivalProbability": 0.7131, "monthlyEstimateKRW": 883489372, "salesPercentile": 81.6}, {"sangwonCode": 3110122, "sangwonName": "마장역 2번", "gu": "성동구", "lat": 37.56782699467488, "lon": 127.04414491255056, "survivalProbability": 0.7131, "monthlyEstimateKRW": 144193230, "salesPercentile": 31.8}, {"sangwonCode": 3120047, "sangwonName": "한남오거리", "gu": "용산구", "lat": 37.53301141680184, "lon": 127.0075690290704, "survivalProbability": 0.7131, "monthlyEstimateKRW": 155249998, "salesPercentile": 35.6}, {"sangwonCode": 3120127, "sangwonName": "구로구청", "gu": "구로구", "lat": 37.49660576225669, "lon": 126.89088478047054, "survivalProbability": 0.7131, "monthlyEstimateKRW": 421434709, "salesPercentile": 65.4}, {"sangwonCode": 3110458, "sangwonName": "선일여고", "gu": "은평구", "lat": 37.62118756887732, "lon": 126.9138672649344, "survivalProbability": 0.7131, "monthlyEstimateKRW": 863191594, "salesPercentile": 81.2}, {"sangwonCode": 3130180, "sangwonName": "포방터시장", "gu": "서대문구", "lat": 37.598917445528144, "lon": 126.9488498689092, "survivalProbability": 0.7131, "monthlyEstimateKRW": 127013185, "salesPercentile": 26.1}, {"sangwonCode": 3110620, "sangwonName": "목동보건지소", "gu": "양천구", "lat": 37.539081745942845, "lon": 126.86714092211024, "survivalProbability": 0.7131, "monthlyEstimateKRW": 665686206, "salesPercentile": 73.6}, {"sangwonCode": 3110927, "sangwonName": "잠원역", "gu": "서초구", "lat": 37.51280164188977, "lon": 127.01117516268238, "survivalProbability": 0.7131, "monthlyEstimateKRW": 429265923, "salesPercentile": 66.3}, {"sangwonCode": 3110118, "sangwonName": "왕십리역 9번", "gu": "성동구", "lat": 37.55783774584384, "lon": 127.03587710019502, "survivalProbability": 0.7131, "monthlyEstimateKRW": 735388631, "salesPercentile": 76.9}, {"sangwonCode": 3110459, "sangwonName": "응암역 2번", "gu": "은평구", "lat": 37.59958162306841, "lon": 126.91355245804971, "survivalProbability": 0.7131, "monthlyEstimateKRW": 718735057, "salesPercentile": 76.2}, {"sangwonCode": 3110926, "sangwonName": "신중초등학교", "gu": "서초구", "lat": 37.481609051735134, "lon": 127.00801608855255, "survivalProbability": 0.7131, "monthlyEstimateKRW": 120516521, "salesPercentile": 20.3}, {"sangwonCode": 3110460, "sangwonName": "구산역 4번", "gu": "은평구", "lat": 37.614521102015296, "lon": 126.91503023530422, "survivalProbability": 0.7131, "monthlyEstimateKRW": 1336970981, "salesPercentile": 91.5}, {"sangwonCode": 3120048, "sangwonName": "금호역", "gu": "성동구", "lat": 37.54829999550683, "lon": 127.01963370266444, "survivalProbability": 0.7131, "monthlyEstimateKRW": 98861345, "salesPercentile": 11.7}, {"sangwonCode": 3130183, "sangwonName": "상암동상점가", "gu": "마포구", "lat": 37.576934214752995, "lon": 126.89563552270715, "survivalProbability": 0.7131, "monthlyEstimateKRW": 345650694, "salesPercentile": 61.8}, {"sangwonCode": 3120124, "sangwonName": "개봉동 현대아파트", "gu": "구로구", "lat": 37.4888917210359, "lon": 126.85592258479969, "survivalProbability": 0.7131, "monthlyEstimateKRW": 1385623009, "salesPercentile": 92.3}, {"sangwonCode": 3110113, "sangwonName": "응봉산", "gu": "성동구", "lat": 37.54877494821614, "lon": 127.03152728660245, "survivalProbability": 0.7131, "monthlyEstimateKRW": 126721806, "salesPercentile": 25.5}, {"sangwonCode": 3110619, "sangwonName": "목4동주민센터", "gu": "양천구", "lat": 37.53147591380736, "lon": 126.86590990704703, "survivalProbability": 0.7131, "monthlyEstimateKRW": 148891257, "salesPercentile": 34.0}, {"sangwonCode": 3110919, "sangwonName": "내방역 8번", "gu": "서초구", "lat": 37.490646327770875, "lon": 126.99493421679534, "survivalProbability": 0.7131, "monthlyEstimateKRW": 97674234, "salesPercentile": 10.7}, {"sangwonCode": 3130185, "sangwonName": "망원월드컵시장", "gu": "마포구", "lat": 37.55811166117051, "lon": 126.90542898536704, "survivalProbability": 0.7131, "monthlyEstimateKRW": 128575641, "salesPercentile": 27.7}, {"sangwonCode": 3110112, "sangwonName": "행당역 2번", "gu": "성동구", "lat": 37.559226552054376, "lon": 127.03141851074179, "survivalProbability": 0.7131, "monthlyEstimateKRW": 471356774, "salesPercentile": 68.6}, {"sangwonCode": 3110464, "sangwonName": "연신내역 5번", "gu": "은평구", "lat": 37.61717129604579, "lon": 126.91683948862, "survivalProbability": 0.7131, "monthlyEstimateKRW": 926079892, "salesPercentile": 83.2}, {"sangwonCode": 3110916, "sangwonName": "내방역 4번", "gu": "서초구", "lat": 37.48524914404242, "lon": 126.9922435775226, "survivalProbability": 0.7131, "monthlyEstimateKRW": 156931644, "salesPercentile": 36.7}, {"sangwonCode": 3120123, "sangwonName": "오류동역", "gu": "구로구", "lat": 37.495238716981696, "lon": 126.84478309040126, "survivalProbability": 0.7131, "monthlyEstimateKRW": 151129384, "salesPercentile": 34.2}, {"sangwonCode": 3120049, "sangwonName": "왕십리역(왕십리)", "gu": "성동구", "lat": 37.56090973532495, "lon": 127.03720279807932, "survivalProbability": 0.7131, "monthlyEstimateKRW": 157500869, "salesPercentile": 37.1}, {"sangwonCode": 3110109, "sangwonName": "금호삼성래미안아파트", "gu": "성동구", "lat": 37.55026289597211, "lon": 127.02620913408614, "survivalProbability": 0.7131, "monthlyEstimateKRW": 760272991, "salesPercentile": 78.2}, {"sangwonCode": 3110107, "sangwonName": "금호사거리", "gu": "성동구", "lat": 37.5471186877979, "lon": 127.02492931657964, "survivalProbability": 0.7131, "monthlyEstimateKRW": 126408284, "salesPercentile": 24.8}, {"sangwonCode": 3110465, "sangwonName": "연신내역 7번", "gu": "은평구", "lat": 37.62142443927846, "lon": 126.9175257181981, "survivalProbability": 0.7131, "monthlyEstimateKRW": 946576603, "salesPercentile": 83.9}, {"sangwonCode": 3110106, "sangwonName": "금북초등학교", "gu": "성동구", "lat": 37.55639010690916, "lon": 127.02421940373985, "survivalProbability": 0.7131, "monthlyEstimateKRW": 170972092, "salesPercentile": 39.4}, {"sangwonCode": 3110913, "sangwonName": "방현초등학교(방배119안전센터)", "gu": "서초구", "lat": 37.476626146972635, "lon": 126.9881405944352, "survivalProbability": 0.7131, "monthlyEstimateKRW": 156931644, "salesPercentile": 36.7}, {"sangwonCode": 3120122, "sangwonName": "강서구청", "gu": "강서구", "lat": 37.55257721737214, "lon": 126.85080932634085, "survivalProbability": 0.7131, "monthlyEstimateKRW": 976527651, "salesPercentile": 85.0}, {"sangwonCode": 3110466, "sangwonName": "구산역 2번", "gu": "은평구", "lat": 37.608441562863476, "lon": 126.91804969701305, "survivalProbability": 0.7131, "monthlyEstimateKRW": 257112231, "salesPercentile": 52.8}, {"sangwonCode": 3120050, "sangwonName": "서울숲역", "gu": "성동구", "lat": 37.54220153634795, "lon": 127.04695863222238, "survivalProbability": 0.7131, "monthlyEstimateKRW": 298946704, "salesPercentile": 57.5}, {"sangwonCode": 3110912, "sangwonName": "방배동사이길", "gu": "서초구", "lat": 37.49419599826771, "lon": 126.99019588863594, "survivalProbability": 0.7131, "monthlyEstimateKRW": 1176706614, "salesPercentile": 88.3}, {"sangwonCode": 3110104, "sangwonName": "신금호역 4번", "gu": "성동구", "lat": 37.55161558009325, "lon": 127.02016645992701, "survivalProbability": 0.7131, "monthlyEstimateKRW": 248093706, "salesPercentile": 51.2}, {"sangwonCode": 3110467, "sangwonName": "은평요양병원", "gu": "은평구", "lat": 37.62484029093253, "lon": 126.91913049837581, "survivalProbability": 0.7131, "monthlyEstimateKRW": 154085825, "salesPercentile": 35.5}, {"sangwonCode": 3110615, "sangwonName": "신서초등학교", "gu": "양천구", "lat": 37.520964822449145, "lon": 126.86122287881128, "survivalProbability": 0.7131, "monthlyEstimateKRW": 520080599, "salesPercentile": 70.7}, {"sangwonCode": 3110102, "sangwonName": "옥수역 6번", "gu": "성동구", "lat": 37.54315582494073, "lon": 127.01610192459853, "survivalProbability": 0.7131, "monthlyEstimateKRW": 148524627, "salesPercentile": 33.9}, {"sangwonCode": 3130195, "sangwonName": "도화동 상점가", "gu": "마포구", "lat": 37.54015474788199, "lon": 126.94936526895961, "survivalProbability": 0.7131, "monthlyEstimateKRW": 399009228, "salesPercentile": 64.5}, {"sangwonCode": 3110468, "sangwonName": "응암역 3번", "gu": "은평구", "lat": 37.60326100173212, "lon": 126.91823657343359, "survivalProbability": 0.7131, "monthlyEstimateKRW": 219000277, "salesPercentile": 45.8}, {"sangwonCode": 3110907, "sangwonName": "방배초등학교", "gu": "서초구", "lat": 37.48702347050339, "lon": 126.98530089260097, "survivalProbability": 0.7131, "monthlyEstimateKRW": 954297368, "salesPercentile": 84.5}, {"sangwonCode": 3120120, "sangwonName": "화곡역", "gu": "강서구", "lat": 37.54110975325988, "lon": 126.83880416630873, "survivalProbability": 0.7131, "monthlyEstimateKRW": 262306936, "salesPercentile": 54.3}, {"sangwonCode": 3130198, "sangwonName": "아현시장", "gu": "마포구", "lat": 37.55640179732696, "lon": 126.9543792384095, "survivalProbability": 0.7131, "monthlyEstimateKRW": 153746518, "salesPercentile": 35.2}, {"sangwonCode": 3110906, "sangwonName": "서문여고", "gu": "서초구", "lat": 37.490132068488606, "lon": 126.98630664868188, "survivalProbability": 0.7131, "monthlyEstimateKRW": 125854563, "salesPercentile": 23.9}, {"sangwonCode": 3110469, "sangwonName": "응암정보도서관", "gu": "은평구", "lat": 37.586196487934636, "lon": 126.91861754570077, "survivalProbability": 0.7131, "monthlyEstimateKRW": 218784248, "salesPercentile": 45.4}, {"sangwonCode": 3110905, "sangwonName": "방배노인종합복지관(이수중학교)", "gu": "서초구", "lat": 37.481815733304714, "lon": 126.98605942962958, "survivalProbability": 0.7131, "monthlyEstimateKRW": 232909331, "salesPercentile": 49.9}, {"sangwonCode": 3110794, "sangwonName": "영동초등학교", "gu": "영등포구", "lat": 37.52769618737837, "lon": 126.90829568124921, "survivalProbability": 0.7131, "monthlyEstimateKRW": 126544973, "salesPercentile": 25.0}, {"sangwonCode": 3120119, "sangwonName": "발산역(마곡)", "gu": "강서구", "lat": 37.559927290899275, "lon": 126.83568513889625, "survivalProbability": 0.7131, "monthlyEstimateKRW": 1205881177, "salesPercentile": 89.1}, {"sangwonCode": 3110612, "sangwonName": "신정역 5번", "gu": "양천구", "lat": 37.52343623301962, "lon": 126.85592405599932, "survivalProbability": 0.7131, "monthlyEstimateKRW": 190646002, "salesPercentile": 41.6}, {"sangwonCode": 3110904, "sangwonName": "이수역 5번", "gu": "서초구", "lat": 37.4852574343676, "lon": 126.984826355552, "survivalProbability": 0.7131, "monthlyEstimateKRW": 129732094, "salesPercentile": 28.6}, {"sangwonCode": 3130202, "sangwonName": "신영시장", "gu": "양천구", "lat": 37.532978552718, "lon": 126.83576690779837, "survivalProbability": 0.7131, "monthlyEstimateKRW": 514676065, "salesPercentile": 70.2}, {"sangwonCode": 3110797, "sangwonName": "KT대방빌딩", "gu": "영등포구", "lat": 37.49592733165793, "lon": 126.90900173377105, "survivalProbability": 0.7131, "monthlyEstimateKRW": 123484834, "salesPercentile": 21.6}, {"sangwonCode": 3110470, "sangwonName": "신진과학기술고등학교", "gu": "은평구", "lat": 37.59722490823317, "lon": 126.91902451113432, "survivalProbability": 0.7131, "monthlyEstimateKRW": 793395038, "salesPercentile": 79.6}, {"sangwonCode": 3110090, "sangwonName": "한국폴리텍대학서울정수캠퍼스", "gu": "용산구", "lat": 37.52763264213135, "lon": 126.99699070678436, "survivalProbability": 0.7131, "monthlyEstimateKRW": 193951099, "salesPercentile": 41.9}, {"sangwonCode": 3110903, "sangwonName": "방배아이파크아파트", "gu": "서초구", "lat": 37.49217715544628, "lon": 126.98467795466243, "survivalProbability": 0.7131, "monthlyEstimateKRW": 913412519, "salesPercentile": 82.8}, {"sangwonCode": 3110471, "sangwonName": "응암동우체국", "gu": "은평구", "lat": 37.59134163214491, "lon": 126.91931395497885, "survivalProbability": 0.7131, "monthlyEstimateKRW": 115814487, "salesPercentile": 16.8}, {"sangwonCode": 3130204, "sangwonName": "경창시장", "gu": "양천구", "lat": 37.524526713829125, "lon": 126.84204133356633, "survivalProbability": 0.7131, "monthlyEstimateKRW": 326396711, "salesPercentile": 59.6}, {"sangwonCode": 3110088, "sangwonName": "오산고등학교", "gu": "용산구", "lat": 37.525154870964045, "lon": 126.99643648116178, "survivalProbability": 0.7131, "monthlyEstimateKRW": 144821950, "salesPercentile": 32.0},