{"industryCode": "CS200019", "industryName": "PC방", "dataAsOf": "2026-Q1", "survivalGranularity": "seoul_industry", "cells": [{"sangwonCode": 3110754, "sangwonName": "삼성산자연공원(서울금천초등학교)", "gu": "금천구", "lat": 37.453237704979706, "lon": 126.90927951506106, "survivalProbability": 0.6354, "monthlyEstimateKRW": 174560437, "salesPercentile": 25.2}, {"sangwonCode": 3130117, "sangwonName": "정릉시장", "gu": "성북구", "lat": 37.60841561935929, "lon": 127.00892438114056, "survivalProbability": 0.6354, "monthlyEstimateKRW": 291011779, "salesPercentile": 60.6}, {"sangwonCode": 3120248, "sangwonName": "명일역", "gu": "강동구", "lat": 37.55124972345866, "lon": 127.1443784336575, "survivalProbability": 0.6354, "monthlyEstimateKRW": 135207176, "salesPercentile": 7.1}, {"sangwonCode": 3120236, "sangwonName": "장지역(가든파이브)", "gu": "송파구", "lat": 37.47804006486017, "lon": 127.12329941653981, "survivalProbability": 0.6354, "monthlyEstimateKRW": 257064498, "salesPercentile": 51.2}, {"sangwonCode": 3110312, "sangwonName": "안암역 2번", "gu": "성북구", "lat": 37.58868967882518, "lon": 127.0290871611702, "survivalProbability": 0.6354, "monthlyEstimateKRW": 394593373, "salesPercentile": 74.8}, {"sangwonCode": 3120205, "sangwonName": "매봉역", "gu": "강남구", "lat": 37.48435825746537, "lon": 127.04389223582503, "survivalProbability": 0.6354, "monthlyEstimateKRW": 585010280, "salesPercentile": 89.8}, {"sangwonCode": 3120198, "sangwonName": "구역삼세무서", "gu": "강남구", "lat": 37.49553304713569, "lon": 127.03720426859347, "survivalProbability": 0.6354, "monthlyEstimateKRW": 193496903, "salesPercentile": 35.4}, {"sangwonCode": 3120166, "sangwonName": "방배역", "gu": "서초구", "lat": 37.48166335251674, "lon": 126.99726390009168, "survivalProbability": 0.6354, "monthlyEstimateKRW": 662985338, "salesPercentile": 92.1}, {"sangwonCode": 3120133, "sangwonName": "서울시흥동우체국(홈플러스시흥점)", "gu": "금천구", "lat": 37.45251953006894, "lon": 126.90132391118351, "survivalProbability": 0.6354, "monthlyEstimateKRW": 202422283, "salesPercentile": 37.8}, {"sangwonCode": 3120134, "sangwonName": "구로전화국", "gu": "금천구", "lat": 37.47993162827735, "lon": 126.9054145419079, "survivalProbability": 0.6354, "monthlyEstimateKRW": 136505023, "salesPercentile": 7.9}, {"sangwonCode": 3110420, "sangwonName": "광운대역 1번", "gu": "노원구", "lat": 37.62105976995063, "lon": 127.05964942521172, "survivalProbability": 0.6354, "monthlyEstimateKRW": 167171240, "salesPercentile": 22.0}, {"sangwonCode": 3110450, "sangwonName": "시립서북병원", "gu": "은평구", "lat": 37.60544380707197, "lon": 126.90920823667845, "survivalProbability": 0.6354, "monthlyEstimateKRW": 243463327, "salesPercentile": 46.5}, {"sangwonCode": 3110638, "sangwonName": "신방화역 2번", "gu": "강서구", "lat": 37.56875208070871, "lon": 126.81411374137508, "survivalProbability": 0.6354, "monthlyEstimateKRW": 244239794, "salesPercentile": 47.2}, {"sangwonCode": 3120247, "sangwonName": "굽은다리역", "gu": "강동구", "lat": 37.54581880892867, "lon": 127.14264794652553, "survivalProbability": 0.6354, "monthlyEstimateKRW": 159067400, "salesPercentile": 19.7}, {"sangwonCode": 3120249, "sangwonName": "고덕역", "gu": "강동구", "lat": 37.553416674247536, "lon": 127.15499797751727, "survivalProbability": 0.6354, "monthlyEstimateKRW": 285993461, "salesPercentile": 59.1}, {"sangwonCode": 3110214, "sangwonName": "경희대후문", "gu": "동대문구", "lat": 37.597518483440886, "lon": 127.056471314137, "survivalProbability": 0.6354, "monthlyEstimateKRW": 181726758, "salesPercentile": 29.1}, {"sangwonCode": 3110673, "sangwonName": "뜸부기어린이공원", "gu": "강서구", "lat": 37.53041452973515, "lon": 126.85970067142665, "survivalProbability": 0.6354, "monthlyEstimateKRW": 129193923, "salesPercentile": 6.3}, {"sangwonCode": 3110158, "sangwonName": "중곡3동주민센터", "gu": "광진구", "lat": 37.56872649117577, "lon": 127.08097858537985, "survivalProbability": 0.6354, "monthlyEstimateKRW": 323600094, "salesPercentile": 63.8}, {"sangwonCode": 3130167, "sangwonName": "연신내상점가(연빛거리)", "gu": "은평구", "lat": 37.620010847855006, "lon": 126.91890918747656, "survivalProbability": 0.6354, "monthlyEstimateKRW": 289946153, "salesPercentile": 59.8}, {"sangwonCode": 3110753, "sangwonName": "시흥동 은행나무사거리", "gu": "금천구", "lat": 37.448849129363595, "lon": 126.90844852214423, "survivalProbability": 0.6354, "monthlyEstimateKRW": 141925920, "salesPercentile": 11.0}, {"sangwonCode": 3130214, "sangwonName": "송화벽화시장(송화골목시장)", "gu": "강서구", "lat": 37.549349400157496, "lon": 126.8355499326782, "survivalProbability": 0.6354, "monthlyEstimateKRW": 242970483, "salesPercentile": 45.7}, {"sangwonCode": 3110744, "sangwonName": "독산동성당", "gu": "금천구", "lat": 37.47067726744691, "lon": 126.90418270467585, "survivalProbability": 0.6354, "monthlyEstimateKRW": 155753697, "salesPercentile": 18.1}, {"sangwonCode": 3120184, "sangwonName": "포이사거리(삼호물산)", "gu": "서초구", "lat": 37.47696053249972, "lon": 127.04506367970757, "survivalProbability": 0.6354, "monthlyEstimateKRW": 261197534, "salesPercentile": 52.8}, {"sangwonCode": 3120077, "sangwonName": "미아역", "gu": "강북구", "lat": 37.625667032174505, "lon": 127.02592973155743, "survivalProbability": 0.6354, "monthlyEstimateKRW": 124245415, "salesPercentile": 5.5}, {"sangwonCode": 3120054, "sangwonName": "어린이대공원역", "gu": "광진구", "lat": 37.547820046908846, "lon": 127.07219724027671, "survivalProbability": 0.6354, "monthlyEstimateKRW": 112499558, "salesPercentile": 3.1}, {"sangwonCode": 3110460, "sangwonName": "구산역 4번", "gu": "은평구", "lat": 37.614521102015296, "lon": 126.91503023530422, "survivalProbability": 0.6354, "monthlyEstimateKRW": 203757380, "salesPercentile": 38.6}, {"sangwonCode": 3130111, "sangwonName": "동원전통종합시장(동원시장, 동원전통시장 상점가)", "gu": "중랑구", "lat": 37.58989278841775, "lon": 127.09068228925835, "survivalProbability": 0.6354, "monthlyEstimateKRW": 331813822, "salesPercentile": 66.1}, {"sangwonCode": 3120191, "sangwonName": "학동역", "gu": "강남구", "lat": 37.51355518491261, "lon": 127.03007596762794, "survivalProbability": 0.6354, "monthlyEstimateKRW": 1450494676, "salesPercentile": 98.4}, {"sangwonCode": 3081591, "sangwonName": null, "gu": null, "lat": null, "lon": null, "survivalProbability": 0.6354, "monthlyEstimateKRW": 275150652, "salesPercentile": 55.9}, {"sangwonCode": 3120215, "sangwonName": "포스코사거리", "gu": "강남구", "lat": 37.50682411890163, "lon": 127.05626720528876, "survivalProbability": 0.6354, "monthlyEstimateKRW": 85164233, "salesPercentile": 0.8}, {"sangwonCode": 3110706, "sangwonName": "그라운드 고척", "gu": "구로구", "lat": 37.501246978346835, "lon": 126.86565863686842, "survivalProbability": 0.6354, "monthlyEstimateKRW": 435374882, "salesPercentile": 80.3}, {"sangwonCode": 3120219, "sangwonName": "은마아파트", "gu": "강남구", "lat": 37.49884807441995, "lon": 127.06060379417535, "survivalProbability": 0.6354, "monthlyEstimateKRW": 888246543, "salesPercentile": 94.5}, {"sangwonCode": 3110299, "sangwonName": "정릉역 1번", "gu": "성북구", "lat": 37.60190042877038, "lon": 127.01798309800381, "survivalProbability": 0.6354, "monthlyEstimateKRW": 328319060, "salesPercentile": 65.4}, {"sangwonCode": 3110274, "sangwonName": "서일대학교", "gu": "중랑구", "lat": 37.58956195338933, "lon": 127.09875482708568, "survivalProbability": 0.6354, "monthlyEstimateKRW": 175123627, "salesPercentile": 26.0}, {"sangwonCode": 3120209, "sangwonName": "강남구청(청담역_8번, 강남세무서)", "gu": "강남구", "lat": 37.51874742762321, "lon": 127.04951170686684, "survivalProbability": 0.6354, "monthlyEstimateKRW": 184722117, "salesPercentile": 34.6}, {"sangwonCode": 3120225, "sangwonName": "잠실새내역(신천)", "gu": "송파구", "lat": 37.51048475437836, "lon": 127.0825782728224, "survivalProbability": 0.6354, "monthlyEstimateKRW": 463643679, "salesPercentile": 81.1}, {"sangwonCode": 3110313, "sangwonName": "안암역 3번", "gu": "성북구", "lat": 37.58398634417268, "lon": 127.02969670042593, "survivalProbability": 0.6354, "monthlyEstimateKRW": 265831594, "salesPercentile": 55.1}, {"sangwonCode": 3120229, "sangwonName": "방이동먹자골목", "gu": "송파구", "lat": 37.51438248056646, "lon": 127.10923158441152, "survivalProbability": 0.6354, "monthlyEstimateKRW": 313161864, "salesPercentile": 63.0}, {"sangwonCode": 3120202, "sangwonName": "압구정로데오역(압구정로데오)", "gu": "강남구", "lat": 37.526769907891094, "lon": 127.04013853060529, "survivalProbability": 0.6354, "monthlyEstimateKRW": 138466168, "salesPercentile": 8.7}, {"sangwonCode": 3110714, "sangwonName": "구로4동주민센터", "gu": "구로구", "lat": 37.49132429193936, "lon": 126.88919631652536, "survivalProbability": 0.6354, "monthlyEstimateKRW": 184256939, "salesPercentile": 33.9}, {"sangwonCode": 3110686, "sangwonName": "수궁동주민센터", "gu": "구로구", "lat": 37.494638620747644, "lon": 126.83415467880374, "survivalProbability": 0.6354, "monthlyEstimateKRW": 142674299, "salesPercentile": 11.8}, {"sangwonCode": 3120234, "sangwonName": "가락시장역", "gu": "송파구", "lat": 37.494695372813744, "lon": 127.11872437303792, "survivalProbability": 0.6354, "monthlyEstimateKRW": 616454448, "salesPercentile": 91.3}, {"sangwonCode": 3110717, "sangwonName": "남구로역 2번", "gu": "구로구", "lat": 37.48428725232738, "lon": 126.88901449779476, "survivalProbability": 0.6354, "monthlyEstimateKRW": 152268365, "salesPercentile": 14.2}, {"sangwonCode": 3120197, "sangwonName": "역삼역", "gu": "강남구", "lat": 37.500398869563554, "lon": 127.03595138126002, "survivalProbability": 0.6354, "monthlyEstimateKRW": 508140786, "salesPercentile": 85.0}, {"sangwonCode": 3120240, "sangwonName": "개롱역", "gu": "송파구", "lat": 37.49604787721762, "lon": 127.13460345002983, "survivalProbability": 0.6354, "monthlyEstimateKRW": 307605695, "salesPercentile": 61.4}, {"sangwonCode": 3120006, "sangwonName": "종각역", "gu": "종로구", "lat": 37.57037490191488, "lon": 126.98349603169189, "survivalProbability": 0.6354, "monthlyEstimateKRW": 211056824, "salesPercentile": 40.9}, {"sangwonCode": 3111042, "sangwonName": "거여역 1번(거여공원)", "gu": "송파구", "lat": 37.49713654406891, "lon": 127.14357306164347, "survivalProbability": 0.6354, "monthlyEstimateKRW": 203989978, "salesPercentile": 40.2}, {"sangwonCode": 3120243, "sangwonName": "천호역", "gu": "강동구", "lat": 37.53952339599033, "lon": 127.12444156010653, "survivalProbability": 0.6354, "monthlyEstimateKRW": 203887276, "salesPercentile": 39.4}, {"sangwonCode": 3120189, "sangwonName": "강남역", "gu": "서초구", "lat": 37.497571920870165, "lon": 127.02775129423334, "survivalProbability": 0.6354, "monthlyEstimateKRW": 553303472, "salesPercentile": 87.4}, {"sangwonCode": 3120245, "sangwonName": "둔촌역", "gu": "강동구", "lat": 37.526339264817906, "lon": 127.13491805500612, "survivalProbability": 0.6354, "monthlyEstimateKRW": 255276817, "salesPercentile": 50.4}, {"sangwonCode": 3110357, "sangwonName": "가오리역 1번", "gu": "강북구", "lat": 37.643417950047436, "lon": 127.01782314180417, "survivalProbability": 0.6354, "monthlyEstimateKRW": 148737658, "salesPercentile": 13.4}, {"sangwonCode": 3120188, "sangwonName": "압구정역", "gu": "강남구", "lat": 37.52546693782541, "lon": 127.02807838256531, "survivalProbability": 0.6354, "monthlyEstimateKRW": 254452122, "salesPercentile": 49.6}, {"sangwonCode": 3120246, "sangwonName": "길동역", "gu": "강동구", "lat": 37.536471614031555, "lon": 127.13829670196402, "survivalProbability": 0.6354, "monthlyEstimateKRW": 110060563, "salesPercentile": 2.4}, {"sangwonCode": 3120187, "sangwonName": "신논현역", "gu": "강남구", "lat": 37.50502379497898, "lon": 127.02527722374786, "survivalProbability": 0.6354, "monthlyEstimateKRW": 346713580, "salesPercentile": 70.1}, {"sangwonCode": 3120185, "sangwonName": "논현역", "gu": "강남구", "lat": 37.51104318245634, "lon": 127.02189737579353, "survivalProbability": 0.6354, "monthlyEstimateKRW": 917647024, "salesPercentile": 95.3}, {"sangwonCode": 3120012, "sangwonName": "대학로(혜화역)", "gu": "종로구", "lat": 37.5827467014045, "lon": 127.00132461165737, "survivalProbability": 0.6354, "monthlyEstimateKRW": 421164945, "salesPercentile": 78.0}, {"sangwonCode": 3120178, "sangwonName": "신사역", "gu": "서초구", "lat": 37.515963075171285, "lon": 127.01955735958383, "survivalProbability": 0.6354, "monthlyEstimateKRW": 1083371507, "salesPercentile": 96.1}, {"sangwonCode": 3120017, "sangwonName": "동묘앞역(동묘)", "gu": "종로구", "lat": 37.572744764086856, "lon": 127.01464801900576, "survivalProbability": 0.6354, "monthlyEstimateKRW": 197072760, "salesPercentile": 37.0}, {"sangwonCode": 3120173, "sangwonName": "교대역(법원.검찰청)", "gu": "서초구", "lat": 37.49370893679033, "lon": 127.0147795736092, "survivalProbability": 0.6354, "monthlyEstimateKRW": 218031502, "salesPercentile": 41.7}, {"sangwonCode": 3130066, "sangwonName": "행당시장상점가", "gu": "성동구", "lat": 37.56119020691093, "lon": 127.0333094753789, "survivalProbability": 0.6354, "monthlyEstimateKRW": 397214581, "salesPercentile": 75.6}, {"sangwonCode": 3130069, "sangwonName": "한양대앞상점가(한양시장, 왕십리맛골목)", "gu": "성동구", "lat": 37.55958418644961, "lon": 127.04049566562402, "survivalProbability": 0.6354, "monthlyEstimateKRW": 2104534207, "salesPercentile": 100.0}, {"sangwonCode": 3110405, "sangwonName": "방학역 1번", "gu": "도봉구", "lat": 37.66914421552273, "lon": 127.04101983972981, "survivalProbability": 0.6354, "monthlyEstimateKRW": 345135211, "salesPercentile": 69.3}, {"sangwonCode": 3120160, "sangwonName": "사당역(사당)", "gu": "서초구", "lat": 37.47752639125283, "lon": 126.98206935862181, "survivalProbability": 0.6354, "monthlyEstimateKRW": 337744902, "salesPercentile": 67.7}, {"sangwonCode": 3120159, "sangwonName": "서울대입구역", "gu": "관악구", "lat": 37.48095081268923, "lon": 126.95191519812431, "survivalProbability": 0.6354, "monthlyEstimateKRW": 123067988, "salesPercentile": 4.7}, {"sangwonCode": 3120157, "sangwonName": "신림역(신림)", "gu": "관악구", "lat": 37.484724238201885, "lon": 126.93023791719077, "survivalProbability": 0.6354, "monthlyEstimateKRW": 508825023, "salesPercentile": 85.8}, {"sangwonCode": 3120156, "sangwonName": "총신대입구역(이수, 총신대)", "gu": "동작구", "lat": 37.48599581916168, "lon": 126.98170551541705, "survivalProbability": 0.6354, "monthlyEstimateKRW": 183350560, "salesPercentile": 30.7}, {"sangwonCode": 3130106, "sangwonName": "중랑동부시장", "gu": "중랑구", "lat": 37.592353303829555, "lon": 127.07684866751778, "survivalProbability": 0.6354, "monthlyEstimateKRW": 539386039, "salesPercentile": 86.6}, {"sangwonCode": 3110166, "sangwonName": "구의1동주민센터", "gu": "광진구", "lat": 37.54099058656442, "lon": 127.08551989838477, "survivalProbability": 0.6354, "monthlyEstimateKRW": 182973809, "salesPercentile": 29.9}, {"sangwonCode": 3120153, "sangwonName": "노량진역(노량진)", "gu": "동작구", "lat": 37.51400342189709, "lon": 126.94026621686946, "survivalProbability": 0.6354, "monthlyEstimateKRW": 1283449490, "salesPercentile": 97.6}, {"sangwonCode": 3110419, "sangwonName": "수락산디자인거리", "gu": "노원구", "lat": 37.676426447476146, "lon": 127.05710918618395, "survivalProbability": 0.6354, "monthlyEstimateKRW": 171873136, "salesPercentile": 23.6}, {"sangwonCode": 3110997, "sangwonName": "대청초등학교", "gu": "강남구", "lat": 37.491544188739695, "lon": 127.08459279952699, "survivalProbability": 0.6354, "monthlyEstimateKRW": 351791119, "salesPercentile": 71.7}, {"sangwonCode": 3120037, "sangwonName": "동대문역사문화공원역", "gu": "중구", "lat": 37.56545638813874, "lon": 127.00737989015032, "survivalProbability": 0.6354, "monthlyEstimateKRW": 353315564, "salesPercentile": 72.4}, {"sangwonCode": 3110154, "sangwonName": "광진정말공원", "gu": "광진구", "lat": 37.53307535534298, "lon": 127.07897139566221, "survivalProbability": 0.6354, "monthlyEstimateKRW": 184192754, "salesPercentile": 33.1}, {"sangwonCode": 3120145, "sangwonName": "영등포역(영등포)", "gu": "영등포구", "lat": 37.51843182609498, "lon": 126.90568269638135, "survivalProbability": 0.6354, "monthlyEstimateKRW": 310967382, "salesPercentile": 62.2}, {"sangwonCode": 3110431, "sangwonName": "상계역", "gu": "노원구", "lat": 37.660775854840864, "lon": 127.07430115109656, "survivalProbability": 0.6354, "monthlyEstimateKRW": 252581820, "salesPercentile": 48.0}, {"sangwonCode": 3120142, "sangwonName": "대림역", "gu": "영등포구", "lat": 37.494062057605184, "lon": 126.89775247469098, "survivalProbability": 0.6354, "monthlyEstimateKRW": 478388336, "salesPercentile": 82.7}, {"sangwonCode": 3120136, "sangwonName": "영등포구청역", "gu": "영등포구", "lat": 37.5253946047632, "lon": 126.89281128917447, "survivalProbability": 0.6354, "monthlyEstimateKRW": 284663612, "salesPercentile": 58.3}, {"sangwonCode": 3130163, "sangwonName": "응암오거리상점가", "gu": "은평구", "lat": 37.589005588687364, "lon": 126.9157725618011, "survivalProbability": 0.6354, "monthlyEstimateKRW": 183950445, "salesPercentile": 32.3}, {"sangwonCode": 3120132, "sangwonName": "독산동", "gu": "금천구", "lat": 37.470740558781436, "lon": 126.89389548521771, "survivalProbability": 0.6354, "monthlyEstimateKRW": 181405627, "salesPercentile": 28.3}, {"sangwonCode": 3120130, "sangwonName": "구로디지털단지역", "gu": "구로구", "lat": 37.48321674132804, "lon": 126.9010574261167, "survivalProbability": 0.6354, "monthlyEstimateKRW": 178963788, "salesPercentile": 27.6}, {"sangwonCode": 3130175, "sangwonName": "신촌 상인회(신촌상점가)", "gu": "서대문구", "lat": 37.556484003099065, "lon": 126.93718791894099, "survivalProbability": 0.6354, "monthlyEstimateKRW": 348162389, "salesPercentile": 70.9}, {"sangwonCode": 3120123, "sangwonName": "오류동역", "gu": "구로구", "lat": 37.495238716981696, "lon": 126.84478309040126, "survivalProbability": 0.6354, "monthlyEstimateKRW": 152756250, "salesPercentile": 15.0}, {"sangwonCode": 3120122, "sangwonName": "강서구청", "gu": "강서구", "lat": 37.55257721737214, "lon": 126.85080932634085, "survivalProbability": 0.6354, "monthlyEstimateKRW": 139617259, "salesPercentile": 10.2}, {"sangwonCode": 3120121, "sangwonName": "까치산역", "gu": "강서구", "lat": 37.530165049640445, "lon": 126.84742598554176, "survivalProbability": 0.6354, "monthlyEstimateKRW": 154843631, "salesPercentile": 16.5}, {"sangwonCode": 3120052, "sangwonName": "성수역", "gu": "성동구", "lat": 37.54467502389429, "lon": 127.0566690594387, "survivalProbability": 0.6354, "monthlyEstimateKRW": 818463839, "salesPercentile": 93.7}, {"sangwonCode": 3120120, "sangwonName": "화곡역", "gu": "강서구", "lat": 37.54110975325988, "lon": 126.83880416630873, "survivalProbability": 0.6354, "monthlyEstimateKRW": 154944698, "salesPercentile": 17.3}, {"sangwonCode": 3120053, "sangwonName": "건대입구역(건대)", "gu": "광진구", "lat": 37.54052361998077, "lon": 127.0694180102895, "survivalProbability": 0.6354, "monthlyEstimateKRW": 499501008, "salesPercentile": 84.3}, {"sangwonCode": 3120114, "sangwonName": "목동신시가지", "gu": "양천구", "lat": 37.53114395403733, "lon": 126.87542528536237, "survivalProbability": 0.6354, "monthlyEstimateKRW": 578029653, "salesPercentile": 89.0}, {"sangwonCode": 3110902, "sangwonName": "사당역 4번", "gu": "관악구", "lat": 37.47420987457289, "lon": 126.97740115501247, "survivalProbability": 0.6354, "monthlyEstimateKRW": 171966279, "salesPercentile": 24.4}, {"sangwonCode": 3120055, "sangwonName": "군자역", "gu": "광진구", "lat": 37.55713177654428, "lon": 127.0793476213953, "survivalProbability": 0.6354, "monthlyEstimateKRW": 154662913, "salesPercentile": 15.7}, {"sangwonCode": 3120110, "sangwonName": "목동역 8번출구", "gu": "양천구", "lat": 37.52574947721169, "lon": 126.8615081498464, "survivalProbability": 0.6354, "monthlyEstimateKRW": 684553695, "salesPercentile": 92.9}, {"sangwonCode": 3120056, "sangwonName": "구의역", "gu": "광진구", "lat": 37.53754920268015, "lon": 127.08491629282449, "survivalProbability": 0.6354, "monthlyEstimateKRW": 113784755, "salesPercentile": 3.9}, {"sangwonCode": 3120108, "sangwonName": "신정네거리역", "gu": "양천구", "lat": 37.52184641197067, "lon": 126.8526352486175, "survivalProbability": 0.6354, "monthlyEstimateKRW": 324516500, "salesPercentile": 64.6}, {"sangwonCode": 3110069, "sangwonName": "숙대입구", "gu": "용산구", "lat": 37.545224851300794, "lon": 126.9678744716527, "survivalProbability": 0.6354, "monthlyEstimateKRW": 265465485, "salesPercentile": 54.3}, {"sangwonCode": 3110495, "sangwonName": "북가좌2동주민센터", "gu": "서대문구", "lat": 37.581162393855145, "lon": 126.90961133135289, "survivalProbability": 0.6354, "monthlyEstimateKRW": 254384791, "salesPercentile": 48.8}, {"sangwonCode": 3110815, "sangwonName": "공군호텔", "gu": "영등포구", "lat": 37.51166828712483, "lon": 126.9221596147489, "survivalProbability": 0.6354, "monthlyEstimateKRW": 264192421, "salesPercentile": 53.5}, {"sangwonCode": 3120104, "sangwonName": "연남동(홍대)", "gu": "마포구", "lat": 37.56007023507463, "lon": 126.9224714657634, "survivalProbability": 0.6354, "monthlyEstimateKRW": 183575855, "salesPercentile": 31.5}, {"sangwonCode": 3120059, "sangwonName": "구삼강변맛길", "gu": "광진구", "lat": 37.53889487383089, "lon": 127.09266847748853, "survivalProbability": 0.6354, "monthlyEstimateKRW": 227470413, "salesPercentile": 43.3}, {"sangwonCode": 3120103, "sangwonName": "홍대입구역(홍대)", "gu": "마포구", "lat": 37.55054422664607, "lon": 126.91880344160859, "survivalProbability": 0.6354, "monthlyEstimateKRW": 468920117, "salesPercentile": 81.9}, {"sangwonCode": 3110883, "sangwonName": "은천초등학교(은천교앞)", "gu": "관악구", "lat": 37.487223846511434, "lon": 126.93703112025764, "survivalProbability": 0.6354, "monthlyEstimateKRW": 222560555, "salesPercentile": 42.5}, {"sangwonCode": 3110503, "sangwonName": "명지대학교교회", "gu": "서대문구", "lat": 37.5826588806257, "lon": 126.92354622796533, "survivalProbability": 0.6354, "monthlyEstimateKRW": 275993219, "salesPercentile": 57.5}, {"sangwonCode": 3110507, "sangwonName": "명지대학교", "gu": "서대문구", "lat": 37.57877697431512, "lon": 126.92570116141647, "survivalProbability": 0.6354, "monthlyEstimateKRW": 176115101, "salesPercentile": 26.8}, {"sangwonCode": 3120060, "sangwonName": "강변역(테크노마트)", "gu": "광진구", "lat": 37.534811785832595, "lon": 127.09463209799448, "survivalProbability": 0.6354, "monthlyEstimateKRW": 109164476, "salesPercentile": 1.6}, {"sangwonCode": 3110881, "sangwonName": "구립대학경로당(관악산샘말공원)", "gu": "관악구", "lat": 37.46769853841552, "lon": 126.9362223021795, "survivalProbability": 0.6354, "monthlyEstimateKRW": 481388755, "salesPercentile": 83.5}, {"sangwonCode": 3130261, "sangwonName": "성대전통시장(성대시장)", "gu": "동작구", "lat": 37.499122816445855, "lon": 126.93106137758035, "survivalProbability": 0.6354, "monthlyEstimateKRW": 275580735, "salesPercentile": 56.7}, {"sangwonCode": 3120062, "sangwonName": "신설동역", "gu": "동대문구", "lat": 37.57495056845485, "lon": 127.024497100405, "survivalProbability": 0.6354, "monthlyEstimateKRW": 160983719, "salesPercentile": 20.5}, {"sangwonCode": 3120095, "sangwonName": "홍제역", "gu": "서대문구", "lat": 37.58822983459291, "lon": 126.94474718990185, "survivalProbability": 0.6354, "monthlyEstimateKRW": 1512368582, "salesPercentile": 99.2}, {"sangwonCode": 3120094, "sangwonName": "신촌역(신촌역, 신촌로터리)", "gu": "서대문구", "lat": 37.55652864102824, "lon": 126.93641829163414, "survivalProbability": 0.6354, "monthlyEstimateKRW": 423285628, "salesPercentile": 78.7}, {"sangwonCode": 3110869, "sangwonName": "신림역 5번(신림동주민센터, 신림동별빛거리)", "gu": "관악구", "lat": 37.48705494828831, "lon": 126.92548680651547, "survivalProbability": 0.6354, "monthlyEstimateKRW": 158427177, "salesPercentile": 18.9}, {"sangwonCode": 3120064, "sangwonName": "경희대학교(경희대)", "gu": "동대문구", "lat": 37.592510827212735, "lon": 127.0524478846258, "survivalProbability": 0.6354, "monthlyEstimateKRW": 343073559, "salesPercentile": 68.5}, {"sangwonCode": 3130285, "sangwonName": "서원동상점가", "gu": "관악구", "lat": 37.482930294055336, "lon": 126.92866799741944, "survivalProbability": 0.6354, "monthlyEstimateKRW": 434609295, "salesPercentile": 79.5}, {"sangwonCode": 3120090, "sangwonName": "연신내역", "gu": "은평구", "lat": 37.619066940896616, "lon": 126.92207043712689, "survivalProbability": 0.6354, "monthlyEstimateKRW": 259219704, "salesPercentile": 52.0}, {"sangwonCode": 3110865, "sangwonName": "남강고등학교(남강중학교)", "gu": "관악구", "lat": 37.473536847262565, "lon": 126.92092171529349, "survivalProbability": 0.6354, "monthlyEstimateKRW": 193944989, "salesPercentile": 36.2}, {"sangwonCode": 3120067, "sangwonName": "장안동사거리", "gu": "동대문구", "lat": 37.571931154399905, "lon": 127.07148472007246, "survivalProbability": 0.6354, "monthlyEstimateKRW": 162201987, "salesPercentile": 21.3}, {"sangwonCode": 3120085, "sangwonName": "은행사거리", "gu": "노원구", "lat": 37.65022373485967, "lon": 127.0768289378521, "survivalProbability": 0.6354, "monthlyEstimateKRW": 363532732, "salesPercentile": 74.0}, {"sangwonCode": 3110861, "sangwonName": "관악구신사동주민센터", "gu": "관악구", "lat": 37.483905325185546, "lon": 126.91779018557327, "survivalProbability": 0.6354, "monthlyEstimateKRW": 360588263, "salesPercentile": 73.2}, {"sangwonCode": 3110547, "sangwonName": "KB국민은행 망원동지점", "gu": "마포구", "lat": 37.559508222945176, "lon": 126.90544985616542, "survivalProbability": 0.6354, "monthlyEstimateKRW": 171755371, "salesPercentile": 22.8}, {"sangwonCode": 3120068, "sangwonName": "사가정역", "gu": "중랑구", "lat": 37.58111004634755, "lon": 127.08812436220789, "survivalProbability": 0.6354, "monthlyEstimateKRW": 416142500, "salesPercentile": 77.2}, {"sangwonCode": 3120069, "sangwonName": "상봉역", "gu": "중랑구", "lat": 37.596373128943156, "lon": 127.08775735921145, "survivalProbability": 0.6354, "monthlyEstimateKRW": 331946312, "salesPercentile": 66.9}, {"sangwonCode": 3120081, "sangwonName": "노원역", "gu": "노원구", "lat": 37.65546707370536, "lon": 127.06218142111479, "survivalProbability": 0.6354, "monthlyEstimateKRW": 611460934, "salesPercentile": 90.6}, {"sangwonCode": 3110855, "sangwonName": "신대방역 2번", "gu": "관악구", "lat": 37.484405896181045, "lon": 126.9122380925766, "survivalProbability": 0.6354, "monthlyEstimateKRW": 146950989, "salesPercentile": 12.6}, {"sangwonCode": 3120079, "sangwonName": "창동역", "gu": "도봉구", "lat": 37.65239246410829, "lon": 127.04768518990885, "survivalProbability": 0.6354, "monthlyEstimateKRW": 1218427646, "salesPercentile": 96.9}, {"sangwonCode": 3120078, "sangwonName": "미아사거리역", "gu": "강북구", "lat": 37.61260150303619, "lon": 127.03093128253391, "survivalProbability": 0.6354, "monthlyEstimateKRW": 236317799, "salesPercentile": 44.9}, {"sangwonCode": 3130318, "sangwonName": "로데오거리상점가", "gu": "강동구", "lat": 37.539178245707355, "lon": 127.12704340647122, "survivalProbability": 0.6354, "monthlyEstimateKRW": 139382987, "salesPercentile": 9.4}, {"sangwonCode": 3120072, "sangwonName": "성신여대", "gu": "성북구", "lat": 37.59236801480705, "lon": 127.01749391828598, "survivalProbability": 0.6354, "monthlyEstimateKRW": 406076155, "salesPercentile": 76.4}, {"sangwonCode": 3120076, "sangwonName": "수유역", "gu": "강북구", "lat": 37.63775846565519, "lon": 127.0249935589031, "survivalProbability": 0.6354, "monthlyEstimateKRW": 572388632, "salesPercentile": 88.2}, {"sangwonCode": 3110566, "sangwonName": "경의선책거리", "gu": "마포구", "lat": 37.55625383061659, "lon": 126.92853025842084, "survivalProbability": 0.6354, "monthlyEstimateKRW": 232945365, "salesPercentile": 44.1}]}