{"industryCode": "CS300007", "industryName": "육류판매", "dataAsOf": "2026-Q1", "survivalGranularity": "seoul_industry", "cells": [{"sangwonCode": 3110059, "sangwonName": "새남터성지", "gu": "용산구", "lat": 37.52575028754142, "lon": 126.95569888787642, "survivalProbability": 0.726, "monthlyEstimateKRW": 343607025, "salesPercentile": 16.7}, {"sangwonCode": 3110102, "sangwonName": "옥수역 6번", "gu": "성동구", "lat": 37.54315582494073, "lon": 127.01610192459853, "survivalProbability": 0.726, "monthlyEstimateKRW": 340905136, "salesPercentile": 12.6}, {"sangwonCode": 3110639, "sangwonName": "신방화역 8번", "gu": "강서구", "lat": 37.566086019095295, "lon": 126.8146749940266, "survivalProbability": 0.726, "monthlyEstimateKRW": 331213352, "salesPercentile": 4.4}, {"sangwonCode": 3110630, "sangwonName": "공항시장역 1번", "gu": "강서구", "lat": 37.56531932367912, "lon": 126.80849682132225, "survivalProbability": 0.726, "monthlyEstimateKRW": 351775012, "salesPercentile": 24.9}, {"sangwonCode": 3120047, "sangwonName": "한남오거리", "gu": "용산구", "lat": 37.53301141680184, "lon": 127.0075690290704, "survivalProbability": 0.726, "monthlyEstimateKRW": 345894780, "salesPercentile": 20.0}, {"sangwonCode": 3120056, "sangwonName": "구의역", "gu": "광진구", "lat": 37.53754920268015, "lon": 127.08491629282449, "survivalProbability": 0.726, "monthlyEstimateKRW": 356058035, "salesPercentile": 27.0}, {"sangwonCode": 3120131, "sangwonName": "가산디지털단지", "gu": "금천구", "lat": 37.47710029831843, "lon": 126.88288623812605, "survivalProbability": 0.726, "monthlyEstimateKRW": 1619985151, "salesPercentile": 90.5}, {"sangwonCode": 3110451, "sangwonName": "증산역 4번", "gu": "은평구", "lat": 37.586867310443004, "lon": 126.91176695211742, "survivalProbability": 0.726, "monthlyEstimateKRW": 343181359, "salesPercentile": 15.8}, {"sangwonCode": 3110204, "sangwonName": "간데메공원", "gu": "동대문구", "lat": 37.573518572379605, "lon": 127.05088371301225, "survivalProbability": 0.726, "monthlyEstimateKRW": 451602451, "salesPercentile": 47.9}, {"sangwonCode": 3110156, "sangwonName": "군자역 5번", "gu": "광진구", "lat": 37.55374327045005, "lon": 127.08046441912305, "survivalProbability": 0.726, "monthlyEstimateKRW": 352377712, "salesPercentile": 25.3}, {"sangwonCode": 3130183, "sangwonName": "상암동상점가", "gu": "마포구", "lat": 37.576934214752995, "lon": 126.89563552270715, "survivalProbability": 0.726, "monthlyEstimateKRW": 564395492, "salesPercentile": 58.1}, {"sangwonCode": 3111005, "sangwonName": "삼전역 3번", "gu": "송파구", "lat": 37.501461266767535, "lon": 127.08868660012052, "survivalProbability": 0.726, "monthlyEstimateKRW": 377255687, "salesPercentile": 34.4}, {"sangwonCode": 3110916, "sangwonName": "내방역 4번", "gu": "서초구", "lat": 37.48524914404242, "lon": 126.9922435775226, "survivalProbability": 0.726, "monthlyEstimateKRW": 339876474, "salesPercentile": 12.1}, {"sangwonCode": 3110167, "sangwonName": "용마초등학교", "gu": "광진구", "lat": 37.557956025147156, "lon": 127.08601462792421, "survivalProbability": 0.726, "monthlyEstimateKRW": 351736198, "salesPercentile": 24.7}, {"sangwonCode": 3111042, "sangwonName": "거여역 1번(거여공원)", "gu": "송파구", "lat": 37.49713654406891, "lon": 127.14357306164347, "survivalProbability": 0.726, "monthlyEstimateKRW": 617903617, "salesPercentile": 65.3}, {"sangwonCode": 3110264, "sangwonName": "면목역 2번", "gu": "중랑구", "lat": 37.58726118530816, "lon": 127.09159619054651, "survivalProbability": 0.726, "monthlyEstimateKRW": 410419754, "salesPercentile": 42.6}, {"sangwonCode": 3110266, "sangwonName": "면목동우체국", "gu": "중랑구", "lat": 37.5831706467708, "lon": 127.09163646470414, "survivalProbability": 0.726, "monthlyEstimateKRW": 377439163, "salesPercentile": 34.7}, {"sangwonCode": 3110308, "sangwonName": "길음역 8번", "gu": "성북구", "lat": 37.607269174073934, "lon": 127.02441709427482, "survivalProbability": 0.726, "monthlyEstimateKRW": 338970825, "salesPercentile": 11.2}, {"sangwonCode": 3120185, "sangwonName": "논현역", "gu": "강남구", "lat": 37.51104318245634, "lon": 127.02189737579353, "survivalProbability": 0.726, "monthlyEstimateKRW": 492410595, "salesPercentile": 52.1}, {"sangwonCode": 3120165, "sangwonName": "서래마을카페거리(서래마을)", "gu": "서초구", "lat": 37.498079728383495, "lon": 126.99807752566676, "survivalProbability": 0.726, "monthlyEstimateKRW": 343421684, "salesPercentile": 16.0}, {"sangwonCode": 3110408, "sangwonName": "가인초등학교", "gu": "도봉구", "lat": 37.65879177963506, "lon": 127.04149012943236, "survivalProbability": 0.726, "monthlyEstimateKRW": 333586936, "salesPercentile": 7.0}, {"sangwonCode": 3110557, "sangwonName": "홍대부속여중고앞", "gu": "마포구", "lat": 37.55822738671058, "lon": 126.91545636804909, "survivalProbability": 0.726, "monthlyEstimateKRW": 349893161, "salesPercentile": 23.5}, {"sangwonCode": 3130308, "sangwonName": "청담삼익시장", "gu": "강남구", "lat": 37.522356791479325, "lon": 127.05757978634368, "survivalProbability": 0.726, "monthlyEstimateKRW": 687782212, "salesPercentile": 72.8}, {"sangwonCode": 3110486, "sangwonName": "은평구청", "gu": "은평구", "lat": 37.60248349984441, "lon": 126.92799910442115, "survivalProbability": 0.726, "monthlyEstimateKRW": 336459320, "salesPercentile": 9.5}, {"sangwonCode": 3110471, "sangwonName": "응암동우체국", "gu": "은평구", "lat": 37.59134163214491, "lon": 126.91931395497885, "survivalProbability": 0.726, "monthlyEstimateKRW": 343989704, "salesPercentile": 18.1}, {"sangwonCode": 3130142, "sangwonName": "강북북부시장", "gu": "강북구", "lat": 37.63622553122472, "lon": 127.03036326449622, "survivalProbability": 0.726, "monthlyEstimateKRW": 714546587, "salesPercentile": 73.0}, {"sangwonCode": 3120142, "sangwonName": "대림역", "gu": "영등포구", "lat": 37.494062057605184, "lon": 126.89775247469098, "survivalProbability": 0.726, "monthlyEstimateKRW": 370448057, "salesPercentile": 32.6}, {"sangwonCode": 3110158, "sangwonName": "중곡3동주민센터", "gu": "광진구", "lat": 37.56872649117577, "lon": 127.08097858537985, "survivalProbability": 0.726, "monthlyEstimateKRW": 362978203, "salesPercentile": 29.8}, {"sangwonCode": 3111004, "sangwonName": "삼전역 1번", "gu": "송파구", "lat": 37.50671672745682, "lon": 127.08515279573975, "survivalProbability": 0.726, "monthlyEstimateKRW": 373763788, "salesPercentile": 34.0}, {"sangwonCode": 3111028, "sangwonName": "문현중학교(장지역 1번)", "gu": "송파구", "lat": 37.48182002557716, "lon": 127.12733063992445, "survivalProbability": 0.726, "monthlyEstimateKRW": 343178779, "salesPercentile": 15.3}, {"sangwonCode": 3110357, "sangwonName": "가오리역 1번", "gu": "강북구", "lat": 37.643417950047436, "lon": 127.01782314180417, "survivalProbability": 0.726, "monthlyEstimateKRW": 333478926, "salesPercentile": 6.5}, {"sangwonCode": 3110244, "sangwonName": "중화역 4번", "gu": "중랑구", "lat": 37.60341653482143, "lon": 127.07827562121437, "survivalProbability": 0.726, "monthlyEstimateKRW": 347843655, "salesPercentile": 21.9}, {"sangwonCode": 3110247, "sangwonName": "먹골역 1번", "gu": "중랑구", "lat": 37.610200308625146, "lon": 127.07929071096504, "survivalProbability": 0.726, "monthlyEstimateKRW": 385034277, "salesPercentile": 37.2}, {"sangwonCode": 3111052, "sangwonName": "암사역 3번(천호동자전거거리)", "gu": "강동구", "lat": 37.54790198936116, "lon": 127.12510051019554, "survivalProbability": 0.726, "monthlyEstimateKRW": 422689697, "salesPercentile": 44.4}, {"sangwonCode": 3110846, "sangwonName": "남성역 1번", "gu": "동작구", "lat": 37.48110151163349, "lon": 126.97230002266343, "survivalProbability": 0.726, "monthlyEstimateKRW": 601923188, "salesPercentile": 63.0}, {"sangwonCode": 3110291, "sangwonName": "한성대입구역 3번", "gu": "성북구", "lat": 37.58566550742506, "lon": 127.00995195817097, "survivalProbability": 0.726, "monthlyEstimateKRW": 384675296, "salesPercentile": 37.0}, {"sangwonCode": 3120215, "sangwonName": "포스코사거리", "gu": "강남구", "lat": 37.50682411890163, "lon": 127.05626720528876, "survivalProbability": 0.726, "monthlyEstimateKRW": 281971491, "salesPercentile": 0.7}, {"sangwonCode": 3110288, "sangwonName": "동구여중", "gu": "성북구", "lat": 37.59111681326029, "lon": 127.00529903995135, "survivalProbability": 0.726, "monthlyEstimateKRW": 367261754, "salesPercentile": 31.9}, {"sangwonCode": 3111073, "sangwonName": "둔촌동역 1번(한산중학교)", "gu": "강동구", "lat": 37.53115405950385, "lon": 127.13970109005331, "survivalProbability": 0.726, "monthlyEstimateKRW": 365333149, "salesPercentile": 30.7}, {"sangwonCode": 3110703, "sangwonName": "개봉역", "gu": "구로구", "lat": 37.495184430322844, "lon": 126.85897502647666, "survivalProbability": 0.726, "monthlyEstimateKRW": 327367951, "salesPercentile": 2.6}, {"sangwonCode": 3120212, "sangwonName": "한티역", "gu": "강남구", "lat": 37.49742786864853, "lon": 127.05360263990124, "survivalProbability": 0.726, "monthlyEstimateKRW": 1072511566, "salesPercentile": 80.0}, {"sangwonCode": 3111077, "sangwonName": "길동주민센터(강동도서관)", "gu": "강동구", "lat": 37.537195500867774, "lon": 127.14326513418865, "survivalProbability": 0.726, "monthlyEstimateKRW": 1106154484, "salesPercentile": 80.7}, {"sangwonCode": 3111072, "sangwonName": "굽은다리역 1번(십자성마을)", "gu": "강동구", "lat": 37.54295769170239, "lon": 127.1392478634447, "survivalProbability": 0.726, "monthlyEstimateKRW": 349575407, "salesPercentile": 23.0}, {"sangwonCode": 3110698, "sangwonName": "개웅초등학교(개웅중학교)", "gu": "구로구", "lat": 37.48845594025623, "lon": 126.85324361249401, "survivalProbability": 0.726, "monthlyEstimateKRW": 326263746, "salesPercentile": 1.6}, {"sangwonCode": 3110278, "sangwonName": "망우본동주민센터", "gu": "중랑구", "lat": 37.60150500683647, "lon": 127.10352681954076, "survivalProbability": 0.726, "monthlyEstimateKRW": 623685628, "salesPercentile": 65.6}, {"sangwonCode": 3120219, "sangwonName": "은마아파트", "gu": "강남구", "lat": 37.49884807441995, "lon": 127.06060379417535, "survivalProbability": 0.726, "monthlyEstimateKRW": 505891688, "salesPercentile": 53.0}, {"sangwonCode": 3110299, "sangwonName": "정릉역 1번", "gu": "성북구", "lat": 37.60190042877038, "lon": 127.01798309800381, "survivalProbability": 0.726, "monthlyEstimateKRW": 362745100, "salesPercentile": 29.5}, {"sangwonCode": 3111078, "sangwonName": "굽은다리역 4번", "gu": "강동구", "lat": 37.54284297310578, "lon": 127.14473562941309, "survivalProbability": 0.726, "monthlyEstimateKRW": 377689278, "salesPercentile": 34.9}, {"sangwonCode": 3111067, "sangwonName": "강동구립성내도서관", "gu": "강동구", "lat": 37.531988464913475, "lon": 127.13498479934741, "survivalProbability": 0.726, "monthlyEstimateKRW": 364221996, "salesPercentile": 30.2}, {"sangwonCode": 3120220, "sangwonName": "대치역", "gu": "강남구", "lat": 37.494188996315316, "lon": 127.06228493383824, "survivalProbability": 0.726, "monthlyEstimateKRW": 349675031, "salesPercentile": 23.3}, {"sangwonCode": 3120209, "sangwonName": "강남구청(청담역_8번, 강남세무서)", "gu": "강남구", "lat": 37.51874742762321, "lon": 127.04951170686684, "survivalProbability": 0.726, "monthlyEstimateKRW": 369520356, "salesPercentile": 32.3}, {"sangwonCode": 3110695, "sangwonName": "개봉1동주민센터", "gu": "구로구", "lat": 37.50051860479138, "lon": 126.8517950693802, "survivalProbability": 0.726, "monthlyEstimateKRW": 434453397, "salesPercentile": 45.8}, {"sangwonCode": 3111064, "sangwonName": "둔촌동역 4번", "gu": "강동구", "lat": 37.52761260530839, "lon": 127.13232964353003, "survivalProbability": 0.726, "monthlyEstimateKRW": 527256128, "salesPercentile": 54.7}, {"sangwonCode": 3110272, "sangwonName": "신내1동주민센터", "gu": "중랑구", "lat": 37.60615847906632, "lon": 127.09842568909319, "survivalProbability": 0.726, "monthlyEstimateKRW": 579277640, "salesPercentile": 60.2}, {"sangwonCode": 3110694, "sangwonName": "세곡초등학교", "gu": "구로구", "lat": 37.50475669640574, "lon": 126.84736461127714, "survivalProbability": 0.726, "monthlyEstimateKRW": 348694043, "salesPercentile": 22.6}, {"sangwonCode": 3111085, "sangwonName": "묘곡초등학교(고덕아이파크아파트)", "gu": "강동구", "lat": 37.56094142583823, "lon": 127.1539043851388, "survivalProbability": 0.726, "monthlyEstimateKRW": 326942285, "salesPercentile": 2.3}, {"sangwonCode": 3111061, "sangwonName": "암사역 1번", "gu": "강동구", "lat": 37.55185075538313, "lon": 127.13119554025, "survivalProbability": 0.726, "monthlyEstimateKRW": 359769703, "salesPercentile": 28.4}, {"sangwonCode": 3110267, "sangwonName": "망우역 2번", "gu": "중랑구", "lat": 37.60077772897528, "lon": 127.08941586511447, "survivalProbability": 0.726, "monthlyEstimateKRW": 457839418, "salesPercentile": 48.6}, {"sangwonCode": 3120225, "sangwonName": "잠실새내역(신천)", "gu": "송파구", "lat": 37.51048475437836, "lon": 127.0825782728224, "survivalProbability": 0.726, "monthlyEstimateKRW": 1436120488, "salesPercentile": 87.0}, {"sangwonCode": 3110691, "sangwonName": "개봉중학교", "gu": "구로구", "lat": 37.50249143401964, "lon": 126.84449665369102, "survivalProbability": 0.726, "monthlyEstimateKRW": 323109248, "salesPercentile": 0.9}, {"sangwonCode": 3120204, "sangwonName": "르네상스호텔사거리", "gu": "강남구", "lat": 37.50309058777553, "lon": 127.04281749442562, "survivalProbability": 0.726, "monthlyEstimateKRW": 569683781, "salesPercentile": 58.4}, {"sangwonCode": 3111060, "sangwonName": "암사역 2번(서울강동초등학교)", "gu": "강동구", "lat": 37.54699551295604, "lon": 127.13016858602187, "survivalProbability": 0.726, "monthlyEstimateKRW": 912604442, "salesPercentile": 77.9}, {"sangwonCode": 3120203, "sangwonName": "강남구청역", "gu": "강남구", "lat": 37.51624600772093, "lon": 127.04068715258765, "survivalProbability": 0.726, "monthlyEstimateKRW": 391190656, "salesPercentile": 37.9}, {"sangwonCode": 3110314, "sangwonName": "종암경찰서", "gu": "성북구", "lat": 37.60114052292245, "lon": 127.03238736566581, "survivalProbability": 0.726, "monthlyEstimateKRW": 414827592, "salesPercentile": 43.5}, {"sangwonCode": 3110690, "sangwonName": "오류2동버들시장", "gu": "구로구", "lat": 37.49227211395636, "lon": 126.84304783057685, "survivalProbability": 0.726, "monthlyEstimateKRW": 609252306, "salesPercentile": 64.2}, {"sangwonCode": 3110713, "sangwonName": "구로보건소", "gu": "구로구", "lat": 37.50126053635339, "lon": 126.88723646192494, "survivalProbability": 0.726, "monthlyEstimateKRW": 362456703, "salesPercentile": 29.3}, {"sangwonCode": 3111059, "sangwonName": "강동역 4번(강풀만화거리)", "gu": "강동구", "lat": 37.533876788109865, "lon": 127.13032680682069, "survivalProbability": 0.726, "monthlyEstimateKRW": 540295939, "salesPercentile": 55.1}, {"sangwonCode": 3120228, "sangwonName": "석촌역(석촌호수)", "gu": "송파구", "lat": 37.50602362134798, "lon": 127.1065389661683, "survivalProbability": 0.726, "monthlyEstimateKRW": 481869399, "salesPercentile": 51.6}, {"sangwonCode": 3110262, "sangwonName": "상봉역 3번", "gu": "중랑구", "lat": 37.5943810926847, "lon": 127.08888734246219, "survivalProbability": 0.726, "monthlyEstimateKRW": 408503271, "salesPercentile": 41.6}, {"sangwonCode": 3110315, "sangwonName": "종암아이파크2차", "gu": "성북구", "lat": 37.59732899315395, "lon": 127.03359734683603, "survivalProbability": 0.726, "monthlyEstimateKRW": 359620901, "salesPercentile": 28.1}, {"sangwonCode": 3120202, "sangwonName": "압구정로데오역(압구정로데오)", "gu": "강남구", "lat": 37.526769907891094, "lon": 127.04013853060529, "survivalProbability": 0.726, "monthlyEstimateKRW": 404365200, "salesPercentile": 40.9}, {"sangwonCode": 3111089, "sangwonName": "상일여고(상일초등학교)", "gu": "강동구", "lat": 37.54811423179494, "lon": 127.17135024456684, "survivalProbability": 0.726, "monthlyEstimateKRW": 408920825, "salesPercentile": 42.1}, {"sangwonCode": 3111057, "sangwonName": "천호공원(해공체육문화센터)", "gu": "강동구", "lat": 37.54332876710307, "lon": 127.12987932321663, "survivalProbability": 0.726, "monthlyEstimateKRW": 332594774, "salesPercentile": 5.7}, {"sangwonCode": 3110714, "sangwonName": "구로4동주민센터", "gu": "구로구", "lat": 37.49132429193936, "lon": 126.88919631652536, "survivalProbability": 0.726, "monthlyEstimateKRW": 425261533, "salesPercentile": 44.9}, {"sangwonCode": 3120231, "sangwonName": "가락시장", "gu": "송파구", "lat": 37.49354890241443, "lon": 127.11173422450942, "survivalProbability": 0.726, "monthlyEstimateKRW": 1780258267, "salesPercentile": 94.7}, {"sangwonCode": 3110319, "sangwonName": "종암동주민센터", "gu": "성북구", "lat": 37.59923839992779, "lon": 127.03595359013545, "survivalProbability": 0.726, "monthlyEstimateKRW": 356987268, "salesPercentile": 27.7}, {"sangwonCode": 3110683, "sangwonName": "오류고등학교", "gu": "구로구", "lat": 37.49882785373005, "lon": 126.82755240000924, "survivalProbability": 0.726, "monthlyEstimateKRW": 342516864, "salesPercentile": 14.2}, {"sangwonCode": 3120198, "sangwonName": "구역삼세무서", "gu": "강남구", "lat": 37.49553304713569, "lon": 127.03720426859347, "survivalProbability": 0.726, "monthlyEstimateKRW": 609221217, "salesPercentile": 64.0}, {"sangwonCode": 3120234, "sangwonName": "가락시장역", "gu": "송파구", "lat": 37.494695372813744, "lon": 127.11872437303792, "survivalProbability": 0.726, "monthlyEstimateKRW": 1510584390, "salesPercentile": 88.8}, {"sangwonCode": 3110255, "sangwonName": "상봉역 4번", "gu": "중랑구", "lat": 37.593691768235416, "lon": 127.0827833599205, "survivalProbability": 0.726, "monthlyEstimateKRW": 420909644, "salesPercentile": 44.0}, {"sangwonCode": 3110676, "sangwonName": "등촌역 7번", "gu": "강서구", "lat": 37.54994962347848, "lon": 126.86090887758043, "survivalProbability": 0.726, "monthlyEstimateKRW": 434898796, "salesPercentile": 46.0}, {"sangwonCode": 3120197, "sangwonName": "역삼역", "gu": "강남구", "lat": 37.500398869563554, "lon": 127.03595138126002, "survivalProbability": 0.726, "monthlyEstimateKRW": 275060500, "salesPercentile": 0.5}, {"sangwonCode": 3110327, "sangwonName": "상월곡역 2번", "gu": "성북구", "lat": 37.60873878305574, "lon": 127.049877085475, "survivalProbability": 0.726, "monthlyEstimateKRW": 366441434, "salesPercentile": 31.4}, {"sangwonCode": 3120235, "sangwonName": "문정역", "gu": "송파구", "lat": 37.48551288001509, "lon": 127.11994227871679, "survivalProbability": 0.726, "monthlyEstimateKRW": 1632048738, "salesPercentile": 90.9}, {"sangwonCode": 3110674, "sangwonName": "강서구청가양동별관", "gu": "강서구", "lat": 37.56098595628063, "lon": 126.86016400106026, "survivalProbability": 0.726, "monthlyEstimateKRW": 665250982, "salesPercentile": 71.4}, {"sangwonCode": 3120003, "sangwonName": "광화문역", "gu": "종로구", "lat": 37.57196808426292, "lon": 126.97459828971189, "survivalProbability": 0.726, "monthlyEstimateKRW": 380596475, "salesPercentile": 35.8}, {"sangwonCode": 3110252, "sangwonName": "장안제일시장", "gu": "중랑구", "lat": 37.58527730400473, "lon": 127.0816305342528, "survivalProbability": 0.726, "monthlyEstimateKRW": 342984181, "salesPercentile": 14.9}, {"sangwonCode": 3110251, "sangwonName": "장안중학교", "gu": "중랑구", "lat": 37.59968387623888, "lon": 127.08204261261062, "survivalProbability": 0.726, "monthlyEstimateKRW": 347742048, "salesPercentile": 21.6}, {"sangwonCode": 3110333, "sangwonName": "돌곶이역 5번", "gu": "성북구", "lat": 37.60947324115329, "lon": 127.0592890795929, "survivalProbability": 0.726, "monthlyEstimateKRW": 341998251, "salesPercentile": 13.5}, {"sangwonCode": 3120237, "sangwonName": "경찰병원역", "gu": "송파구", "lat": 37.49717102650773, "lon": 127.12080906154488, "survivalProbability": 0.726, "monthlyEstimateKRW": 504895315, "salesPercentile": 52.6}, {"sangwonCode": 3111046, "sangwonName": "마천역(마천초등학교)", "gu": "송파구", "lat": 37.495999240540726, "lon": 127.15239139655954, "survivalProbability": 0.726, "monthlyEstimateKRW": 593133197, "salesPercentile": 62.6}, {"sangwonCode": 3110249, "sangwonName": "중화역 1번", "gu": "중랑구", "lat": 37.60427126674587, "lon": 127.08007714819284, "survivalProbability": 0.726, "monthlyEstimateKRW": 375970041, "salesPercentile": 34.2}, {"sangwonCode": 3110671, "sangwonName": "등촌1동주민센터", "gu": "강서구", "lat": 37.55565994906193, "lon": 126.8592232956464, "survivalProbability": 0.726, "monthlyEstimateKRW": 350304352, "salesPercentile": 24.2}, {"sangwonCode": 3120240, "sangwonName": "개롱역", "gu": "송파구", "lat": 37.49604787721762, "lon": 127.13460345002983, "survivalProbability": 0.726, "monthlyEstimateKRW": 1022205650, "salesPercentile": 79.3}, {"sangwonCode": 3111043, "sangwonName": "마천공원", "gu": "송파구", "lat": 37.500756183807006, "lon": 127.14553646050463, "survivalProbability": 0.726, "monthlyEstimateKRW": 337635141, "salesPercentile": 10.0}, {"sangwonCode": 3110345, "sangwonName": "솔밭공원역 2번", "gu": "강북구", "lat": 37.65729376201776, "lon": 127.01261338082156, "survivalProbability": 0.726, "monthlyEstimateKRW": 327980279, "salesPercentile": 2.8}, {"sangwonCode": 3120241, "sangwonName": "거여역", "gu": "송파구", "lat": 37.49283633341059, "lon": 127.1455437075945, "survivalProbability": 0.726, "monthlyEstimateKRW": 431233688, "salesPercentile": 45.6}, {"sangwonCode": 3120190, "sangwonName": "강남을지병원", "gu": "강남구", "lat": 37.520006819268275, "lon": 127.02825732811267, "survivalProbability": 0.726, "monthlyEstimateKRW": 553355375, "salesPercentile": 56.3}, {"sangwonCode": 3110243, "sangwonName": "중랑노인종합복지관", "gu": "중랑구", "lat": 37.58811789372319, "lon": 127.0779878628827, "survivalProbability": 0.726, "monthlyEstimateKRW": 342876950, "salesPercentile": 14.4}, {"sangwonCode": 3111039, "sangwonName": "벌말어린이공원", "gu": "송파구", "lat": 37.50217000650291, "lon": 127.13867447153532, "survivalProbability": 0.726, "monthlyEstimateKRW": 343178779, "salesPercentile": 15.3}, {"sangwonCode": 3110351, "sangwonName": "수유북부시장옆", "gu": "강북구", "lat": 37.63627345900942, "lon": 127.01557817756292, "survivalProbability": 0.726, "monthlyEstimateKRW": 326878173, "salesPercentile": 2.1}, {"sangwonCode": 3111038, "sangwonName": "보인중학교", "gu": "송파구", "lat": 37.49972782218089, "lon": 127.13906576695737, "survivalProbability": 0.726, "monthlyEstimateKRW": 404001471, "salesPercentile": 40.7}, {"sangwonCode": 3110352, "sangwonName": "수유1동주민센터", "gu": "강북구", "lat": 37.6301286649574, "lon": 127.01610934145873, "survivalProbability": 0.726, "monthlyEstimateKRW": 345386953, "salesPercentile": 19.3}, {"sangwonCode": 3120189, "sangwonName": "강남역", "gu": "서초구", "lat": 37.497571920870165, "lon": 127.02775129423334, "survivalProbability": 0.726, "monthlyEstimateKRW": 656615953, "salesPercentile": 70.7}, {"sangwonCode": 3110241, "sangwonName": "먹골역 5번", "gu": "중랑구", "lat": 37.60822843634927, "lon": 127.07734066163741, "survivalProbability": 0.726, "monthlyEstimateKRW": 342978557, "salesPercentile": 14.7}, {"sangwonCode": 3120244, "sangwonName": "암사역", "gu": "강동구", "lat": 37.55137688969368, "lon": 127.12785627932669, "survivalProbability": 0.726, "monthlyEstimateKRW": 336462730, "salesPercentile": 9.8}, {"sangwonCode": 3110240, "sangwonName": "태릉시장 특화거리", "gu": "중랑구", "lat": 37.598056612126726, "lon": 127.07679791399993, "survivalProbability": 0.726, "monthlyEstimateKRW": 345597581, "salesPercentile": 19.8}, {"sangwonCode": 3110727, "sangwonName": "독산역 1번 출입구", "gu": "금천구", "lat": 37.4646654230754, "lon": 126.89133814646827, "survivalProbability": 0.726, "monthlyEstimateKRW": 336013965, "salesPercentile": 8.6}, {"sangwonCode": 3110237, "sangwonName": "메가박스 상봉", "gu": "중랑구", "lat": 37.591408615387756, "lon": 127.07474165969481, "survivalProbability": 0.726, "monthlyEstimateKRW": 343434611, "salesPercentile": 16.3}, {"sangwonCode": 3120245, "sangwonName": "둔촌역", "gu": "강동구", "lat": 37.526339264817906, "lon": 127.13491805500612, "survivalProbability": 0.726, "monthlyEstimateKRW": 355535752, "salesPercentile": 26.5}, {"sangwonCode": 3120009, "sangwonName": "종로3가역", "gu": "종로구", "lat": 37.57165510209864, "lon": 126.99069513429947, "survivalProbability": 0.726, "monthlyEstimateKRW": 645968799, "salesPercentile": 68.6}, {"sangwonCode": 3111032, "sangwonName": "방이역 1번", "gu": "송파구", "lat": 37.50879300826817, "lon": 127.13021532267395, "survivalProbability": 0.726, "monthlyEstimateKRW": 336356158, "salesPercentile": 9.2}, {"sangwonCode": 3110233, "sangwonName": "중랑역 1번", "gu": "중랑구", "lat": 37.59596815056542, "lon": 127.07391960683593, "survivalProbability": 0.726, "monthlyEstimateKRW": 383099347, "salesPercentile": 36.5}, {"sangwonCode": 3110730, "sangwonName": "서울축산농협 독산역지점(독산파출소)", "gu": "금천구", "lat": 37.46490291619055, "lon": 126.89490976198287, "survivalProbability": 0.726, "monthlyEstimateKRW": 2048232062, "salesPercentile": 97.9}, {"sangwonCode": 3120247, "sangwonName": "굽은다리역", "gu": "강동구", "lat": 37.54581880892867, "lon": 127.14264794652553, "survivalProbability": 0.726, "monthlyEstimateKRW": 339233486, "salesPercentile": 11.4}, {"sangwonCode": 3111030, "sangwonName": "방이역 2번", "gu": "송파구", "lat": 37.506334079138135, "lon": 127.12947590742026, "survivalProbability": 0.726, "monthlyEstimateKRW": 343864031, "salesPercentile": 17.8}, {"sangwonCode": 3110662, "sangwonName": "까치산역 1번", "gu": "강서구", "lat": 37.53485244846705, "lon": 126.84913619684757, "survivalProbability": 0.726, "monthlyEstimateKRW": 354678761, "salesPercentile": 26.0}, {"sangwonCode": 3110229, "sangwonName": "장평중학교", "gu": "동대문구", "lat": 37.56456190380795, "lon": 127.06999492654315, "survivalProbability": 0.726, "monthlyEstimateKRW": 360061902, "salesPercentile": 28.8}, {"sangwonCode": 3120248, "sangwonName": "명일역", "gu": "강동구", "lat": 37.55124972345866, "lon": 127.1443784336575, "survivalProbability": 0.726, "monthlyEstimateKRW": 425360945, "salesPercentile": 45.1}, {"sangwonCode": 3110732, "sangwonName": "가산초등학교(세일중학교)", "gu": "금천구", "lat": 37.475906522035814, "lon": 126.89749458115419, "survivalProbability": 0.726, "monthlyEstimateKRW": 545389635, "salesPercentile": 55.3}, {"sangwonCode": 3110228, "sangwonName": "장안근린공원", "gu": "동대문구", "lat": 37.5758335619501, "lon": 127.0696432221665, "survivalProbability": 0.726, "monthlyEstimateKRW": 611976665, "salesPercentile": 64.7}, {"sangwonCode": 3120249, "sangwonName": "고덕역", "gu": "강동구", "lat": 37.553416674247536, "lon": 127.15499797751727, "survivalProbability": 0.726, "monthlyEstimateKRW": 326257396, "salesPercentile": 1.4}, {"sangwonCode": 3130001, "sangwonName": "통인시장", "gu": "종로구", "lat": 37.580589524576354, "lon": 126.97001029915941, "survivalProbability": 0.726, "monthlyEstimateKRW": 1161093049, "salesPercentile": 82.1}, {"sangwonCode": 3110735, "sangwonName": "말미고개", "gu": "금천구", "lat": 37.462708144784365, "lon": 126.89915158569944, "survivalProbability": 0.726, "monthlyEstimateKRW": 624330420, "salesPercentile": 65.8}, {"sangwonCode": 3110660, "sangwonName": "등촌3동주민센터", "gu": "강서구", "lat": 37.55832107704375, "lon": 126.84728936932454, "survivalProbability": 0.726, "monthlyEstimateKRW": 331324574, "salesPercentile": 4.7}, {"sangwonCode": 3110370, "sangwonName": "도봉세무서", "gu": "강북구", "lat": 37.61866612696216, "lon": 127.0269693758849, "survivalProbability": 0.726, "monthlyEstimateKRW": 331851626, "salesPercentile": 5.1}, {"sangwonCode": 3110371, "sangwonName": "삼양입구사거리", "gu": "강북구", "lat": 37.6164314927593, "lon": 127.02776142881001, "survivalProbability": 0.726, "monthlyEstimateKRW": 336189672, "salesPercentile": 8.8}, {"sangwonCode": 3130004, "sangwonName": "낙원시장(낙원지하시장(대일상가))", "gu": "종로구", "lat": 37.572772081328125, "lon": 126.98788764600079, "survivalProbability": 0.726, "monthlyEstimateKRW": 671035482, "salesPercentile": 71.9}, {"sangwonCode": 3120182, "sangwonName": "양재시민의숲역(양재동꽃시장, aT센터)", "gu": "서초구", "lat": 37.469384734597455, "lon": 127.04036782735055, "survivalProbability": 0.726, "monthlyEstimateKRW": 347217129, "salesPercentile": 20.9}, {"sangwonCode": 3110226, "sangwonName": "장안1동주민센터", "gu": "동대문구", "lat": 37.568960725192056, "lon": 127.06660322921046, "survivalProbability": 0.726, "monthlyEstimateKRW": 2234751620, "salesPercentile": 100.0}, {"sangwonCode": 3130007, "sangwonName": "광장시장(광장전통시장)", "gu": "종로구", "lat": 37.57002466717994, "lon": 126.99981888734061, "survivalProbability": 0.726, "monthlyEstimateKRW": 1112450527, "salesPercentile": 80.9}, {"sangwonCode": 3111026, "sangwonName": "문정역 2번", "gu": "송파구", "lat": 37.48402890980623, "lon": 127.12601152245665, "survivalProbability": 0.726, "monthlyEstimateKRW": 639965689, "salesPercentile": 68.4}, {"sangwonCode": 3110736, "sangwonName": "독산119안전센터", "gu": "금천구", "lat": 37.46757501512585, "lon": 126.90081805088234, "survivalProbability": 0.726, "monthlyEstimateKRW": 608515326, "salesPercentile": 63.7}, {"sangwonCode": 3110225, "sangwonName": "촬영소사거리", "gu": "동대문구", "lat": 37.569647147721206, "lon": 127.06358153868928, "survivalProbability": 0.726, "monthlyEstimateKRW": 350932660, "salesPercentile": 24.4}, {"sangwonCode": 3110224, "sangwonName": "외대앞역 2번", "gu": "동대문구", "lat": 37.59425330406559, "lon": 127.06353452878629, "survivalProbability": 0.726, "monthlyEstimateKRW": 365722555, "salesPercentile": 31.2}, {"sangwonCode": 3130015, "sangwonName": "창신골목시장", "gu": "종로구", "lat": 37.57325869940521, "lon": 127.01129739060529, "survivalProbability": 0.726, "monthlyEstimateKRW": 592999263, "salesPercentile": 62.3}, {"sangwonCode": 3110738, "sangwonName": "문성초등학교", "gu": "금천구", "lat": 37.472305721353386, "lon": 126.90129790602968, "survivalProbability": 0.726, "monthlyEstimateKRW": 328512221, "salesPercentile": 3.0}, {"sangwonCode": 3110376, "sangwonName": "수송초등학교", "gu": "강북구", "lat": 37.63939671921139, "lon": 127.03142958043486, "survivalProbability": 0.726, "monthlyEstimateKRW": 373573528, "salesPercentile": 33.7}, {"sangwonCode": 3110659, "sangwonName": "화곡역 4번", "gu": "강서구", "lat": 37.54056131421404, "lon": 126.84644302224991, "survivalProbability": 0.726, "monthlyEstimateKRW": 408845703, "salesPercentile": 41.9}, {"sangwonCode": 3130024, "sangwonName": "남대문시장(자유상가)", "gu": "중구", "lat": 37.55957999880267, "lon": 126.97761307341452, "survivalProbability": 0.726, "monthlyEstimateKRW": 1772243642, "salesPercentile": 94.0}, {"sangwonCode": 3120178, "sangwonName": "신사역", "gu": "서초구", "lat": 37.515963075171285, "lon": 127.01955735958383, "survivalProbability": 0.726, "monthlyEstimateKRW": 466697343, "salesPercentile": 49.1}, {"sangwonCode": 3110219, "sangwonName": "삼육보건대학교", "gu": "동대문구", "lat": 37.587713860831755, "lon": 127.06017759350853, "survivalProbability": 0.726, "monthlyEstimateKRW": 548669310, "salesPercentile": 55.8}, {"sangwonCode": 3130032, "sangwonName": "인현시장", "gu": "중구", "lat": 37.56324907476504, "lon": 126.9950651270371, "survivalProbability": 0.726, "monthlyEstimateKRW": 682406703, "salesPercentile": 72.6}, {"sangwonCode": 3110387, "sangwonName": "쌍문초등학교", "gu": "도봉구", "lat": 37.650408392580964, "lon": 127.02446520633931, "survivalProbability": 0.726, "monthlyEstimateKRW": 335124956, "salesPercentile": 7.9}, {"sangwonCode": 3130036, "sangwonName": "중부시장(신중부시장)", "gu": "중구", "lat": 37.56561879780388, "lon": 127.00026033411363, "survivalProbability": 0.726, "monthlyEstimateKRW": 1240733958, "salesPercentile": 84.2}, {"sangwonCode": 3110741, "sangwonName": "독산2동주민센터", "gu": "금천구", "lat": 37.46383656022357, "lon": 126.9017046630445, "survivalProbability": 0.726, "monthlyEstimateKRW": 540159785, "salesPercentile": 54.9}, {"sangwonCode": 3130042, "sangwonName": "약수시장", "gu": "중구", "lat": 37.55285116043482, "lon": 127.01096611803986, "survivalProbability": 0.726, "monthlyEstimateKRW": 1445596859, "salesPercentile": 87.4}, {"sangwonCode": 3120173, "sangwonName": "교대역(법원.검찰청)", "gu": "서초구", "lat": 37.49370893679033, "lon": 127.0147795736092, "survivalProbability": 0.726, "monthlyEstimateKRW": 263071266, "salesPercentile": 0.2}, {"sangwonCode": 3110742, "sangwonName": "KT금천빌딩(금천구시설관리공단)", "gu": "금천구", "lat": 37.44707867860115, "lon": 126.90285669090942, "survivalProbability": 0.726, "monthlyEstimateKRW": 589958021, "salesPercentile": 61.9}, {"sangwonCode": 3110211, "sangwonName": "전곡마을마당공원", "gu": "동대문구", "lat": 37.5798238453243, "lon": 127.05465790447084, "survivalProbability": 0.726, "monthlyEstimateKRW": 475608497, "salesPercentile": 50.9}, {"sangwonCode": 3130052, "sangwonName": "서울중앙시장(신중앙시장)", "gu": "중구", "lat": 37.566941725252974, "lon": 127.01905000259286, "survivalProbability": 0.726, "monthlyEstimateKRW": 1744918591, "salesPercentile": 93.3}, {"sangwonCode": 3130053, "sangwonName": "백학시장", "gu": "중구", "lat": 37.564148546707614, "lon": 127.01960390526173, "survivalProbability": 0.726, "monthlyEstimateKRW": 899577367, "salesPercentile": 77.2}, {"sangwonCode": 3110394, "sangwonName": "방학중학교", "gu": "도봉구", "lat": 37.66664136923422, "lon": 127.03520401893273, "survivalProbability": 0.726, "monthlyEstimateKRW": 607670438, "salesPercentile": 63.5}, {"sangwonCode": 3130055, "sangwonName": "황학시장(서울중앙시장, 신중앙시장)", "gu": "중구", "lat": 37.567292714343196, "lon": 127.02138183226494, "survivalProbability": 0.726, "monthlyEstimateKRW": 1521058875, "salesPercentile": 89.1}, {"sangwonCode": 3130056, "sangwonName": "용산용문시장", "gu": "용산구", "lat": 37.53643776809258, "lon": 126.96020703642986, "survivalProbability": 0.726, "monthlyEstimateKRW": 1530628613, "salesPercentile": 89.3}, {"sangwonCode": 3111013, "sangwonName": "송파나루역 1번(송리단길)", "gu": "송파구", "lat": 37.509382852628754, "lon": 127.10820636509024, "survivalProbability": 0.726, "monthlyEstimateKRW": 393572223, "salesPercentile": 38.1}, {"sangwonCode": 3120171, "sangwonName": "서초3동사거리", "gu": "서초구", "lat": 37.48268994804575, "lon": 127.01176991309515, "survivalProbability": 0.726, "monthlyEstimateKRW": 386043696, "salesPercentile": 37.4}, {"sangwonCode": 3110744, "sangwonName": "독산동성당", "gu": "금천구", "lat": 37.47067726744691, "lon": 126.90418270467585, "survivalProbability": 0.726, "monthlyEstimateKRW": 343551860, "salesPercentile": 16.5}, {"sangwonCode": 3130057, "sangwonName": "만리시장", "gu": "용산구", "lat": 37.55130537483099, "lon": 126.96367336291168, "survivalProbability": 0.726, "monthlyEstimateKRW": 820729976, "salesPercentile": 74.9}, {"sangwonCode": 3130058, "sangwonName": "이촌종합시장", "gu": "용산구", "lat": 37.52061117520384, "lon": 126.97476276716449, "survivalProbability": 0.726, "monthlyEstimateKRW": 887075262, "salesPercentile": 77.0}, {"sangwonCode": 3130059, "sangwonName": "후암시장", "gu": "용산구", "lat": 37.55011025033981, "lon": 126.97626923912605, "survivalProbability": 0.726, "monthlyEstimateKRW": 634443884, "salesPercentile": 67.7}, {"sangwonCode": 3110397, "sangwonName": "도봉산입구", "gu": "도봉구", "lat": 37.684497981920416, "lon": 127.03777459924743, "survivalProbability": 0.726, "monthlyEstimateKRW": 422771086, "salesPercentile": 44.7}, {"sangwonCode": 3110654, "sangwonName": "까치산역 4번", "gu": "강서구", "lat": 37.53303109083655, "lon": 126.8412427376533, "survivalProbability": 0.726, "monthlyEstimateKRW": 373318904, "salesPercentile": 33.5}, {"sangwonCode": 3130063, "sangwonName": "신금호역 골목형상점가", "gu": "성동구", "lat": 37.55379600299772, "lon": 127.02012177910736, "survivalProbability": 0.726, "monthlyEstimateKRW": 653304984, "salesPercentile": 70.2}, {"sangwonCode": 3110199, "sangwonName": "홍릉시장", "gu": "동대문구", "lat": 37.58473921335797, "lon": 127.04263778068552, "survivalProbability": 0.726, "monthlyEstimateKRW": 467369202, "salesPercentile": 49.3}, {"sangwonCode": 3120169, "sangwonName": "서초역", "gu": "서초구", "lat": 37.49146604063206, "lon": 127.0085938332724, "survivalProbability": 0.726, "monthlyEstimateKRW": 450489916, "salesPercentile": 47.7}, {"sangwonCode": 3130064, "sangwonName": "금남시장", "gu": "성동구", "lat": 37.54854279302089, "lon": 127.02229309489861, "survivalProbability": 0.726, "monthlyEstimateKRW": 628958927, "salesPercentile": 66.7}, {"sangwonCode": 3110745, "sangwonName": "독산동정훈단지", "gu": "금천구", "lat": 37.46594683806725, "lon": 126.90403048852814, "survivalProbability": 0.726, "monthlyEstimateKRW": 1475112291, "salesPercentile": 87.9}, {"sangwonCode": 3130065, "sangwonName": "무학봉상점가", "gu": "성동구", "lat": 37.56179460093203, "lon": 127.0306273084275, "survivalProbability": 0.726, "monthlyEstimateKRW": 560323586, "salesPercentile": 57.7}, {"sangwonCode": 3110195, "sangwonName": "동대문구청", "gu": "동대문구", "lat": 37.57615342395652, "lon": 127.04070840517555, "survivalProbability": 0.726, "monthlyEstimateKRW": 365707144, "salesPercentile": 30.9}, {"sangwonCode": 3120167, "sangwonName": "고속터미널(고속터미널역)", "gu": "서초구", "lat": 37.50505341252054, "lon": 127.00525902182616, "survivalProbability": 0.726, "monthlyEstimateKRW": 344525889, "salesPercentile": 19.0}, {"sangwonCode": 3130066, "sangwonName": "행당시장상점가", "gu": "성동구", "lat": 37.56119020691093, "lon": 127.0333094753789, "survivalProbability": 0.726, "monthlyEstimateKRW": 552201310, "salesPercentile": 56.0}, {"sangwonCode": 3130067, "sangwonName": "왕십리도선동상점가", "gu": "성동구", "lat": 37.564235292738104, "lon": 127.03429555496496, "survivalProbability": 0.726, "monthlyEstimateKRW": 1746416940, "salesPercentile": 93.5}, {"sangwonCode": 3110400, "sangwonName": "도봉구보건소", "gu": "도봉구", "lat": 37.6590088057298, "lon": 127.03917831065678, "survivalProbability": 0.726, "monthlyEstimateKRW": 335625851, "salesPercentile": 8.4}, {"sangwonCode": 3120166, "sangwonName": "방배역", "gu": "서초구", "lat": 37.48166335251674, "lon": 126.99726390009168, "survivalProbability": 0.726, "monthlyEstimateKRW": 435140478, "salesPercentile": 46.3}, {"sangwonCode": 3110402, "sangwonName": "도봉구 정병원", "gu": "도봉구", "lat": 37.6617477362968, "lon": 127.03933841839088, "survivalProbability": 0.726, "monthlyEstimateKRW": 325359545, "salesPercentile": 1.2}, {"sangwonCode": 3110651, "sangwonName": "화원중학교", "gu": "강서구", "lat": 37.53644305357173, "lon": 126.83915364557924, "survivalProbability": 0.726, "monthlyEstimateKRW": 333804531, "salesPercentile": 7.7}, {"sangwonCode": 3111007, "sangwonName": "석촌고분역 4번", "gu": "송파구", "lat": 37.499943567584296, "lon": 127.09387561308928, "survivalProbability": 0.726, "monthlyEstimateKRW": 396659247, "salesPercentile": 39.5}, {"sangwonCode": 3110188, "sangwonName": "용두동신동아아파트", "gu": "동대문구", "lat": 37.57211950664692, "lon": 127.0325219523249, "survivalProbability": 0.726, "monthlyEstimateKRW": 398037834, "salesPercentile": 40.2}, {"sangwonCode": 3110403, "sangwonName": "방학1동주민센터", "gu": "도봉구", "lat": 37.66485586862868, "lon": 127.0400880977698, "survivalProbability": 0.726, "monthlyEstimateKRW": 331086094, "salesPercentile": 4.2}, {"sangwonCode": 3130070, "sangwonName": "뚝섬역상점가", "gu": "성동구", "lat": 37.548444588661376, "lon": 127.04910132457829, "survivalProbability": 0.726, "monthlyEstimateKRW": 953775534, "salesPercentile": 78.4}, {"sangwonCode": 3110187, "sangwonName": "제기동역 6번", "gu": "동대문구", "lat": 37.576083873726574, "lon": 127.03255763774018, "survivalProbability": 0.726, "monthlyEstimateKRW": 395751273, "salesPercentile": 39.3}, {"sangwonCode": 3110749, "sangwonName": "금산초등학교(금천고등학교)", "gu": "금천구", "lat": 37.44205287827401, "lon": 126.90514583518677, "survivalProbability": 0.726, "monthlyEstimateKRW": 335538701, "salesPercentile": 8.1}, {"sangwonCode": 3111006, "sangwonName": "석촌고분역 1번", "gu": "송파구", "lat": 37.50490803067036, "lon": 127.09397230648412, "survivalProbability": 0.726, "monthlyEstimateKRW": 469225155, "salesPercentile": 49.8}, {"sangwonCode": 3130072, "sangwonName": "성동용답상가시장", "gu": "성동구", "lat": 37.56397605579394, "lon": 127.05309567240342, "survivalProbability": 0.726, "monthlyEstimateKRW": 1100299820, "salesPercentile": 80.5}, {"sangwonCode": 3110404, "sangwonName": "신창초등학교", "gu": "도봉구", "lat": 37.63624951166753, "lon": 127.04051457750556, "survivalProbability": 0.726, "monthlyEstimateKRW": 469302292, "salesPercentile": 50.0}, {"sangwonCode": 3120162, "sangwonName": "방배동카페골목", "gu": "서초구", "lat": 37.495754294560726, "lon": 126.98580805606072, "survivalProbability": 0.726, "monthlyEstimateKRW": 344525889, "salesPercentile": 19.0}, {"sangwonCode": 3110750, "sangwonName": "시흥4동주민센터(서울신흥초등학교)", "gu": "금천구", "lat": 37.45774067716475, "lon": 126.90659536161563, "survivalProbability": 0.726, "monthlyEstimateKRW": 333377319, "salesPercentile": 6.3}, {"sangwonCode": 3130074, "sangwonName": "영동교골목시장", "gu": "광진구", "lat": 37.53816614249563, "lon": 127.06384898175953, "survivalProbability": 0.726, "monthlyEstimateKRW": 573787889, "salesPercentile": 59.3}, {"sangwonCode": 3130076, "sangwonName": "능동로골목시장", "gu": "광진구", "lat": 37.535164102322085, "lon": 127.06693521742869, "survivalProbability": 0.726, "monthlyEstimateKRW": 580197411, "salesPercentile": 60.7}, {"sangwonCode": 3110405, "sangwonName": "방학역 1번", "gu": "도봉구", "lat": 37.66914421552273, "lon": 127.04101983972981, "survivalProbability": 0.726, "monthlyEstimateKRW": 555443607, "salesPercentile": 57.0}, {"sangwonCode": 3130078, "sangwonName": "화양제일골목시장", "gu": "광진구", "lat": 37.54327199835248, "lon": 127.0688547838515, "survivalProbability": 0.726, "monthlyEstimateKRW": 616163215, "salesPercentile": 64.9}, {"sangwonCode": 3130081, "sangwonName": "자양골목전통시장(자양골목시장)", "gu": "광진구", "lat": 37.534264211958636, "lon": 127.0796628112492, "survivalProbability": 0.726, "monthlyEstimateKRW": 1634856759, "salesPercentile": 91.2}, {"sangwonCode": 3130082, "sangwonName": "면곡골목시장", "gu": "광진구", "lat": 37.5710869023865, "lon": 127.08126413340774, "survivalProbability": 0.726, "monthlyEstimateKRW": 635919494, "salesPercentile": 67.9}, {"sangwonCode": 3120160, "sangwonName": "사당역(사당)", "gu": "서초구", "lat": 37.47752639125283, "lon": 126.98206935862181, "survivalProbability": 0.726, "monthlyEstimateKRW": 394711252, "salesPercentile": 38.4}, {"sangwonCode": 3130083, "sangwonName": "중곡제일시장(중곡제일골목시장, 광성시장)", "gu": "광진구", "lat": 37.56381589690654, "lon": 127.08122227894687, "survivalProbability": 0.726, "monthlyEstimateKRW": 1738342250, "salesPercentile": 92.8}, {"sangwonCode": 3130084, "sangwonName": "신성시장(신성골목시장)", "gu": "광진구", "lat": 37.55799920934066, "lon": 127.08853852877327, "survivalProbability": 0.726, "monthlyEstimateKRW": 878051927, "salesPercentile": 76.5}, {"sangwonCode": 3110407, "sangwonName": "도봉역 2번", "gu": "도봉구", "lat": 37.675496140869164, "lon": 127.04096665862696, "survivalProbability": 0.726, "monthlyEstimateKRW": 405895584, "salesPercentile": 41.2}, {"sangwonCode": 3110752, "sangwonName": "한울중학교", "gu": "금천구", "lat": 37.46170696090743, "lon": 126.90894149141734, "survivalProbability": 0.726, "monthlyEstimateKRW": 332951653, "salesPercentile": 6.0}, {"sangwonCode": 3110647, "sangwonName": "화곡역 5번", "gu": "강서구", "lat": 37.5386573219103, "lon": 126.8375535045462, "survivalProbability": 0.726, "monthlyEstimateKRW": 359868382, "salesPercentile": 28.6}, {"sangwonCode": 3130086, "sangwonName": "서울약령시장", "gu": "동대문구", "lat": 37.58210104091711, "lon": 127.0375190174434, "survivalProbability": 0.726, "monthlyEstimateKRW": 574309172, "salesPercentile": 59.5}, {"sangwonCode": 3110174, "sangwonName": "아차산역 1번", "gu": "광진구", "lat": 37.55541144781092, "lon": 127.0910365963174, "survivalProbability": 0.726, "monthlyEstimateKRW": 396878740, "salesPercentile": 39.8}, {"sangwonCode": 3130087, "sangwonName": "경동광성상가(경동시장)", "gu": "동대문구", "lat": 37.58128966613406, "lon": 127.03900169348186, "survivalProbability": 0.726, "monthlyEstimateKRW": 1738144383, "salesPercentile": 92.6}, {"sangwonCode": 3130088, "sangwonName": "경동시장", "gu": "동대문구", "lat": 37.57903714829214, "lon": 127.03910240665606, "survivalProbability": 0.726, "monthlyEstimateKRW": 2210684272, "salesPercentile": 99.1}, {"sangwonCode": 3110409, "sangwonName": "창동역 2번", "gu": "도봉구", "lat": 37.65508805919096, "lon": 127.0433919186031, "survivalProbability": 0.726, "monthlyEstimateKRW": 330805466, "salesPercentile": 4.0}, {"sangwonCode": 3130090, "sangwonName": "청량리종합시장", "gu": "동대문구", "lat": 37.579676353298325, "lon": 127.04058579213896, "survivalProbability": 0.726, "monthlyEstimateKRW": 665718504, "salesPercentile": 71.6}, {"sangwonCode": 3130092, "sangwonName": "청량리농수산물시장", "gu": "동대문구", "lat": 37.580766540009925, "lon": 127.04063166858508, "survivalProbability": 0.726, "monthlyEstimateKRW": 570681875, "salesPercentile": 58.8}, {"sangwonCode": 3110170, "sangwonName": "동대부여고", "gu": "광진구", "lat": 37.54176314249194, "lon": 127.08864379358764, "survivalProbability": 0.726, "monthlyEstimateKRW": 357820877, "salesPercentile": 27.9}, {"sangwonCode": 3110410, "sangwonName": "방학역 2번", "gu": "도봉구", "lat": 37.66910685916636, "lon": 127.04464688230316, "survivalProbability": 0.726, "monthlyEstimateKRW": 333498432, "salesPercentile": 6.7}, {"sangwonCode": 3130094, "sangwonName": "청량리청과물시장", "gu": "동대문구", "lat": 37.57992785188444, "lon": 127.0427935313661, "survivalProbability": 0.726, "monthlyEstimateKRW": 1772266710, "salesPercentile": 94.2}, {"sangwonCode": 3110646, "sangwonName": "푸른들청소년도서관", "gu": "강서구", "lat": 37.54405127997964, "lon": 126.83536920594427, "survivalProbability": 0.726, "monthlyEstimateKRW": 355278149, "salesPercentile": 26.3}, {"sangwonCode": 3111003, "sangwonName": "삼전역 4번", "gu": "송파구", "lat": 37.504276899620265, "lon": 127.0824809580479, "survivalProbability": 0.726, "monthlyEstimateKRW": 380290502, "salesPercentile": 35.6}, {"sangwonCode": 3130095, "sangwonName": "청량리전통시장", "gu": "동대문구", "lat": 37.58190077942744, "lon": 127.04347394090428, "survivalProbability": 0.726, "monthlyEstimateKRW": 1204437610, "salesPercentile": 83.3}, {"sangwonCode": 3120157, "sangwonName": "신림역(신림)", "gu": "관악구", "lat": 37.484724238201885, "lon": 126.93023791719077, "survivalProbability": 0.726, "monthlyEstimateKRW": 505819022, "salesPercentile": 52.8}, {"sangwonCode": 3130099, "sangwonName": "전농로터리시장", "gu": "동대문구", "lat": 37.57771453733629, "lon": 127.05673937211033, "survivalProbability": 0.726, "monthlyEstimateKRW": 881691196, "salesPercentile": 76.7}, {"sangwonCode": 3130100, "sangwonName": "답십리시장", "gu": "동대문구", "lat": 37.573614303291755, "lon": 127.05819655188141, "survivalProbability": 0.726, "monthlyEstimateKRW": 1453919162, "salesPercentile": 87.7}, {"sangwonCode": 3120156, "sangwonName": "총신대입구역(이수, 총신대)", "gu": "동작구", "lat": 37.48599581916168, "lon": 126.98170551541705, "survivalProbability": 0.726, "monthlyEstimateKRW": 407742820, "salesPercentile": 41.4}, {"sangwonCode": 3110415, "sangwonName": "수락산역 4번", "gu": "노원구", "lat": 37.67578860179999, "lon": 127.05315257704137, "survivalProbability": 0.726, "monthlyEstimateKRW": 605565425, "salesPercentile": 63.3}, {"sangwonCode": 3130101, "sangwonName": "답십리현대시장", "gu": "동대문구", "lat": 37.567018914391745, "lon": 127.05840648298727, "survivalProbability": 0.726, "monthlyEstimateKRW": 554346954, "salesPercentile": 56.5}, {"sangwonCode": 3130104, "sangwonName": "전곡시장", "gu": "동대문구", "lat": 37.57754600063627, "lon": 127.06870520080007, "survivalProbability": 0.726, "monthlyEstimateKRW": 646862156, "salesPercentile": 68.8}, {"sangwonCode": 3130105, "sangwonName": "장미제일시장(중화동제일시장)", "gu": "중랑구", "lat": 37.60467045615055, "lon": 127.07591005475709, "survivalProbability": 0.726, "monthlyEstimateKRW": 671253962, "salesPercentile": 72.1}, {"sangwonCode": 3130106, "sangwonName": "중랑동부시장", "gu": "중랑구", "lat": 37.592353303829555, "lon": 127.07684866751778, "survivalProbability": 0.726, "monthlyEstimateKRW": 1050505168, "salesPercentile": 79.5}, {"sangwonCode": 3110165, "sangwonName": "국립정신건강센터", "gu": "광진구", "lat": 37.56214586200675, "lon": 127.08573648594626, "survivalProbability": 0.726, "monthlyEstimateKRW": 332594774, "salesPercentile": 5.7}, {"sangwonCode": 3110757, "sangwonName": "양평역 2번", "gu": "영등포구", "lat": 37.52482776865417, "lon": 126.88411263138504, "survivalProbability": 0.726, "monthlyEstimateKRW": 371755635, "salesPercentile": 33.0}, {"sangwonCode": 3110997, "sangwonName": "대청초등학교", "gu": "강남구", "lat": 37.491544188739695, "lon": 127.08459279952699, "survivalProbability": 0.726, "monthlyEstimateKRW": 524632670, "salesPercentile": 54.2}, {"sangwonCode": 3120153, "sangwonName": "노량진역(노량진)", "gu": "동작구", "lat": 37.51400342189709, "lon": 126.94026621686946, "survivalProbability": 0.726, "monthlyEstimateKRW": 844338710, "salesPercentile": 75.8}, {"sangwonCode": 3130110, "sangwonName": "면목골목시장(면목시장)", "gu": "중랑구", "lat": 37.57866134278171, "lon": 127.08540447332199, "survivalProbability": 0.726, "monthlyEstimateKRW": 2102273562, "salesPercentile": 98.1}, {"sangwonCode": 3110643, "sangwonName": "강서구다솔마을", "gu": "강서구", "lat": 37.555514608627334, "lon": 126.81871882923258, "survivalProbability": 0.726, "monthlyEstimateKRW": 455725130, "salesPercentile": 48.4}, {"sangwonCode": 3110419, "sangwonName": "수락산디자인거리", "gu": "노원구", "lat": 37.676426447476146, "lon": 127.05710918618395, "survivalProbability": 0.726, "monthlyEstimateKRW": 326813617, "salesPercentile": 1.9}, {"sangwonCode": 3120152, "sangwonName": "신대방삼거리역", "gu": "동작구", "lat": 37.49943591770157, "lon": 126.92730654329986, "survivalProbability": 0.726, "monthlyEstimateKRW": 338334985, "salesPercentile": 10.5}, {"sangwonCode": 3130111, "sangwonName": "동원전통종합시장(동원시장, 동원전통시장 상점가)", "gu": "중랑구", "lat": 37.58989278841775, "lon": 127.09068228925835, "survivalProbability": 0.726, "monthlyEstimateKRW": 1796958263, "salesPercentile": 95.6}, {"sangwonCode": 3130112, "sangwonName": "사가정시장", "gu": "중랑구", "lat": 37.581279375362584, "lon": 127.09058127117551, "survivalProbability": 0.726, "monthlyEstimateKRW": 966744317, "salesPercentile": 78.6}, {"sangwonCode": 3110159, "sangwonName": "구의역 4번", "gu": "광진구", "lat": 37.534966184561476, "lon": 127.0808515528512, "survivalProbability": 0.726, "monthlyEstimateKRW": 512543595, "salesPercentile": 53.3}, {"sangwonCode": 3130115, "sangwonName": "우림골목시장", "gu": "중랑구", "lat": 37.597950947766826, "lon": 127.0978373645944, "survivalProbability": 0.726, "monthlyEstimateKRW": 1854957828, "salesPercentile": 96.7}, {"sangwonCode": 3130117, "sangwonName": "정릉시장", "gu": "성북구", "lat": 37.60841561935929, "lon": 127.00892438114056, "survivalProbability": 0.726, "monthlyEstimateKRW": 1172796799, "salesPercentile": 82.8}, {"sangwonCode": 3110424, "sangwonName": "상계초등학교", "gu": "노원구", "lat": 37.65878876746218, "lon": 127.06751070252072, "survivalProbability": 0.726, "monthlyEstimateKRW": 356665101, "salesPercentile": 27.4}, {"sangwonCode": 3130120, "sangwonName": "돈암시장(돈암제일시장)", "gu": "성북구", "lat": 37.59183665992462, "lon": 127.01586330439116, "survivalProbability": 0.726, "monthlyEstimateKRW": 900203848, "salesPercentile": 77.4}, {"sangwonCode": 3110638, "sangwonName": "신방화역 2번", "gu": "강서구", "lat": 37.56875208070871, "lon": 126.81411374137508, "survivalProbability": 0.726, "monthlyEstimateKRW": 624982127, "salesPercentile": 66.0}, {"sangwonCode": 3130121, "sangwonName": "길음시장", "gu": "성북구", "lat": 37.602683630466736, "lon": 127.02189023475428, "survivalProbability": 0.726, "monthlyEstimateKRW": 723216834, "salesPercentile": 73.3}, {"sangwonCode": 3110426, "sangwonName": "상계2동주민센터", "gu": "노원구", "lat": 37.65639990821615, "lon": 127.06967307359568, "survivalProbability": 0.726, "monthlyEstimateKRW": 555344555, "salesPercentile": 56.7}, {"sangwonCode": 3130125, "sangwonName": "장위전통시장", "gu": "성북구", "lat": 37.61154930592484, "lon": 127.0511927587875, "survivalProbability": 0.726, "monthlyEstimateKRW": 1217300924, "salesPercentile": 84.0}, {"sangwonCode": 3130128, "sangwonName": "돌곶이시장(석관황금시장)", "gu": "성북구", "lat": 37.60976016072055, "lon": 127.0620074415214, "survivalProbability": 0.726, "monthlyEstimateKRW": 1309650607, "salesPercentile": 84.4}, {"sangwonCode": 3120038, "sangwonName": "약수역", "gu": "중구", "lat": 37.554283830627085, "lon": 127.0100270036947, "survivalProbability": 0.726, "monthlyEstimateKRW": 348727692, "salesPercentile": 22.8}, {"sangwonCode": 3130129, "sangwonName": "장미원골목시장", "gu": "강북구", "lat": 37.644995149082234, "lon": 127.0143222680271, "survivalProbability": 0.726, "monthlyEstimateKRW": 1418664271, "salesPercentile": 86.3}, {"sangwonCode": 3120145, "sangwonName": "영등포역(영등포)", "gu": "영등포구", "lat": 37.51843182609498, "lon": 126.90568269638135, "survivalProbability": 0.726, "monthlyEstimateKRW": 478267063, "salesPercentile": 51.2}, {"sangwonCode": 3110154, "sangwonName": "광진정말공원", "gu": "광진구", "lat": 37.53307535534298, "lon": 127.07897139566221, "survivalProbability": 0.726, "monthlyEstimateKRW": 351815816, "salesPercentile": 25.1}, {"sangwonCode": 3130131, "sangwonName": "동북프라자", "gu": "강북구", "lat": 37.620199328102196, "lon": 127.01918818191713, "survivalProbability": 0.726, "monthlyEstimateKRW": 663161347, "salesPercentile": 70.9}, {"sangwonCode": 3130132, "sangwonName": "삼양골목시장(삼양시장)", "gu": "강북구", "lat": 37.625127754363305, "lon": 127.01903085822748, "survivalProbability": 0.726, "monthlyEstimateKRW": 586912404, "salesPercentile": 61.2}, {"sangwonCode": 3130133, "sangwonName": "우이골목시장(우이시장)", "gu": "강북구", "lat": 37.64641790449734, "lon": 127.0198407987359, "survivalProbability": 0.726, "monthlyEstimateKRW": 1010166750, "salesPercentile": 79.1}, {"sangwonCode": 3130134, "sangwonName": "솔샘시장(미아6,7동골목시장)", "gu": "강북구", "lat": 37.619424392767016, "lon": 127.0197090259674, "survivalProbability": 0.726, "monthlyEstimateKRW": 813088936, "salesPercentile": 74.4}, {"sangwonCode": 3130135, "sangwonName": "수유중앙골목시장(수유중앙시장)", "gu": "강북구", "lat": 37.64066938738548, "lon": 127.02121023022544, "survivalProbability": 0.726, "monthlyEstimateKRW": 834340890, "salesPercentile": 75.3}, {"sangwonCode": 3120039, "sangwonName": "신당역", "gu": "중구", "lat": 37.565428542094914, "lon": 127.01572187665211, "survivalProbability": 0.726, "monthlyEstimateKRW": 397529252, "salesPercentile": 40.0}, {"sangwonCode": 3130137, "sangwonName": "수유전통시장(수유시장, 수유골목시장)", "gu": "강북구", "lat": 37.631163727607486, "lon": 127.02263495817301, "survivalProbability": 0.726, "monthlyEstimateKRW": 2234092562, "salesPercentile": 99.8}, {"sangwonCode": 3130139, "sangwonName": "강북종합전통시장(강북종합골목시장)", "gu": "강북구", "lat": 37.64202882933862, "lon": 127.02638863579223, "survivalProbability": 0.726, "monthlyEstimateKRW": 1413209014, "salesPercentile": 85.8}, {"sangwonCode": 3110634, "sangwonName": "송정역 3번", "gu": "강서구", "lat": 37.557416444538866, "lon": 126.81340625888835, "survivalProbability": 0.726, "monthlyEstimateKRW": 347063405, "salesPercentile": 20.7}, {"sangwonCode": 3130143, "sangwonName": "방천골목시장", "gu": "강북구", "lat": 37.612745064870296, "lon": 127.03312858849051, "survivalProbability": 0.726, "monthlyEstimateKRW": 587132260, "salesPercentile": 61.4}, {"sangwonCode": 3130141, "sangwonName": "강북북부골목시장", "gu": "강북구", "lat": 37.635739123584685, "lon": 127.0298758979746, "survivalProbability": 0.726, "monthlyEstimateKRW": 582131610, "salesPercentile": 60.9}, {"sangwonCode": 3130146, "sangwonName": "쌍문시장(쌍문역골목시장)", "gu": "도봉구", "lat": 37.6482621596876, "lon": 127.0323284968481, "survivalProbability": 0.726, "monthlyEstimateKRW": 731916171, "salesPercentile": 73.5}, {"sangwonCode": 3130147, "sangwonName": "쌍문역동측상점가", "gu": "도봉구", "lat": 37.64680180347365, "lon": 127.0350020228868, "survivalProbability": 0.726, "monthlyEstimateKRW": 523837979, "salesPercentile": 54.0}, {"sangwonCode": 3120041, "sangwonName": "신용산역(용산역)", "gu": "용산구", "lat": 37.52899651132542, "lon": 126.96333347099194, "survivalProbability": 0.726, "monthlyEstimateKRW": 401024865, "salesPercentile": 40.5}, {"sangwonCode": 3130148, "sangwonName": "방학동도깨비시장", "gu": "도봉구", "lat": 37.665172753982645, "lon": 127.03525999517794, "survivalProbability": 0.726, "monthlyEstimateKRW": 2168967660, "salesPercentile": 98.6}, {"sangwonCode": 3110438, "sangwonName": "경춘선숲길 우측", "gu": "노원구", "lat": 37.625932128128525, "lon": 127.07843516211, "survivalProbability": 0.726, "monthlyEstimateKRW": 370849976, "salesPercentile": 32.8}, {"sangwonCode": 3130149, "sangwonName": "창동신창시장", "gu": "도봉구", "lat": 37.6397193964298, "lon": 127.03719674055571, "survivalProbability": 0.726, "monthlyEstimateKRW": 1793981399, "salesPercentile": 95.3}, {"sangwonCode": 3130150, "sangwonName": "창동골목시장", "gu": "도봉구", "lat": 37.638565494331445, "lon": 127.03917890321948, "survivalProbability": 0.726, "monthlyEstimateKRW": 1548461075, "salesPercentile": 89.5}, {"sangwonCode": 3110776, "sangwonName": "도신초등학교", "gu": "영등포구", "lat": 37.49754391638084, "lon": 126.90245209989303, "survivalProbability": 0.726, "monthlyEstimateKRW": 340043437, "salesPercentile": 12.3}, {"sangwonCode": 3110138, "sangwonName": "송정체육공원", "gu": "성동구", "lat": 37.550787295336974, "lon": 127.06717551903371, "survivalProbability": 0.726, "monthlyEstimateKRW": 428652342, "salesPercentile": 45.3}, {"sangwonCode": 3120134, "sangwonName": "구로전화국", "gu": "금천구", "lat": 37.47993162827735, "lon": 126.9054145419079, "survivalProbability": 0.726, "monthlyEstimateKRW": 411792678, "salesPercentile": 42.8}, {"sangwonCode": 3130157, "sangwonName": "상계중앙시장", "gu": "노원구", "lat": 37.65957999556309, "lon": 127.07031070024249, "survivalProbability": 0.726, "monthlyEstimateKRW": 1125228352, "salesPercentile": 81.4}, {"sangwonCode": 3110627, "sangwonName": "신정롯데캐슬아파트", "gu": "양천구", "lat": 37.519996696799005, "lon": 126.87366784052162, "survivalProbability": 0.726, "monthlyEstimateKRW": 441126877, "salesPercentile": 47.0}, {"sangwonCode": 3130159, "sangwonName": "공릉동 도깨비시장", "gu": "노원구", "lat": 37.62232979846501, "lon": 127.07596198989835, "survivalProbability": 0.726, "monthlyEstimateKRW": 1066273900, "salesPercentile": 79.8}, {"sangwonCode": 3120132, "sangwonName": "독산동", "gu": "금천구", "lat": 37.470740558781436, "lon": 126.89389548521771, "survivalProbability": 0.726, "monthlyEstimateKRW": 1695974516, "salesPercentile": 91.9}, {"sangwonCode": 3110450, "sangwonName": "시립서북병원", "gu": "은평구", "lat": 37.60544380707197, "lon": 126.90920823667845, "survivalProbability": 0.726, "monthlyEstimateKRW": 363394832, "salesPercentile": 30.0}, {"sangwonCode": 3130165, "sangwonName": "대림골목시장(대림시장, 양지시장)", "gu": "은평구", "lat": 37.58696146585945, "lon": 126.91737128158225, "survivalProbability": 0.726, "monthlyEstimateKRW": 1498705145, "salesPercentile": 88.4}, {"sangwonCode": 3130167, "sangwonName": "연신내상점가(연빛거리)", "gu": "은평구", "lat": 37.620010847855006, "lon": 126.91890918747656, "survivalProbability": 0.726, "monthlyEstimateKRW": 588781770, "salesPercentile": 61.6}, {"sangwonCode": 3110781, "sangwonName": "대림한신아파트", "gu": "영등포구", "lat": 37.4943552577109, "lon": 126.90355313361495, "survivalProbability": 0.726, "monthlyEstimateKRW": 341377303, "salesPercentile": 13.0}, {"sangwonCode": 3130168, "sangwonName": "연서시장", "gu": "은평구", "lat": 37.61966145751094, "lon": 126.92186592951714, "survivalProbability": 0.726, "monthlyEstimateKRW": 830862856, "salesPercentile": 75.1}, {"sangwonCode": 3110625, "sangwonName": "신정2동주민센터", "gu": "양천구", "lat": 37.518444828950926, "lon": 126.87167959095326, "survivalProbability": 0.726, "monthlyEstimateKRW": 346608466, "salesPercentile": 20.5}, {"sangwonCode": 3110453, "sangwonName": "신사1동주민센터", "gu": "은평구", "lat": 37.59576090018161, "lon": 126.91284350185038, "survivalProbability": 0.726, "monthlyEstimateKRW": 343708632, "salesPercentile": 17.2}, {"sangwonCode": 3110454, "sangwonName": "선정중학교", "gu": "은평구", "lat": 37.61729449862414, "lon": 126.91277306605426, "survivalProbability": 0.726, "monthlyEstimateKRW": 338230086, "salesPercentile": 10.2}, {"sangwonCode": 3130169, "sangwonName": "대조시장", "gu": "은평구", "lat": 37.609483334764015, "lon": 126.92661064407342, "survivalProbability": 0.726, "monthlyEstimateKRW": 1413632422, "salesPercentile": 86.0}, {"sangwonCode": 3110128, "sangwonName": "성원중학교", "gu": "성동구", "lat": 37.53816384184272, "lon": 127.04992055728603, "survivalProbability": 0.726, "monthlyEstimateKRW": 648329745, "salesPercentile": 69.8}, {"sangwonCode": 3110455, "sangwonName": "역촌노인복지관", "gu": "은평구", "lat": 37.60345508523692, "lon": 126.91247213883027, "survivalProbability": 0.726, "monthlyEstimateKRW": 344239454, "salesPercentile": 18.4}, {"sangwonCode": 3120046, "sangwonName": "이태원(이태원역)", "gu": "용산구", "lat": 37.534930676156144, "lon": 126.99478413778357, "survivalProbability": 0.726, "monthlyEstimateKRW": 557386050, "salesPercentile": 57.4}, {"sangwonCode": 3120129, "sangwonName": "구로디지털단지", "gu": "구로구", "lat": 37.48404057803035, "lon": 126.89515431983698, "survivalProbability": 0.726, "monthlyEstimateKRW": 439639734, "salesPercentile": 46.7}, {"sangwonCode": 3130172, "sangwonName": "모래내시장(서중시장)", "gu": "서대문구", "lat": 37.570057260519455, "lon": 126.91517132922482, "survivalProbability": 0.726, "monthlyEstimateKRW": 649215858, "salesPercentile": 70.0}, {"sangwonCode": 3120128, "sangwonName": "신도림역", "gu": "구로구", "lat": 37.50819222492761, "lon": 126.89038157947542, "survivalProbability": 0.726, "monthlyEstimateKRW": 333767588, "salesPercentile": 7.2}, {"sangwonCode": 3130177, "sangwonName": "인왕시장(홍제골목형상점가)", "gu": "서대문구", "lat": 37.59087804741556, "lon": 126.943261958856, "survivalProbability": 0.726, "monthlyEstimateKRW": 2228610903, "salesPercentile": 99.5}, {"sangwonCode": 3110934, "sangwonName": "우면주공아파트", "gu": "서초구", "lat": 37.46893822662192, "lon": 127.02616941071274, "survivalProbability": 0.726, "monthlyEstimateKRW": 343178779, "salesPercentile": 15.3}, {"sangwonCode": 3110787, "sangwonName": "신길3동주민센터", "gu": "영등포구", "lat": 37.50674580845403, "lon": 126.90568609063068, "survivalProbability": 0.726, "monthlyEstimateKRW": 470730638, "salesPercentile": 50.2}, {"sangwonCode": 3120125, "sangwonName": "구로역", "gu": "구로구", "lat": 37.50228754471039, "lon": 126.87802914643336, "survivalProbability": 0.726, "monthlyEstimateKRW": 330453362, "salesPercentile": 3.7}, {"sangwonCode": 3130182, "sangwonName": "영천시장", "gu": "서대문구", "lat": 37.5707570092122, "lon": 126.96090192262115, "survivalProbability": 0.726, "monthlyEstimateKRW": 1430481185, "salesPercentile": 86.7}, {"sangwonCode": 3120048, "sangwonName": "금호역", "gu": "성동구", "lat": 37.54829999550683, "lon": 127.01963370266444, "survivalProbability": 0.726, "monthlyEstimateKRW": 341207761, "salesPercentile": 12.8}, {"sangwonCode": 3110925, "sangwonName": "서초중학교", "gu": "서초구", "lat": 37.48678991680312, "lon": 127.00697640080861, "survivalProbability": 0.726, "monthlyEstimateKRW": 344336060, "salesPercentile": 18.6}, {"sangwonCode": 3110460, "sangwonName": "구산역 4번", "gu": "은평구", "lat": 37.614521102015296, "lon": 126.91503023530422, "survivalProbability": 0.726, "monthlyEstimateKRW": 361909284, "salesPercentile": 29.1}, {"sangwonCode": 3110114, "sangwonName": "왕십리파출소", "gu": "성동구", "lat": 37.56739858855162, "lon": 127.03142194280784, "survivalProbability": 0.726, "monthlyEstimateKRW": 1322657326, "salesPercentile": 84.9}, {"sangwonCode": 3120124, "sangwonName": "개봉동 현대아파트", "gu": "구로구", "lat": 37.4888917210359, "lon": 126.85592258479969, "survivalProbability": 0.726, "monthlyEstimateKRW": 626293815, "salesPercentile": 66.3}, {"sangwonCode": 3130185, "sangwonName": "망원월드컵시장", "gu": "마포구", "lat": 37.55811166117051, "lon": 126.90542898536704, "survivalProbability": 0.726, "monthlyEstimateKRW": 1550952912, "salesPercentile": 89.8}, {"sangwonCode": 3130186, "sangwonName": "망원시장", "gu": "마포구", "lat": 37.55633776978263, "lon": 126.90677800571248, "survivalProbability": 0.726, "monthlyEstimateKRW": 1313783905, "salesPercentile": 84.7}, {"sangwonCode": 3110465, "sangwonName": "연신내역 7번", "gu": "은평구", "lat": 37.62142443927846, "lon": 126.9175257181981, "survivalProbability": 0.726, "monthlyEstimateKRW": 339473963, "salesPercentile": 11.6}, {"sangwonCode": 3120122, "sangwonName": "강서구청", "gu": "강서구", "lat": 37.55257721737214, "lon": 126.85080932634085, "survivalProbability": 0.726, "monthlyEstimateKRW": 381487122, "salesPercentile": 36.0}, {"sangwonCode": 3110467, "sangwonName": "은평요양병원", "gu": "은평구", "lat": 37.62484029093253, "lon": 126.91913049837581, "survivalProbability": 0.726, "monthlyEstimateKRW": 464640661, "salesPercentile": 48.8}, {"sangwonCode": 3110792, "sangwonName": "영등포역 2번", "gu": "영등포구", "lat": 37.51188305687823, "lon": 126.9076137652341, "survivalProbability": 0.726, "monthlyEstimateKRW": 367142550, "salesPercentile": 31.6}, {"sangwonCode": 3130195, "sangwonName": "도화동 상점가", "gu": "마포구", "lat": 37.54015474788199, "lon": 126.94936526895961, "survivalProbability": 0.726, "monthlyEstimateKRW": 547857577, "salesPercentile": 55.6}, {"sangwonCode": 3110468, "sangwonName": "응암역 3번", "gu": "은평구", "lat": 37.60326100173212, "lon": 126.91823657343359, "survivalProbability": 0.726, "monthlyEstimateKRW": 379794435, "salesPercentile": 35.3}, {"sangwonCode": 3130197, "sangwonName": "마포시장", "gu": "마포구", "lat": 37.54503085282252, "lon": 126.95349222353501, "survivalProbability": 0.726, "monthlyEstimateKRW": 856959015, "salesPercentile": 76.0}, {"sangwonCode": 3130198, "sangwonName": "아현시장", "gu": "마포구", "lat": 37.55640179732696, "lon": 126.9543792384095, "survivalProbability": 0.726, "monthlyEstimateKRW": 1362242028, "salesPercentile": 85.3}, {"sangwonCode": 3110469, "sangwonName": "응암정보도서관", "gu": "은평구", "lat": 37.586196487934636, "lon": 126.91861754570077, "survivalProbability": 0.726, "monthlyEstimateKRW": 571693858, "salesPercentile": 59.1}, {"sangwonCode": 3110905, "sangwonName": "방배노인종합복지관(이수중학교)", "gu": "서초구", "lat": 37.481815733304714, "lon": 126.98605942962958, "survivalProbability": 0.726, "monthlyEstimateKRW": 338741169, "salesPercentile": 10.7}, {"sangwonCode": 3130202, "sangwonName": "신영시장", "gu": "양천구", "lat": 37.532978552718, "lon": 126.83576690779837, "survivalProbability": 0.726, "monthlyEstimateKRW": 1839452138, "salesPercentile": 96.3}, {"sangwonCode": 3110612, "sangwonName": "신정역 5번", "gu": "양천구", "lat": 37.52343623301962, "lon": 126.85592405599932, "survivalProbability": 0.726, "monthlyEstimateKRW": 381944824, "salesPercentile": 36.3}, {"sangwonCode": 3120117, "sangwonName": "강서농산물도매시장", "gu": "강서구", "lat": 37.552905609780034, "lon": 126.82127145971705, "survivalProbability": 0.726, "monthlyEstimateKRW": 1989964355, "salesPercentile": 97.7}, {"sangwonCode": 3130203, "sangwonName": "서서울 골목형상점가", "gu": "양천구", "lat": 37.530728001368765, "lon": 126.83717472744708, "survivalProbability": 0.726, "monthlyEstimateKRW": 647899708, "salesPercentile": 69.3}, {"sangwonCode": 3130204, "sangwonName": "경창시장", "gu": "양천구", "lat": 37.524526713829125, "lon": 126.84204133356633, "survivalProbability": 0.726, "monthlyEstimateKRW": 1493273213, "salesPercentile": 88.1}, {"sangwonCode": 3130205, "sangwonName": "신곡종합시장(신월6동 골목시장)", "gu": "양천구", "lat": 37.51806718222335, "lon": 126.84253004100526, "survivalProbability": 0.726, "monthlyEstimateKRW": 968373344, "salesPercentile": 78.8}, {"sangwonCode": 3120114, "sangwonName": "목동신시가지", "gu": "양천구", "lat": 37.53114395403733, "lon": 126.87542528536237, "survivalProbability": 0.726, "monthlyEstimateKRW": 421071930, "salesPercentile": 44.2}, {"sangwonCode": 3130207, "sangwonName": "신정1동 골목시장(신정제일시장)", "gu": "양천구", "lat": 37.5209114490885, "lon": 126.85431127941561, "survivalProbability": 0.726, "monthlyEstimateKRW": 677175587, "salesPercentile": 72.3}, {"sangwonCode": 3130208, "sangwonName": "목동깨비시장(목3동시장)", "gu": "양천구", "lat": 37.548611790299745, "lon": 126.86491733158284, "survivalProbability": 0.726, "monthlyEstimateKRW": 1625699095, "salesPercentile": 90.7}, {"sangwonCode": 3110902, "sangwonName": "사당역 4번", "gu": "관악구", "lat": 37.47420987457289, "lon": 126.97740115501247, "survivalProbability": 0.726, "monthlyEstimateKRW": 371770996, "salesPercentile": 33.3}, {"sangwonCode": 3110608, "sangwonName": "신월2동주민센터", "gu": "양천구", "lat": 37.52508137526259, "lon": 126.84586386894, "survivalProbability": 0.726, "monthlyEstimateKRW": 410074521, "salesPercentile": 42.3}, {"sangwonCode": 3120053, "sangwonName": "건대입구역(건대)", "gu": "광진구", "lat": 37.54052361998077, "lon": 127.0694180102895, "survivalProbability": 0.726, "monthlyEstimateKRW": 435197124, "salesPercentile": 46.5}, {"sangwonCode": 3130209, "sangwonName": "목사랑시장(목4동시장)", "gu": "양천구", "lat": 37.53793668742033, "lon": 126.86644144350878, "survivalProbability": 0.726, "monthlyEstimateKRW": 1599028477, "salesPercentile": 90.0}, {"sangwonCode": 3110474, "sangwonName": "세명컴퓨터고등학교", "gu": "은평구", "lat": 37.62574305642576, "lon": 126.92176894024712, "survivalProbability": 0.726, "monthlyEstimateKRW": 341544665, "salesPercentile": 13.3}, {"sangwonCode": 3110804, "sangwonName": "신풍역 1번", "gu": "영등포구", "lat": 37.49952522564555, "lon": 126.9128197716422, "survivalProbability": 0.726, "monthlyEstimateKRW": 346365494, "salesPercentile": 20.2}, {"sangwonCode": 3130210, "sangwonName": "목2동시장", "gu": "양천구", "lat": 37.54628747973894, "lon": 126.87328400792225, "survivalProbability": 0.726, "monthlyEstimateKRW": 903215668, "salesPercentile": 77.7}, {"sangwonCode": 3110081, "sangwonName": "해방촌 남동측", "gu": "용산구", "lat": 37.544119980506025, "lon": 126.98454285856135, "survivalProbability": 0.726, "monthlyEstimateKRW": 384067982, "salesPercentile": 36.7}, {"sangwonCode": 3110606, "sangwonName": "신한은행 신월동지점", "gu": "양천구", "lat": 37.51989447026174, "lon": 126.84122532645456, "survivalProbability": 0.726, "monthlyEstimateKRW": 343864031, "salesPercentile": 17.8}, {"sangwonCode": 3120054, "sangwonName": "어린이대공원역", "gu": "광진구", "lat": 37.547820046908846, "lon": 127.07219724027671, "survivalProbability": 0.726, "monthlyEstimateKRW": 560387427, "salesPercentile": 57.9}, {"sangwonCode": 3110478, "sangwonName": "응암1동주민센터", "gu": "은평구", "lat": 37.5998058991835, "lon": 126.92532920921035, "survivalProbability": 0.726, "monthlyEstimateKRW": 356367709, "salesPercentile": 27.2}, {"sangwonCode": 3130213, "sangwonName": "방신전통시장", "gu": "강서구", "lat": 37.571632474906465, "lon": 126.81235201849918, "survivalProbability": 0.726, "monthlyEstimateKRW": 1857224112, "salesPercentile": 97.0}, {"sangwonCode": 3130214, "sangwonName": "송화벽화시장(송화골목시장)", "gu": "강서구", "lat": 37.549349400157496, "lon": 126.8355499326782, "survivalProbability": 0.726, "monthlyEstimateKRW": 1849592742, "salesPercentile": 96.5}, {"sangwonCode": 3120111, "sangwonName": "목동사거리", "gu": "강서구", "lat": 37.531878131050874, "lon": 126.86309205939345, "survivalProbability": 0.726, "monthlyEstimateKRW": 411798922, "salesPercentile": 43.0}, {"sangwonCode": 3110079, "sangwonName": "후암동주민센터", "gu": "용산구", "lat": 37.55010179303207, "lon": 126.97920022239718, "survivalProbability": 0.726, "monthlyEstimateKRW": 480985237, "salesPercentile": 51.4}, {"sangwonCode": 3130216, "sangwonName": "화곡중앙시장", "gu": "강서구", "lat": 37.534559954145735, "lon": 126.83914637585305, "survivalProbability": 0.726, "monthlyEstimateKRW": 576629623, "salesPercentile": 59.8}, {"sangwonCode": 3130217, "sangwonName": "화곡본동시장", "gu": "강서구", "lat": 37.543360059919365, "lon": 126.84387997962435, "survivalProbability": 0.726, "monthlyEstimateKRW": 799002171, "salesPercentile": 74.0}, {"sangwonCode": 3120110, "sangwonName": "목동역 8번출구", "gu": "양천구", "lat": 37.52574947721169, "lon": 126.8615081498464, "survivalProbability": 0.726, "monthlyEstimateKRW": 348064172, "salesPercentile": 22.1}, {"sangwonCode": 3110810, "sangwonName": "영신초등학교", "gu": "영등포구", "lat": 37.51093472393394, "lon": 126.91666342067874, "survivalProbability": 0.726, "monthlyEstimateKRW": 468988645, "salesPercentile": 49.5}, {"sangwonCode": 3130219, "sangwonName": "까치산시장", "gu": "강서구", "lat": 37.532651467965756, "lon": 126.84716070133189, "survivalProbability": 0.726, "monthlyEstimateKRW": 1636203593, "salesPercentile": 91.4}, {"sangwonCode": 3110604, "sangwonName": "신월4동주민센터", "gu": "양천구", "lat": 37.52336983439267, "lon": 126.83937402800503, "survivalProbability": 0.726, "monthlyEstimateKRW": 350003211, "salesPercentile": 24.0}, {"sangwonCode": 3120055, "sangwonName": "군자역", "gu": "광진구", "lat": 37.55713177654428, "lon": 127.0793476213953, "survivalProbability": 0.726, "monthlyEstimateKRW": 386321302, "salesPercentile": 37.7}, {"sangwonCode": 3130221, "sangwonName": "남부골목시장(남부화곡시장, 남부시장)", "gu": "강서구", "lat": 37.53307374754431, "lon": 126.86077051500729, "survivalProbability": 0.726, "monthlyEstimateKRW": 1704342554, "salesPercentile": 92.1}, {"sangwonCode": 3110603, "sangwonName": "지향초등학교", "gu": "양천구", "lat": 37.512549854396376, "lon": 126.84015504526609, "survivalProbability": 0.726, "monthlyEstimateKRW": 514176611, "salesPercentile": 53.5}, {"sangwonCode": 3130222, "sangwonName": "오류시장", "gu": "구로구", "lat": 37.4965521062622, "lon": 126.84320850019292, "survivalProbability": 0.726, "monthlyEstimateKRW": 648226355, "salesPercentile": 69.5}, {"sangwonCode": 3120108, "sangwonName": "신정네거리역", "gu": "양천구", "lat": 37.52184641197067, "lon": 126.8526352486175, "survivalProbability": 0.726, "monthlyEstimateKRW": 738262769, "salesPercentile": 73.7}, {"sangwonCode": 3130223, "sangwonName": "고척근린시장", "gu": "구로구", "lat": 37.50212891474886, "lon": 126.84982407297842, "survivalProbability": 0.726, "monthlyEstimateKRW": 1738911683, "salesPercentile": 93.0}, {"sangwonCode": 3130226, "sangwonName": "고척프라자", "gu": "구로구", "lat": 37.50374854430546, "lon": 126.86284939392691, "survivalProbability": 0.726, "monthlyEstimateKRW": 637187815, "salesPercentile": 68.1}, {"sangwonCode": 3130227, "sangwonName": "고척골목시장상점가(그라운드 고척)", "gu": "구로구", "lat": 37.503317096793424, "lon": 126.86374363001968, "survivalProbability": 0.726, "monthlyEstimateKRW": 629234012, "salesPercentile": 67.0}, {"sangwonCode": 3110067, "sangwonName": "배문고등학교", "gu": "용산구", "lat": 37.54909900636352, "lon": 126.96736357210598, "survivalProbability": 0.726, "monthlyEstimateKRW": 378106746, "salesPercentile": 35.1}, {"sangwonCode": 3110888, "sangwonName": "청룡동주민센터", "gu": "관악구", "lat": 37.47905502019646, "lon": 126.94360664715312, "survivalProbability": 0.726, "monthlyEstimateKRW": 342151578, "salesPercentile": 13.7}, {"sangwonCode": 3110600, "sangwonName": "신월7동주민센터", "gu": "양천구", "lat": 37.522777960294526, "lon": 126.83486165433128, "survivalProbability": 0.726, "monthlyEstimateKRW": 336356158, "salesPercentile": 9.2}, {"sangwonCode": 3130229, "sangwonName": "남구로시장", "gu": "구로구", "lat": 37.4900783818487, "lon": 126.88654090369849, "survivalProbability": 0.726, "monthlyEstimateKRW": 1773353257, "salesPercentile": 94.4}, {"sangwonCode": 3130230, "sangwonName": "가리봉시장", "gu": "구로구", "lat": 37.48164748209712, "lon": 126.88921060762578, "survivalProbability": 0.726, "monthlyEstimateKRW": 819039084, "salesPercentile": 74.7}, {"sangwonCode": 3130231, "sangwonName": "독산동 우시장", "gu": "금천구", "lat": 37.46670637228808, "lon": 126.89653500499368, "survivalProbability": 0.726, "monthlyEstimateKRW": 1785387391, "salesPercentile": 95.1}, {"sangwonCode": 3110885, "sangwonName": "영락고등학교", "gu": "관악구", "lat": 37.47534972675296, "lon": 126.93927952242284, "survivalProbability": 0.726, "monthlyEstimateKRW": 395242292, "salesPercentile": 38.8}, {"sangwonCode": 3110599, "sangwonName": "신월1파출소", "gu": "양천구", "lat": 37.53101175155089, "lon": 126.83389315774004, "survivalProbability": 0.726, "monthlyEstimateKRW": 345424395, "salesPercentile": 19.5}, {"sangwonCode": 3120104, "sangwonName": "연남동(홍대)", "gu": "마포구", "lat": 37.56007023507463, "lon": 126.9224714657634, "survivalProbability": 0.726, "monthlyEstimateKRW": 557174359, "salesPercentile": 57.2}, {"sangwonCode": 3130233, "sangwonName": "남문시장", "gu": "금천구", "lat": 37.47390029908397, "lon": 126.90104709862253, "survivalProbability": 0.726, "monthlyEstimateKRW": 1892821169, "salesPercentile": 97.4}, {"sangwonCode": 3130235, "sangwonName": "대명여울빛거리시장(대명시장)", "gu": "금천구", "lat": 37.45356538993804, "lon": 126.90214758052595, "survivalProbability": 0.726, "monthlyEstimateKRW": 592657638, "salesPercentile": 62.1}, {"sangwonCode": 3130236, "sangwonName": "비단길현대시장(현대시장)", "gu": "금천구", "lat": 37.45709793372706, "lon": 126.9028437327672, "survivalProbability": 0.726, "monthlyEstimateKRW": 2171633073, "salesPercentile": 98.8}, {"sangwonCode": 3110598, "sangwonName": "신월문화체육센터", "gu": "양천구", "lat": 37.51957726844986, "lon": 126.8333416013457, "survivalProbability": 0.726, "monthlyEstimateKRW": 342500240, "salesPercentile": 14.0}, {"sangwonCode": 3110883, "sangwonName": "은천초등학교(은천교앞)", "gu": "관악구", "lat": 37.487223846511434, "lon": 126.93703112025764, "survivalProbability": 0.726, "monthlyEstimateKRW": 412448119, "salesPercentile": 43.3}, {"sangwonCode": 3130238, "sangwonName": "은행나무시장", "gu": "금천구", "lat": 37.451724454031016, "lon": 126.90986903036932, "survivalProbability": 0.726, "monthlyEstimateKRW": 1211252343, "salesPercentile": 83.7}, {"sangwonCode": 3120059, "sangwonName": "구삼강변맛길", "gu": "광진구", "lat": 37.53889487383089, "lon": 127.09266847748853, "survivalProbability": 0.726, "monthlyEstimateKRW": 331593644, "salesPercentile": 4.9}, {"sangwonCode": 3110503, "sangwonName": "명지대학교교회", "gu": "서대문구", "lat": 37.5826588806257, "lon": 126.92354622796533, "survivalProbability": 0.726, "monthlyEstimateKRW": 368308966, "salesPercentile": 32.1}, {"sangwonCode": 3130244, "sangwonName": "대림중앙시장", "gu": "영등포구", "lat": 37.490991083426614, "lon": 126.89945280078445, "survivalProbability": 0.726, "monthlyEstimateKRW": 1386505314, "salesPercentile": 85.6}, {"sangwonCode": 3110819, "sangwonName": "신대방역 4번", "gu": "동작구", "lat": 37.48877490125431, "lon": 126.91105702584524, "survivalProbability": 0.726, "monthlyEstimateKRW": 339689006, "salesPercentile": 11.9}, {"sangwonCode": 3110881, "sangwonName": "구립대학경로당(관악산샘말공원)", "gu": "관악구", "lat": 37.46769853841552, "lon": 126.9362223021795, "survivalProbability": 0.726, "monthlyEstimateKRW": 453242693, "salesPercentile": 48.1}, {"sangwonCode": 3130245, "sangwonName": "영일시장", "gu": "영등포구", "lat": 37.51744565457258, "lon": 126.90070683793401, "survivalProbability": 0.726, "monthlyEstimateKRW": 654404615, "salesPercentile": 70.5}, {"sangwonCode": 3130246, "sangwonName": "영등포청과시장(조광시장)", "gu": "영등포구", "lat": 37.521662703518885, "lon": 126.90113111439317, "survivalProbability": 0.726, "monthlyEstimateKRW": 570238936, "salesPercentile": 58.6}, {"sangwonCode": 3130247, "sangwonName": "우리시장", "gu": "영등포구", "lat": 37.49675301431536, "lon": 126.90488444933717, "survivalProbability": 0.726, "monthlyEstimateKRW": 617216049, "salesPercentile": 65.1}, {"sangwonCode": 3130248, "sangwonName": "영등포역지하도상점가", "gu": "영등포구", "lat": 37.51430435395737, "lon": 126.90459071258275, "survivalProbability": 0.726, "monthlyEstimateKRW": 841477439, "salesPercentile": 75.6}, {"sangwonCode": 3110877, "sangwonName": "신림역 8번", "gu": "관악구", "lat": 37.486338677230954, "lon": 126.93306314109579, "survivalProbability": 0.726, "monthlyEstimateKRW": 525710691, "salesPercentile": 54.4}, {"sangwonCode": 3130255, "sangwonName": "영등포전통시장", "gu": "영등포구", "lat": 37.52106473916393, "lon": 126.90820198877576, "survivalProbability": 0.726, "monthlyEstimateKRW": 1683210220, "salesPercentile": 91.6}, {"sangwonCode": 3110510, "sangwonName": "홍연시장", "gu": "서대문구", "lat": 37.57660878891725, "lon": 126.93099000584378, "survivalProbability": 0.726, "monthlyEstimateKRW": 343706052, "salesPercentile": 17.0}, {"sangwonCode": 3130261, "sangwonName": "성대전통시장(성대시장)", "gu": "동작구", "lat": 37.499122816445855, "lon": 126.93106137758035, "survivalProbability": 0.726, "monthlyEstimateKRW": 1723869288, "salesPercentile": 92.3}, {"sangwonCode": 3110873, "sangwonName": "당곡중학교", "gu": "관악구", "lat": 37.49122005096885, "lon": 126.9294742646681, "survivalProbability": 0.726, "monthlyEstimateKRW": 420814538, "salesPercentile": 43.7}, {"sangwonCode": 3120095, "sangwonName": "홍제역", "gu": "서대문구", "lat": 37.58822983459291, "lon": 126.94474718990185, "survivalProbability": 0.726, "monthlyEstimateKRW": 352749031, "salesPercentile": 25.6}, {"sangwonCode": 3120062, "sangwonName": "신설동역", "gu": "동대문구", "lat": 37.57495056845485, "lon": 127.024497100405, "survivalProbability": 0.726, "monthlyEstimateKRW": 487184103, "salesPercentile": 51.9}, {"sangwonCode": 3130268, "sangwonName": "상도전통시장", "gu": "동작구", "lat": 37.49921430467612, "lon": 126.95208443092477, "survivalProbability": 0.726, "monthlyEstimateKRW": 600255335, "salesPercentile": 62.8}, {"sangwonCode": 3130270, "sangwonName": "흑석시장", "gu": "동작구", "lat": 37.506867727960454, "lon": 126.96288058702295, "survivalProbability": 0.726, "monthlyEstimateKRW": 633583873, "salesPercentile": 67.4}, {"sangwonCode": 3130271, "sangwonName": "남성역골목시장", "gu": "동작구", "lat": 37.483471201595435, "lon": 126.97245743842454, "survivalProbability": 0.726, "monthlyEstimateKRW": 1171295994, "salesPercentile": 82.6}, {"sangwonCode": 3120094, "sangwonName": "신촌역(신촌역, 신촌로터리)", "gu": "서대문구", "lat": 37.55652864102824, "lon": 126.93641829163414, "survivalProbability": 0.726, "monthlyEstimateKRW": 663771600, "salesPercentile": 71.2}, {"sangwonCode": 3130273, "sangwonName": "남성사계시장(남성시장)", "gu": "동작구", "lat": 37.48822110802707, "lon": 126.98044987510083, "survivalProbability": 0.726, "monthlyEstimateKRW": 1783479369, "salesPercentile": 94.9}, {"sangwonCode": 3110869, "sangwonName": "신림역 5번(신림동주민센터, 신림동별빛거리)", "gu": "관악구", "lat": 37.48705494828831, "lon": 126.92548680651547, "survivalProbability": 0.726, "monthlyEstimateKRW": 580082339, "salesPercentile": 60.5}, {"sangwonCode": 3120093, "sangwonName": "연희동", "gu": "서대문구", "lat": 37.56685943536896, "lon": 126.92999160464343, "survivalProbability": 0.726, "monthlyEstimateKRW": 444320724, "salesPercentile": 47.2}, {"sangwonCode": 3130275, "sangwonName": "강남골목시장", "gu": "관악구", "lat": 37.482850494037365, "lon": 126.9049133821319, "survivalProbability": 0.726, "monthlyEstimateKRW": 519765494, "salesPercentile": 53.7}, {"sangwonCode": 3130277, "sangwonName": "조원동 펭귄시장(신림중앙시장)", "gu": "관악구", "lat": 37.482630091537494, "lon": 126.91114345468043, "survivalProbability": 0.726, "monthlyEstimateKRW": 577395574, "salesPercentile": 60.0}, {"sangwonCode": 3130278, "sangwonName": "미성동 도깨비시장 골목형상점가", "gu": "관악구", "lat": 37.47438964512814, "lon": 126.91633094652599, "survivalProbability": 0.726, "monthlyEstimateKRW": 864629508, "salesPercentile": 76.3}, {"sangwonCode": 3120091, "sangwonName": "본서부병원", "gu": "은평구", "lat": 37.600560629824955, "lon": 126.92207842001997, "survivalProbability": 0.726, "monthlyEstimateKRW": 347219709, "salesPercentile": 21.3}, {"sangwonCode": 3130279, "sangwonName": "관악신사시장", "gu": "관악구", "lat": 37.48609406886688, "lon": 126.91678147647731, "survivalProbability": 0.726, "monthlyEstimateKRW": 1440103928, "salesPercentile": 87.2}, {"sangwonCode": 3110866, "sangwonName": "난우중학교", "gu": "관악구", "lat": 37.46920403931831, "lon": 126.92250888426989, "survivalProbability": 0.726, "monthlyEstimateKRW": 332480038, "salesPercentile": 5.3}, {"sangwonCode": 3130283, "sangwonName": "신원시장", "gu": "관악구", "lat": 37.48265899049768, "lon": 126.9270288352229, "survivalProbability": 0.726, "monthlyEstimateKRW": 1798726774, "salesPercentile": 95.8}, {"sangwonCode": 3120090, "sangwonName": "연신내역", "gu": "은평구", "lat": 37.619066940896616, "lon": 126.92207043712689, "survivalProbability": 0.726, "monthlyEstimateKRW": 394735843, "salesPercentile": 38.6}, {"sangwonCode": 3110865, "sangwonName": "남강고등학교(남강중학교)", "gu": "관악구", "lat": 37.473536847262565, "lon": 126.92092171529349, "survivalProbability": 0.726, "monthlyEstimateKRW": 355968766, "salesPercentile": 26.7}, {"sangwonCode": 3130289, "sangwonName": "봉일시장", "gu": "관악구", "lat": 37.48592712264513, "lon": 126.93841164295765, "survivalProbability": 0.726, "monthlyEstimateKRW": 627172016, "salesPercentile": 66.5}, {"sangwonCode": 3120088, "sangwonName": "구산역", "gu": "은평구", "lat": 37.61193669331818, "lon": 126.91703785789751, "survivalProbability": 0.726, "monthlyEstimateKRW": 338866192, "salesPercentile": 10.9}, {"sangwonCode": 3110010, "sangwonName": "평창동서측", "gu": "종로구", "lat": 37.60936632114107, "lon": 126.96674832970702, "survivalProbability": 0.726, "monthlyEstimateKRW": 343753470, "salesPercentile": 17.4}, {"sangwonCode": 3130290, "sangwonName": "영림시장", "gu": "관악구", "lat": 37.48167670609929, "lon": 126.94308459174644, "survivalProbability": 0.726, "monthlyEstimateKRW": 1770830892, "salesPercentile": 93.7}, {"sangwonCode": 3120087, "sangwonName": "응암역", "gu": "은평구", "lat": 37.59869132855268, "lon": 126.91588620727673, "survivalProbability": 0.726, "monthlyEstimateKRW": 347219709, "salesPercentile": 21.3}, {"sangwonCode": 3120066, "sangwonName": "장한평역(장한평)", "gu": "동대문구", "lat": 37.56213234191365, "lon": 127.06450325618981, "survivalProbability": 0.726, "monthlyEstimateKRW": 470912180, "salesPercentile": 50.5}, {"sangwonCode": 3130292, "sangwonName": "봉천현대시장", "gu": "관악구", "lat": 37.48653478158153, "lon": 126.94659736185348, "survivalProbability": 0.726, "monthlyEstimateKRW": 632371260, "salesPercentile": 67.2}, {"sangwonCode": 3130294, "sangwonName": "관악중부시장", "gu": "관악구", "lat": 37.48443937758363, "lon": 126.95618686302697, "survivalProbability": 0.726, "monthlyEstimateKRW": 1130430773, "salesPercentile": 81.6}, {"sangwonCode": 3110544, "sangwonName": "망리단길", "gu": "마포구", "lat": 37.5549489373919, "lon": 126.90515005082226, "survivalProbability": 0.726, "monthlyEstimateKRW": 473370006, "salesPercentile": 50.7}, {"sangwonCode": 3130295, "sangwonName": "인헌시장(원당종합시장)", "gu": "관악구", "lat": 37.47437829187288, "lon": 126.96584729199395, "survivalProbability": 0.726, "monthlyEstimateKRW": 1875343619, "salesPercentile": 97.2}, {"sangwonCode": 3120085, "sangwonName": "은행사거리", "gu": "노원구", "lat": 37.65022373485967, "lon": 127.0768289378521, "survivalProbability": 0.726, "monthlyEstimateKRW": 333786917, "salesPercentile": 7.4}, {"sangwonCode": 3130303, "sangwonName": "영동전통시장", "gu": "강남구", "lat": 37.50919567758982, "lon": 127.02418152660437, "survivalProbability": 0.726, "monthlyEstimateKRW": 1827727405, "salesPercentile": 96.0}, {"sangwonCode": 3120067, "sangwonName": "장안동사거리", "gu": "동대문구", "lat": 37.571931154399905, "lon": 127.07148472007246, "survivalProbability": 0.726, "monthlyEstimateKRW": 1122319510, "salesPercentile": 81.2}, {"sangwonCode": 3110578, "sangwonName": "대흥역 2번", "gu": "마포구", "lat": 37.54823479181836, "lon": 126.94507094731418, "survivalProbability": 0.726, "monthlyEstimateKRW": 395355974, "salesPercentile": 39.1}, {"sangwonCode": 3130310, "sangwonName": "강남개포시장", "gu": "강남구", "lat": 37.48889716485464, "lon": 127.06759496436574, "survivalProbability": 0.726, "monthlyEstimateKRW": 811528802, "salesPercentile": 74.2}, {"sangwonCode": 3130311, "sangwonName": "새마을시장", "gu": "송파구", "lat": 37.50894216638436, "lon": 127.08521187520329, "survivalProbability": 0.726, "monthlyEstimateKRW": 1421542489, "salesPercentile": 86.5}, {"sangwonCode": 3130312, "sangwonName": "석촌시장", "gu": "송파구", "lat": 37.50037385552647, "lon": 127.10705115305089, "survivalProbability": 0.726, "monthlyEstimateKRW": 1093930273, "salesPercentile": 80.2}, {"sangwonCode": 3110856, "sangwonName": "미성초등학교", "gu": "관악구", "lat": 37.47982945317871, "lon": 126.91315922448254, "survivalProbability": 0.726, "monthlyEstimateKRW": 328986671, "salesPercentile": 3.3}, {"sangwonCode": 3130313, "sangwonName": "방이시장", "gu": "송파구", "lat": 37.51106079756516, "lon": 127.11552676175948, "survivalProbability": 0.726, "monthlyEstimateKRW": 1150642502, "salesPercentile": 81.9}, {"sangwonCode": 3120080, "sangwonName": "마들역", "gu": "노원구", "lat": 37.665929860375286, "lon": 127.05746383368468, "survivalProbability": 0.726, "monthlyEstimateKRW": 494751117, "salesPercentile": 52.3}, {"sangwonCode": 3120079, "sangwonName": "창동역", "gu": "도봉구", "lat": 37.65239246410829, "lon": 127.04768518990885, "survivalProbability": 0.726, "monthlyEstimateKRW": 329440686, "salesPercentile": 3.5}, {"sangwonCode": 3130314, "sangwonName": "풍납시장", "gu": "송파구", "lat": 37.53741056029039, "lon": 127.12008192689979, "survivalProbability": 0.726, "monthlyEstimateKRW": 1211099365, "salesPercentile": 83.5}, {"sangwonCode": 3081591, "sangwonName": null, "gu": null, "lat": null, "lon": null, "survivalProbability": 0.726, "monthlyEstimateKRW": 1501038685, "salesPercentile": 88.6}, {"sangwonCode": 3120070, "sangwonName": "한성대입구역", "gu": "성북구", "lat": 37.5891705056814, "lon": 127.00817480174283, "survivalProbability": 0.726, "monthlyEstimateKRW": 348274557, "salesPercentile": 22.3}, {"sangwonCode": 3130316, "sangwonName": "마천시장", "gu": "송파구", "lat": 37.49824521772415, "lon": 127.15046217507246, "survivalProbability": 0.726, "monthlyEstimateKRW": 931432625, "salesPercentile": 78.1}, {"sangwonCode": 3130317, "sangwonName": "마천중앙시장", "gu": "송파구", "lat": 37.49804614532687, "lon": 127.1511289864303, "survivalProbability": 0.726, "monthlyEstimateKRW": 1167062923, "salesPercentile": 82.3}, {"sangwonCode": 3120077, "sangwonName": "미아역", "gu": "강북구", "lat": 37.625667032174505, "lon": 127.02592973155743, "survivalProbability": 0.726, "monthlyEstimateKRW": 354176850, "salesPercentile": 25.8}, {"sangwonCode": 3110850, "sangwonName": "사당역 10번", "gu": "동작구", "lat": 37.47941785252698, "lon": 126.97815707930891, "survivalProbability": 0.726, "monthlyEstimateKRW": 647546846, "salesPercentile": 69.1}, {"sangwonCode": 3130319, "sangwonName": "성내전통시장", "gu": "강동구", "lat": 37.53365462601447, "lon": 127.12749791159769, "survivalProbability": 0.726, "monthlyEstimateKRW": 1344832748, "salesPercentile": 85.1}, {"sangwonCode": 3130320, "sangwonName": "암사종합시장", "gu": "강동구", "lat": 37.55089800730779, "lon": 127.12910029175102, "survivalProbability": 0.726, "monthlyEstimateKRW": 2152450223, "salesPercentile": 98.4}, {"sangwonCode": 3110842, "sangwonName": "흑리단길", "gu": "동작구", "lat": 37.507291849271816, "lon": 126.96500666857686, "survivalProbability": 0.726, "monthlyEstimateKRW": 365221425, "salesPercentile": 30.5}, {"sangwonCode": 3130322, "sangwonName": "고분다리전통시장", "gu": "강동구", "lat": 37.542306947230635, "lon": 127.13319294571787, "survivalProbability": 0.726, "monthlyEstimateKRW": 610965301, "salesPercentile": 64.4}, {"sangwonCode": 3120075, "sangwonName": "월곡역", "gu": "성북구", "lat": 37.60316469689532, "lon": 127.04207074206094, "survivalProbability": 0.726, "monthlyEstimateKRW": 349915539, "salesPercentile": 23.7}, {"sangwonCode": 3120072, "sangwonName": "성신여대", "gu": "성북구", "lat": 37.59236801480705, "lon": 127.01749391828598, "survivalProbability": 0.726, "monthlyEstimateKRW": 446513578, "salesPercentile": 47.4}, {"sangwonCode": 3130323, "sangwonName": "둔촌역전통시장", "gu": "강동구", "lat": 37.527808641751314, "lon": 127.13426453864876, "survivalProbability": 0.726, "monthlyEstimateKRW": 2214874567, "salesPercentile": 99.3}, {"sangwonCode": 3130324, "sangwonName": "길동복조리시장", "gu": "강동구", "lat": 37.53901513097588, "lon": 127.14358543114432, "survivalProbability": 0.726, "monthlyEstimateKRW": 1176771085, "salesPercentile": 83.0}, {"sangwonCode": 3130325, "sangwonName": "명일전통시장", "gu": "강동구", "lat": 37.54921234914935, "lon": 127.14529113086861, "survivalProbability": 0.726, "monthlyEstimateKRW": 1603594647, "salesPercentile": 90.2}]}