{"industryCode": "CS300021", "industryName": "문구", "dataAsOf": "2026-Q1", "survivalGranularity": "seoul_industry", "cells": [{"sangwonCode": 3110686, "sangwonName": "수궁동주민센터", "gu": "구로구", "lat": 37.494638620747644, "lon": 126.83415467880374, "survivalProbability": 0.8201, "monthlyEstimateKRW": 80437927, "salesPercentile": 9.0}, {"sangwonCode": 3110651, "sangwonName": "화원중학교", "gu": "강서구", "lat": 37.53644305357173, "lon": 126.83915364557924, "survivalProbability": 0.8201, "monthlyEstimateKRW": 85904196, "salesPercentile": 14.3}, {"sangwonCode": 3110229, "sangwonName": "장평중학교", "gu": "동대문구", "lat": 37.56456190380795, "lon": 127.06999492654315, "survivalProbability": 0.8201, "monthlyEstimateKRW": 86634402, "salesPercentile": 15.4}, {"sangwonCode": 3120207, "sangwonName": "선정릉역", "gu": "강남구", "lat": 37.511468934172726, "lon": 127.04549160322158, "survivalProbability": 0.8201, "monthlyEstimateKRW": 257157070, "salesPercentile": 50.4}, {"sangwonCode": 3120200, "sangwonName": "학동사거리", "gu": "강남구", "lat": 37.523085143438166, "lon": 127.03914106133051, "survivalProbability": 0.8201, "monthlyEstimateKRW": 885069436, "salesPercentile": 85.7}, {"sangwonCode": 3110420, "sangwonName": "광운대역 1번", "gu": "노원구", "lat": 37.62105976995063, "lon": 127.05964942521172, "survivalProbability": 0.8201, "monthlyEstimateKRW": 95253366, "salesPercentile": 21.8}, {"sangwonCode": 3110376, "sangwonName": "수송초등학교", "gu": "강북구", "lat": 37.63939671921139, "lon": 127.03142958043486, "survivalProbability": 0.8201, "monthlyEstimateKRW": 82399524, "salesPercentile": 11.3}, {"sangwonCode": 3120080, "sangwonName": "마들역", "gu": "노원구", "lat": 37.665929860375286, "lon": 127.05746383368468, "survivalProbability": 0.8201, "monthlyEstimateKRW": 317366498, "salesPercentile": 66.2}, {"sangwonCode": 3110294, "sangwonName": "서경대학교", "gu": "성북구", "lat": 37.61092006857486, "lon": 127.01227709840207, "survivalProbability": 0.8201, "monthlyEstimateKRW": 92496680, "salesPercentile": 21.1}, {"sangwonCode": 3110261, "sangwonName": "사가정역 4번", "gu": "중랑구", "lat": 37.57810062863918, "lon": 127.08825666448381, "survivalProbability": 0.8201, "monthlyEstimateKRW": 74552016, "salesPercentile": 2.8}, {"sangwonCode": 3120239, "sangwonName": "오금역", "gu": "송파구", "lat": 37.50177860016498, "lon": 127.12614312912417, "survivalProbability": 0.8201, "monthlyEstimateKRW": 272080960, "salesPercentile": 53.8}, {"sangwonCode": 3120047, "sangwonName": "한남오거리", "gu": "용산구", "lat": 37.53301141680184, "lon": 127.0075690290704, "survivalProbability": 0.8201, "monthlyEstimateKRW": 377676327, "salesPercentile": 75.2}, {"sangwonCode": 3110634, "sangwonName": "송정역 3번", "gu": "강서구", "lat": 37.557416444538866, "lon": 126.81340625888835, "survivalProbability": 0.8201, "monthlyEstimateKRW": 75259719, "salesPercentile": 3.8}, {"sangwonCode": 3130146, "sangwonName": "쌍문시장(쌍문역골목시장)", "gu": "도봉구", "lat": 37.6482621596876, "lon": 127.0323284968481, "survivalProbability": 0.8201, "monthlyEstimateKRW": 187896362, "salesPercentile": 41.7}, {"sangwonCode": 3110933, "sangwonName": "한국상담대학원대학교", "gu": "서초구", "lat": 37.48654447590172, "lon": 127.02368802557318, "survivalProbability": 0.8201, "monthlyEstimateKRW": 719469483, "salesPercentile": 83.5}, {"sangwonCode": 3110907, "sangwonName": "방배초등학교", "gu": "서초구", "lat": 37.48702347050339, "lon": 126.98530089260097, "survivalProbability": 0.8201, "monthlyEstimateKRW": 80804553, "salesPercentile": 9.4}, {"sangwonCode": 3110139, "sangwonName": "자양4동주민센터", "gu": "광진구", "lat": 37.53512096389572, "lon": 127.06347301482698, "survivalProbability": 0.8201, "monthlyEstimateKRW": 85673871, "salesPercentile": 13.2}, {"sangwonCode": 3111086, "sangwonName": "한영중고", "gu": "강동구", "lat": 37.5479481533716, "lon": 127.15459058686204, "survivalProbability": 0.8201, "monthlyEstimateKRW": 78828778, "salesPercentile": 4.9}, {"sangwonCode": 3120187, "sangwonName": "신논현역", "gu": "강남구", "lat": 37.50502379497898, "lon": 127.02527722374786, "survivalProbability": 0.8201, "monthlyEstimateKRW": 140073684, "salesPercentile": 32.7}, {"sangwonCode": 3120168, "sangwonName": "서울고교교차로", "gu": "서초구", "lat": 37.482474210317946, "lon": 127.00439815853709, "survivalProbability": 0.8201, "monthlyEstimateKRW": 297980466, "salesPercentile": 57.9}, {"sangwonCode": 3120039, "sangwonName": "신당역", "gu": "중구", "lat": 37.565428542094914, "lon": 127.01572187665211, "survivalProbability": 0.8201, "monthlyEstimateKRW": 322941708, "salesPercentile": 69.2}, {"sangwonCode": 3120118, "sangwonName": "마곡역(마곡)", "gu": "강서구", "lat": 37.559968767639305, "lon": 126.82687963835888, "survivalProbability": 0.8201, "monthlyEstimateKRW": 572468203, "salesPercentile": 81.6}, {"sangwonCode": 3110475, "sangwonName": "백련산해모로아파트", "gu": "은평구", "lat": 37.59773160300439, "lon": 126.92220593140247, "survivalProbability": 0.8201, "monthlyEstimateKRW": 83648068, "salesPercentile": 12.0}, {"sangwonCode": 3110036, "sangwonName": "동묘앞역 3번", "gu": "종로구", "lat": 37.57305028574799, "lon": 127.02018355835784, "survivalProbability": 0.8201, "monthlyEstimateKRW": 79126958, "salesPercentile": 6.4}, {"sangwonCode": 3120158, "sangwonName": "녹두거리(대학동)", "gu": "관악구", "lat": 37.47031189276306, "lon": 126.93701139594275, "survivalProbability": 0.8201, "monthlyEstimateKRW": 279966812, "salesPercentile": 54.5}, {"sangwonCode": 3130070, "sangwonName": "뚝섬역상점가", "gu": "성동구", "lat": 37.548444588661376, "lon": 127.04910132457829, "survivalProbability": 0.8201, "monthlyEstimateKRW": 297107132, "salesPercentile": 57.1}, {"sangwonCode": 3120167, "sangwonName": "고속터미널(고속터미널역)", "gu": "서초구", "lat": 37.50505341252054, "lon": 127.00525902182616, "survivalProbability": 0.8201, "monthlyEstimateKRW": 206809799, "salesPercentile": 44.4}, {"sangwonCode": 3111019, "sangwonName": "한성백제역 3번", "gu": "송파구", "lat": 37.5135634626904, "lon": 127.11767970969707, "survivalProbability": 0.8201, "monthlyEstimateKRW": 74193471, "salesPercentile": 1.9}, {"sangwonCode": 3130031, "sangwonName": "청계천공구상가", "gu": "중구", "lat": 37.56763671059657, "lon": 126.99132950824925, "survivalProbability": 0.8201, "monthlyEstimateKRW": 261043309, "salesPercentile": 51.1}, {"sangwonCode": 3120240, "sangwonName": "개롱역", "gu": "송파구", "lat": 37.49604787721762, "lon": 127.13460345002983, "survivalProbability": 0.8201, "monthlyEstimateKRW": 166829777, "salesPercentile": 36.5}, {"sangwonCode": 3120230, "sangwonName": "송파사거리(송파역)", "gu": "송파구", "lat": 37.50111869275051, "lon": 127.11030924458171, "survivalProbability": 0.8201, "monthlyEstimateKRW": 298666084, "salesPercentile": 58.3}, {"sangwonCode": 3110300, "sangwonName": "삼선동주민센터", "gu": "성북구", "lat": 37.58927728633153, "lon": 127.01956520434038, "survivalProbability": 0.8201, "monthlyEstimateKRW": 101101331, "salesPercentile": 25.9}, {"sangwonCode": 3120215, "sangwonName": "포스코사거리", "gu": "강남구", "lat": 37.50682411890163, "lon": 127.05626720528876, "survivalProbability": 0.8201, "monthlyEstimateKRW": 903613961, "salesPercentile": 86.5}, {"sangwonCode": 3120213, "sangwonName": "삼성중앙역", "gu": "강남구", "lat": 37.51155556604917, "lon": 127.05374846991917, "survivalProbability": 0.8201, "monthlyEstimateKRW": 179997621, "salesPercentile": 39.1}, {"sangwonCode": 3120217, "sangwonName": "대치사거리", "gu": "강남구", "lat": 37.503038855171134, "lon": 127.05841315411669, "survivalProbability": 0.8201, "monthlyEstimateKRW": 138309245, "salesPercentile": 32.3}, {"sangwonCode": 3120212, "sangwonName": "한티역", "gu": "강남구", "lat": 37.49742786864853, "lon": 127.05360263990124, "survivalProbability": 0.8201, "monthlyEstimateKRW": 332603650, "salesPercentile": 71.4}, {"sangwonCode": 3120218, "sangwonName": "코엑스", "gu": "강남구", "lat": 37.51216568743434, "lon": 127.05911022474436, "survivalProbability": 0.8201, "monthlyEstimateKRW": 350039551, "salesPercentile": 73.7}, {"sangwonCode": 3110297, "sangwonName": "경동고등학교", "gu": "성북구", "lat": 37.588205872807336, "lon": 127.01419815660745, "survivalProbability": 0.8201, "monthlyEstimateKRW": 88592293, "salesPercentile": 18.8}, {"sangwonCode": 3120211, "sangwonName": "도성초등학교", "gu": "강남구", "lat": 37.50063596235816, "lon": 127.05246271839206, "survivalProbability": 0.8201, "monthlyEstimateKRW": 280993659, "salesPercentile": 54.9}, {"sangwonCode": 3120219, "sangwonName": "은마아파트", "gu": "강남구", "lat": 37.49884807441995, "lon": 127.06060379417535, "survivalProbability": 0.8201, "monthlyEstimateKRW": 256988437, "salesPercentile": 50.0}, {"sangwonCode": 3120220, "sangwonName": "대치역", "gu": "강남구", "lat": 37.494188996315316, "lon": 127.06228493383824, "survivalProbability": 0.8201, "monthlyEstimateKRW": 272033957, "salesPercentile": 53.4}, {"sangwonCode": 3120210, "sangwonName": "선릉역", "gu": "강남구", "lat": 37.50461073634166, "lon": 127.04935534409961, "survivalProbability": 0.8201, "monthlyEstimateKRW": 1268948433, "salesPercentile": 90.6}, {"sangwonCode": 3120221, "sangwonName": "봉은사역", "gu": "강남구", "lat": 37.51446155948791, "lon": 127.06239226670147, "survivalProbability": 0.8201, "monthlyEstimateKRW": 299460715, "salesPercentile": 58.6}, {"sangwonCode": 3110274, "sangwonName": "서일대학교", "gu": "중랑구", "lat": 37.58956195338933, "lon": 127.09875482708568, "survivalProbability": 0.8201, "monthlyEstimateKRW": 96581079, "salesPercentile": 22.9}, {"sangwonCode": 3120209, "sangwonName": "강남구청(청담역_8번, 강남세무서)", "gu": "강남구", "lat": 37.51874742762321, "lon": 127.04951170686684, "survivalProbability": 0.8201, "monthlyEstimateKRW": 1505107648, "salesPercentile": 94.4}, {"sangwonCode": 3120222, "sangwonName": "삼성역", "gu": "강남구", "lat": 37.508667696206736, "lon": 127.06315654228577, "survivalProbability": 0.8201, "monthlyEstimateKRW": 539466698, "salesPercentile": 80.5}, {"sangwonCode": 3110710, "sangwonName": "남구로역 3번", "gu": "구로구", "lat": 37.486886294270526, "lon": 126.88394512624056, "survivalProbability": 0.8201, "monthlyEstimateKRW": 80192519, "salesPercentile": 8.3}, {"sangwonCode": 3120208, "sangwonName": "청담사거리(청담동명품거리)", "gu": "강남구", "lat": 37.524829939190084, "lon": 127.04770569306329, "survivalProbability": 0.8201, "monthlyEstimateKRW": 709076144, "salesPercentile": 83.1}, {"sangwonCode": 3120224, "sangwonName": "수서역", "gu": "강남구", "lat": 37.487781357677065, "lon": 127.10303046246761, "survivalProbability": 0.8201, "monthlyEstimateKRW": 319036327, "salesPercentile": 67.3}, {"sangwonCode": 3120225, "sangwonName": "잠실새내역(신천)", "gu": "송파구", "lat": 37.51048475437836, "lon": 127.0825782728224, "survivalProbability": 0.8201, "monthlyEstimateKRW": 803270664, "salesPercentile": 85.0}, {"sangwonCode": 3120206, "sangwonName": "개나리아파트", "gu": "강남구", "lat": 37.49725157451181, "lon": 127.04415987749276, "survivalProbability": 0.8201, "monthlyEstimateKRW": 330835545, "salesPercentile": 71.1}, {"sangwonCode": 3120204, "sangwonName": "르네상스호텔사거리", "gu": "강남구", "lat": 37.50309058777553, "lon": 127.04281749442562, "survivalProbability": 0.8201, "monthlyEstimateKRW": 271716223, "salesPercentile": 53.0}, {"sangwonCode": 3110713, "sangwonName": "구로보건소", "gu": "구로구", "lat": 37.50126053635339, "lon": 126.88723646192494, "survivalProbability": 0.8201, "monthlyEstimateKRW": 92159695, "salesPercentile": 20.7}, {"sangwonCode": 3120203, "sangwonName": "강남구청역", "gu": "강남구", "lat": 37.51624600772093, "lon": 127.04068715258765, "survivalProbability": 0.8201, "monthlyEstimateKRW": 327685069, "salesPercentile": 69.5}, {"sangwonCode": 3120228, "sangwonName": "석촌역(석촌호수)", "gu": "송파구", "lat": 37.50602362134798, "lon": 127.1065389661683, "survivalProbability": 0.8201, "monthlyEstimateKRW": 190415410, "salesPercentile": 42.1}, {"sangwonCode": 3111089, "sangwonName": "상일여고(상일초등학교)", "gu": "강동구", "lat": 37.54811423179494, "lon": 127.17135024456684, "survivalProbability": 0.8201, "monthlyEstimateKRW": 78897224, "salesPercentile": 5.6}, {"sangwonCode": 3111059, "sangwonName": "강동역 4번(강풀만화거리)", "gu": "강동구", "lat": 37.533876788109865, "lon": 127.13032680682069, "survivalProbability": 0.8201, "monthlyEstimateKRW": 88074137, "salesPercentile": 18.0}, {"sangwonCode": 3110316, "sangwonName": "숭곡초등학교", "gu": "성북구", "lat": 37.60814966101142, "lon": 127.03438366024915, "survivalProbability": 0.8201, "monthlyEstimateKRW": 136677413, "salesPercentile": 31.6}, {"sangwonCode": 3120229, "sangwonName": "방이동먹자골목", "gu": "송파구", "lat": 37.51438248056646, "lon": 127.10923158441152, "survivalProbability": 0.8201, "monthlyEstimateKRW": 143460311, "salesPercentile": 34.2}, {"sangwonCode": 3120201, "sangwonName": "도곡1동", "gu": "강남구", "lat": 37.49256784501679, "lon": 127.03992798739, "survivalProbability": 0.8201, "monthlyEstimateKRW": 356601170, "salesPercentile": 74.4}, {"sangwonCode": 3120001, "sangwonName": "서대문역", "gu": "종로구", "lat": 37.566677102939934, "lon": 126.96608817274021, "survivalProbability": 0.8201, "monthlyEstimateKRW": 318859660, "salesPercentile": 66.9}, {"sangwonCode": 3120232, "sangwonName": "송파나루역", "gu": "송파구", "lat": 37.51012711047405, "lon": 127.11204169365998, "survivalProbability": 0.8201, "monthlyEstimateKRW": 297930037, "salesPercentile": 57.5}, {"sangwonCode": 3120233, "sangwonName": "몽촌토성역", "gu": "송파구", "lat": 37.51596426713219, "lon": 127.11345302908573, "survivalProbability": 0.8201, "monthlyEstimateKRW": 212363353, "salesPercentile": 45.5}, {"sangwonCode": 3120198, "sangwonName": "구역삼세무서", "gu": "강남구", "lat": 37.49553304713569, "lon": 127.03720426859347, "survivalProbability": 0.8201, "monthlyEstimateKRW": 334961155, "salesPercentile": 72.2}, {"sangwonCode": 3120234, "sangwonName": "가락시장역", "gu": "송파구", "lat": 37.494695372813744, "lon": 127.11872437303792, "survivalProbability": 0.8201, "monthlyEstimateKRW": 187406640, "salesPercentile": 41.4}, {"sangwonCode": 3120235, "sangwonName": "문정역", "gu": "송파구", "lat": 37.48551288001509, "lon": 127.11994227871679, "survivalProbability": 0.8201, "monthlyEstimateKRW": 784761321, "salesPercentile": 84.6}, {"sangwonCode": 3120197, "sangwonName": "역삼역", "gu": "강남구", "lat": 37.500398869563554, "lon": 127.03595138126002, "survivalProbability": 0.8201, "monthlyEstimateKRW": 1779893409, "salesPercentile": 97.7}, {"sangwonCode": 3120003, "sangwonName": "광화문역", "gu": "종로구", "lat": 37.57196808426292, "lon": 126.97459828971189, "survivalProbability": 0.8201, "monthlyEstimateKRW": 1841178763, "salesPercentile": 98.9}, {"sangwonCode": 3120236, "sangwonName": "장지역(가든파이브)", "gu": "송파구", "lat": 37.47804006486017, "lon": 127.12329941653981, "survivalProbability": 0.8201, "monthlyEstimateKRW": 1645134959, "salesPercentile": 95.9}, {"sangwonCode": 3120196, "sangwonName": "서울세관", "gu": "강남구", "lat": 37.515328702568155, "lon": 127.03534773317885, "survivalProbability": 0.8201, "monthlyEstimateKRW": 474689544, "salesPercentile": 79.3}, {"sangwonCode": 3111048, "sangwonName": "천호역 1번(천호문구완구거리)", "gu": "강동구", "lat": 37.54091418243181, "lon": 127.12132089509707, "survivalProbability": 0.8201, "monthlyEstimateKRW": 122570810, "salesPercentile": 28.2}, {"sangwonCode": 3110252, "sangwonName": "장안제일시장", "gu": "중랑구", "lat": 37.58527730400473, "lon": 127.0816305342528, "survivalProbability": 0.8201, "monthlyEstimateKRW": 75132057, "salesPercentile": 3.4}, {"sangwonCode": 3120237, "sangwonName": "경찰병원역", "gu": "송파구", "lat": 37.49717102650773, "lon": 127.12080906154488, "survivalProbability": 0.8201, "monthlyEstimateKRW": 169020541, "salesPercentile": 37.2}, {"sangwonCode": 3110250, "sangwonName": "화랑대역 7번", "gu": "중랑구", "lat": 37.61775786420861, "lon": 127.08183593250513, "survivalProbability": 0.8201, "monthlyEstimateKRW": 79126958, "salesPercentile": 6.4}, {"sangwonCode": 3110673, "sangwonName": "뜸부기어린이공원", "gu": "강서구", "lat": 37.53041452973515, "lon": 126.85970067142665, "survivalProbability": 0.8201, "monthlyEstimateKRW": 1033537332, "salesPercentile": 87.6}, {"sangwonCode": 3120004, "sangwonName": "종로구청", "gu": "종로구", "lat": 37.57410466145737, "lon": 126.98109533500013, "survivalProbability": 0.8201, "monthlyEstimateKRW": 208238999, "salesPercentile": 44.7}, {"sangwonCode": 3111046, "sangwonName": "마천역(마천초등학교)", "gu": "송파구", "lat": 37.495999240540726, "lon": 127.15239139655954, "survivalProbability": 0.8201, "monthlyEstimateKRW": 74141320, "salesPercentile": 1.1}, {"sangwonCode": 3120193, "sangwonName": "도산공원교차로", "gu": "강남구", "lat": 37.521564162466845, "lon": 127.03357465676805, "survivalProbability": 0.8201, "monthlyEstimateKRW": 301092564, "salesPercentile": 59.4}, {"sangwonCode": 3120192, "sangwonName": "뱅뱅사거리", "gu": "강남구", "lat": 37.4902548060724, "lon": 127.03149136697971, "survivalProbability": 0.8201, "monthlyEstimateKRW": 389280131, "salesPercentile": 75.6}, {"sangwonCode": 3120006, "sangwonName": "종각역", "gu": "종로구", "lat": 37.57037490191488, "lon": 126.98349603169189, "survivalProbability": 0.8201, "monthlyEstimateKRW": 1340583168, "salesPercentile": 92.1}, {"sangwonCode": 3110670, "sangwonName": "신곡초등학교", "gu": "강서구", "lat": 37.53553664636464, "lon": 126.85590077983865, "survivalProbability": 0.8201, "monthlyEstimateKRW": 86670356, "salesPercentile": 15.8}, {"sangwonCode": 3120242, "sangwonName": "강동구청역", "gu": "강동구", "lat": 37.52923581309821, "lon": 127.12268220880003, "survivalProbability": 0.8201, "monthlyEstimateKRW": 316281487, "salesPercentile": 65.0}, {"sangwonCode": 3120007, "sangwonName": "북촌(안국역)", "gu": "종로구", "lat": 37.57915989328047, "lon": 126.98574695667236, "survivalProbability": 0.8201, "monthlyEstimateKRW": 187068865, "salesPercentile": 40.2}, {"sangwonCode": 3120190, "sangwonName": "강남을지병원", "gu": "강남구", "lat": 37.520006819268275, "lon": 127.02825732811267, "survivalProbability": 0.8201, "monthlyEstimateKRW": 151849854, "salesPercentile": 35.0}, {"sangwonCode": 3120243, "sangwonName": "천호역", "gu": "강동구", "lat": 37.53952339599033, "lon": 127.12444156010653, "survivalProbability": 0.8201, "monthlyEstimateKRW": 1394656569, "salesPercentile": 93.6}, {"sangwonCode": 3110668, "sangwonName": "화곡2동주민센터", "gu": "강서구", "lat": 37.53247006333166, "lon": 126.85331580752785, "survivalProbability": 0.8201, "monthlyEstimateKRW": 88945717, "salesPercentile": 19.2}, {"sangwonCode": 3120189, "sangwonName": "강남역", "gu": "서초구", "lat": 37.497571920870165, "lon": 127.02775129423334, "survivalProbability": 0.8201, "monthlyEstimateKRW": 1630723450, "salesPercentile": 95.5}, {"sangwonCode": 3120008, "sangwonName": "인사동", "gu": "종로구", "lat": 37.57390703196603, "lon": 126.98522723193123, "survivalProbability": 0.8201, "monthlyEstimateKRW": 1780255930, "salesPercentile": 98.1}, {"sangwonCode": 3120245, "sangwonName": "둔촌역", "gu": "강동구", "lat": 37.526339264817906, "lon": 127.13491805500612, "survivalProbability": 0.8201, "monthlyEstimateKRW": 316774892, "salesPercentile": 65.4}, {"sangwonCode": 3120188, "sangwonName": "압구정역", "gu": "강남구", "lat": 37.52546693782541, "lon": 127.02807838256531, "survivalProbability": 0.8201, "monthlyEstimateKRW": 249423145, "salesPercentile": 48.9}, {"sangwonCode": 3111034, "sangwonName": "오동나무공원(송파레미니스1단지)", "gu": "송파구", "lat": 37.50662576054443, "lon": 127.13453196048948, "survivalProbability": 0.8201, "monthlyEstimateKRW": 106751966, "salesPercentile": 27.8}, {"sangwonCode": 3110729, "sangwonName": "가산동우체국", "gu": "금천구", "lat": 37.47802914720058, "lon": 126.8932520648618, "survivalProbability": 0.8201, "monthlyEstimateKRW": 81907830, "salesPercentile": 10.9}, {"sangwonCode": 3120009, "sangwonName": "종로3가역", "gu": "종로구", "lat": 37.57165510209864, "lon": 126.99069513429947, "survivalProbability": 0.8201, "monthlyEstimateKRW": 608116339, "salesPercentile": 82.3}, {"sangwonCode": 3120246, "sangwonName": "길동역", "gu": "강동구", "lat": 37.536471614031555, "lon": 127.13829670196402, "survivalProbability": 0.8201, "monthlyEstimateKRW": 179003097, "salesPercentile": 38.7}, {"sangwonCode": 3110665, "sangwonName": "곰달래도서관", "gu": "강서구", "lat": 37.52964910739219, "lon": 126.85265383966636, "survivalProbability": 0.8201, "monthlyEstimateKRW": 1334761467, "salesPercentile": 91.7}, {"sangwonCode": 3120186, "sangwonName": "가로수길", "gu": "강남구", "lat": 37.52077389382864, "lon": 127.0225789449648, "survivalProbability": 0.8201, "monthlyEstimateKRW": 202316375, "salesPercentile": 44.0}, {"sangwonCode": 3110232, "sangwonName": "동대부고", "gu": "동대문구", "lat": 37.577299862320345, "lon": 127.07347096415802, "survivalProbability": 0.8201, "monthlyEstimateKRW": 87417116, "salesPercentile": 16.5}, {"sangwonCode": 3110230, "sangwonName": "장안현대홈타운1차아파트", "gu": "동대문구", "lat": 37.56900286007882, "lon": 127.07158379588344, "survivalProbability": 0.8201, "monthlyEstimateKRW": 83660718, "salesPercentile": 12.8}, {"sangwonCode": 3120185, "sangwonName": "논현역", "gu": "강남구", "lat": 37.51104318245634, "lon": 127.02189737579353, "survivalProbability": 0.8201, "monthlyEstimateKRW": 180765632, "salesPercentile": 39.5}, {"sangwonCode": 3120012, "sangwonName": "대학로(혜화역)", "gu": "종로구", "lat": 37.5827467014045, "lon": 127.00132461165737, "survivalProbability": 0.8201, "monthlyEstimateKRW": 964476295, "salesPercentile": 86.8}, {"sangwonCode": 3120184, "sangwonName": "포이사거리(삼호물산)", "gu": "서초구", "lat": 37.47696053249972, "lon": 127.04506367970757, "survivalProbability": 0.8201, "monthlyEstimateKRW": 1410536268, "salesPercentile": 94.0}, {"sangwonCode": 3111027, "sangwonName": "문정초등학교", "gu": "송파구", "lat": 37.48862354516316, "lon": 127.12648283683586, "survivalProbability": 0.8201, "monthlyEstimateKRW": 98449920, "salesPercentile": 24.8}, {"sangwonCode": 3120013, "sangwonName": "이화사거리", "gu": "종로구", "lat": 37.57493507964541, "lon": 127.00158483982133, "survivalProbability": 0.8201, "monthlyEstimateKRW": 329622966, "salesPercentile": 69.9}, {"sangwonCode": 3120182, "sangwonName": "양재시민의숲역(양재동꽃시장, aT센터)", "gu": "서초구", "lat": 37.469384734597455, "lon": 127.04036782735055, "survivalProbability": 0.8201, "monthlyEstimateKRW": 416229544, "salesPercentile": 77.4}, {"sangwonCode": 3110372, "sangwonName": "강북중학교", "gu": "강북구", "lat": 37.643190633332985, "lon": 127.0283945689594, "survivalProbability": 0.8201, "monthlyEstimateKRW": 74379665, "salesPercentile": 2.3}, {"sangwonCode": 3120181, "sangwonName": "교육개발원입구사거리", "gu": "서초구", "lat": 37.47719715795056, "lon": 127.038370951405, "survivalProbability": 0.8201, "monthlyEstimateKRW": 311600151, "salesPercentile": 62.4}, {"sangwonCode": 3120014, "sangwonName": "종로5가역", "gu": "종로구", "lat": 37.571907724627984, "lon": 127.00232056437183, "survivalProbability": 0.8201, "monthlyEstimateKRW": 365887886, "salesPercentile": 74.8}, {"sangwonCode": 3130018, "sangwonName": "동대문문구완구거리(동대문문구완구시장)", "gu": "종로구", "lat": 37.57142039698896, "lon": 127.0138553769603, "survivalProbability": 0.8201, "monthlyEstimateKRW": 2127760389, "salesPercentile": 100.0}, {"sangwonCode": 3130022, "sangwonName": "숭례문수입상가(남대문시장)", "gu": "중구", "lat": 37.55943555342979, "lon": 126.9761531025199, "survivalProbability": 0.8201, "monthlyEstimateKRW": 854607420, "salesPercentile": 85.3}, {"sangwonCode": 3120179, "sangwonName": "양재역", "gu": "서초구", "lat": 37.484496660060245, "lon": 127.03403294046717, "survivalProbability": 0.8201, "monthlyEstimateKRW": 1287696286, "salesPercentile": 91.0}, {"sangwonCode": 3130024, "sangwonName": "남대문시장(자유상가)", "gu": "중구", "lat": 37.55957999880267, "lon": 126.97761307341452, "survivalProbability": 0.8201, "monthlyEstimateKRW": 547639676, "salesPercentile": 81.2}, {"sangwonCode": 3120015, "sangwonName": "종로6가", "gu": "종로구", "lat": 37.57210575706799, "lon": 127.00702963068177, "survivalProbability": 0.8201, "monthlyEstimateKRW": 196132568, "salesPercentile": 43.2}, {"sangwonCode": 3110659, "sangwonName": "화곡역 4번", "gu": "강서구", "lat": 37.54056131421404, "lon": 126.84644302224991, "survivalProbability": 0.8201, "monthlyEstimateKRW": 125588457, "salesPercentile": 28.6}, {"sangwonCode": 3120178, "sangwonName": "신사역", "gu": "서초구", "lat": 37.515963075171285, "lon": 127.01955735958383, "survivalProbability": 0.8201, "monthlyEstimateKRW": 330676560, "salesPercentile": 70.7}, {"sangwonCode": 3130032, "sangwonName": "인현시장", "gu": "중구", "lat": 37.56324907476504, "lon": 126.9950651270371, "survivalProbability": 0.8201, "monthlyEstimateKRW": 311793586, "salesPercentile": 63.2}, {"sangwonCode": 3120177, "sangwonName": "신논현역 1번", "gu": "서초구", "lat": 37.50543027854698, "lon": 127.01988259526811, "survivalProbability": 0.8201, "monthlyEstimateKRW": 133489650, "salesPercentile": 30.1}, {"sangwonCode": 3130035, "sangwonName": "방산종합시장(방산시장)", "gu": "중구", "lat": 37.56800643712113, "lon": 127.00016978853688, "survivalProbability": 0.8201, "monthlyEstimateKRW": 1942703905, "salesPercentile": 99.2}, {"sangwonCode": 3110216, "sangwonName": "전농중학교", "gu": "동대문구", "lat": 37.57890305419834, "lon": 127.0583704812324, "survivalProbability": 0.8201, "monthlyEstimateKRW": 83656571, "salesPercentile": 12.4}, {"sangwonCode": 3130036, "sangwonName": "중부시장(신중부시장)", "gu": "중구", "lat": 37.56561879780388, "lon": 127.00026033411363, "survivalProbability": 0.8201, "monthlyEstimateKRW": 194674752, "salesPercentile": 42.9}, {"sangwonCode": 3120175, "sangwonName": "남부터미널역", "gu": "서초구", "lat": 37.48511285891225, "lon": 127.01811336179759, "survivalProbability": 0.8201, "monthlyEstimateKRW": 268505095, "salesPercentile": 51.9}, {"sangwonCode": 3110390, "sangwonName": "방학초등학교", "gu": "도봉구", "lat": 37.66294826180096, "lon": 127.0319948557538, "survivalProbability": 0.8201, "monthlyEstimateKRW": 78828778, "salesPercentile": 4.9}, {"sangwonCode": 3120018, "sangwonName": "중림동", "gu": "중구", "lat": 37.55949660361493, "lon": 126.96766462208775, "survivalProbability": 0.8201, "monthlyEstimateKRW": 199663930, "salesPercentile": 43.6}, {"sangwonCode": 3120173, "sangwonName": "교대역(법원.검찰청)", "gu": "서초구", "lat": 37.49370893679033, "lon": 127.0147795736092, "survivalProbability": 0.8201, "monthlyEstimateKRW": 1093488512, "salesPercentile": 89.1}, {"sangwonCode": 3111015, "sangwonName": "석촌역 3번", "gu": "송파구", "lat": 37.50603667404324, "lon": 127.11191117169507, "survivalProbability": 0.8201, "monthlyEstimateKRW": 97725073, "salesPercentile": 24.4}, {"sangwonCode": 3120020, "sangwonName": "시청역_1번", "gu": "중구", "lat": 37.564138422507476, "lon": 126.97455567383845, "survivalProbability": 0.8201, "monthlyEstimateKRW": 309951339, "salesPercentile": 61.7}, {"sangwonCode": 3120172, "sangwonName": "교대입구교차로", "gu": "서초구", "lat": 37.48774452227515, "lon": 127.01257351118738, "survivalProbability": 0.8201, "monthlyEstimateKRW": 244195754, "salesPercentile": 48.1}, {"sangwonCode": 3130056, "sangwonName": "용산용문시장", "gu": "용산구", "lat": 37.53643776809258, "lon": 126.96020703642986, "survivalProbability": 0.8201, "monthlyEstimateKRW": 395280850, "salesPercentile": 76.3}, {"sangwonCode": 3120021, "sangwonName": "시청역_8번", "gu": "중구", "lat": 37.561759723268, "lon": 126.97423957068088, "survivalProbability": 0.8201, "monthlyEstimateKRW": 330182940, "salesPercentile": 70.3}, {"sangwonCode": 3120171, "sangwonName": "서초3동사거리", "gu": "서초구", "lat": 37.48268994804575, "lon": 127.01176991309515, "survivalProbability": 0.8201, "monthlyEstimateKRW": 337955893, "salesPercentile": 72.6}, {"sangwonCode": 3120022, "sangwonName": "북창동(시청역_6번)", "gu": "중구", "lat": 37.56302181255746, "lon": 126.97764599900339, "survivalProbability": 0.8201, "monthlyEstimateKRW": 400614753, "salesPercentile": 77.1}, {"sangwonCode": 3110654, "sangwonName": "까치산역 4번", "gu": "강서구", "lat": 37.53303109083655, "lon": 126.8412427376533, "survivalProbability": 0.8201, "monthlyEstimateKRW": 105492902, "salesPercentile": 27.4}, {"sangwonCode": 3120169, "sangwonName": "서초역", "gu": "서초구", "lat": 37.49146604063206, "lon": 127.0085938332724, "survivalProbability": 0.8201, "monthlyEstimateKRW": 341471967, "salesPercentile": 72.9}, {"sangwonCode": 3120023, "sangwonName": "서울시청", "gu": "중구", "lat": 37.56803140163849, "lon": 126.97791616374444, "survivalProbability": 0.8201, "monthlyEstimateKRW": 667587098, "salesPercentile": 82.7}, {"sangwonCode": 3110399, "sangwonName": "창2동주민센터", "gu": "도봉구", "lat": 37.64157479754697, "lon": 127.03913516200645, "survivalProbability": 0.8201, "monthlyEstimateKRW": 87583704, "salesPercentile": 16.9}, {"sangwonCode": 3120166, "sangwonName": "방배역", "gu": "서초구", "lat": 37.48166335251674, "lon": 126.99726390009168, "survivalProbability": 0.8201, "monthlyEstimateKRW": 267128972, "salesPercentile": 51.5}, {"sangwonCode": 3120165, "sangwonName": "서래마을카페거리(서래마을)", "gu": "서초구", "lat": 37.498079728383495, "lon": 126.99807752566676, "survivalProbability": 0.8201, "monthlyEstimateKRW": 268794947, "salesPercentile": 52.3}, {"sangwonCode": 3120026, "sangwonName": "을지로입구역", "gu": "중구", "lat": 37.56741061226832, "lon": 126.98339481342215, "survivalProbability": 0.8201, "monthlyEstimateKRW": 136097673, "salesPercentile": 30.8}, {"sangwonCode": 3120164, "sangwonName": "내방역", "gu": "서초구", "lat": 37.48818651312079, "lon": 126.9936227499084, "survivalProbability": 0.8201, "monthlyEstimateKRW": 322436966, "salesPercentile": 68.8}, {"sangwonCode": 3111006, "sangwonName": "석촌고분역 1번", "gu": "송파구", "lat": 37.50490803067036, "lon": 127.09397230648412, "survivalProbability": 0.8201, "monthlyEstimateKRW": 95311557, "salesPercentile": 22.2}, {"sangwonCode": 3120027, "sangwonName": "명동역(명동재미로)", "gu": "중구", "lat": 37.55977021816383, "lon": 126.98379263879171, "survivalProbability": 0.8201, "monthlyEstimateKRW": 308682239, "salesPercentile": 60.9}, {"sangwonCode": 3120162, "sangwonName": "방배동카페골목", "gu": "서초구", "lat": 37.495754294560726, "lon": 126.98580805606072, "survivalProbability": 0.8201, "monthlyEstimateKRW": 269422041, "salesPercentile": 52.6}, {"sangwonCode": 3111005, "sangwonName": "삼전역 3번", "gu": "송파구", "lat": 37.501461266767535, "lon": 127.08868660012052, "survivalProbability": 0.8201, "monthlyEstimateKRW": 74090827, "salesPercentile": 0.8}, {"sangwonCode": 3120160, "sangwonName": "사당역(사당)", "gu": "서초구", "lat": 37.47752639125283, "lon": 126.98206935862181, "survivalProbability": 0.8201, "monthlyEstimateKRW": 157887064, "salesPercentile": 35.7}, {"sangwonCode": 3120028, "sangwonName": "명동(명동거리)", "gu": "중구", "lat": 37.56278854470051, "lon": 126.98370143738255, "survivalProbability": 0.8201, "monthlyEstimateKRW": 334282672, "salesPercentile": 71.8}, {"sangwonCode": 3111004, "sangwonName": "삼전역 1번", "gu": "송파구", "lat": 37.50671672745682, "lon": 127.08515279573975, "survivalProbability": 0.8201, "monthlyEstimateKRW": 152965240, "salesPercentile": 35.3}, {"sangwonCode": 3120159, "sangwonName": "서울대입구역", "gu": "관악구", "lat": 37.48095081268923, "lon": 126.95191519812431, "survivalProbability": 0.8201, "monthlyEstimateKRW": 214689718, "salesPercentile": 46.6}, {"sangwonCode": 3130095, "sangwonName": "청량리전통시장", "gu": "동대문구", "lat": 37.58190077942744, "lon": 127.04347394090428, "survivalProbability": 0.8201, "monthlyEstimateKRW": 1524537466, "salesPercentile": 94.7}, {"sangwonCode": 3120030, "sangwonName": "중부경찰서(영화인의거리)", "gu": "중구", "lat": 37.5627892721598, "lon": 126.9903114098835, "survivalProbability": 0.8201, "monthlyEstimateKRW": 893346313, "salesPercentile": 86.1}, {"sangwonCode": 3120031, "sangwonName": "을지로3가역", "gu": "중구", "lat": 37.56623117746982, "lon": 126.99161264533976, "survivalProbability": 0.8201, "monthlyEstimateKRW": 1746690760, "salesPercentile": 97.4}, {"sangwonCode": 3110415, "sangwonName": "수락산역 4번", "gu": "노원구", "lat": 37.67578860179999, "lon": 127.05315257704137, "survivalProbability": 0.8201, "monthlyEstimateKRW": 88134709, "salesPercentile": 18.4}, {"sangwonCode": 3110166, "sangwonName": "구의1동주민센터", "gu": "광진구", "lat": 37.54099058656442, "lon": 127.08551989838477, "survivalProbability": 0.8201, "monthlyEstimateKRW": 105219244, "salesPercentile": 27.1}, {"sangwonCode": 3120032, "sangwonName": "충무로역", "gu": "중구", "lat": 37.56140202648682, "lon": 126.99494074826379, "survivalProbability": 0.8201, "monthlyEstimateKRW": 1669059918, "salesPercentile": 96.2}, {"sangwonCode": 3110645, "sangwonName": "우장산역 4번", "gu": "강서구", "lat": 37.55222974420196, "lon": 126.83351789025177, "survivalProbability": 0.8201, "monthlyEstimateKRW": 100417437, "salesPercentile": 25.6}, {"sangwonCode": 3120153, "sangwonName": "노량진역(노량진)", "gu": "동작구", "lat": 37.51400342189709, "lon": 126.94026621686946, "survivalProbability": 0.8201, "monthlyEstimateKRW": 315357022, "salesPercentile": 64.7}, {"sangwonCode": 3110997, "sangwonName": "대청초등학교", "gu": "강남구", "lat": 37.491544188739695, "lon": 127.08459279952699, "survivalProbability": 0.8201, "monthlyEstimateKRW": 99181133, "salesPercentile": 25.2}, {"sangwonCode": 3120033, "sangwonName": "을지로4가역", "gu": "중구", "lat": 37.56687113657297, "lon": 126.99670615237726, "survivalProbability": 0.8201, "monthlyEstimateKRW": 474587719, "salesPercentile": 78.9}, {"sangwonCode": 3110759, "sangwonName": "문래예술촌(문래창작촌)", "gu": "영등포구", "lat": 37.51476153758128, "lon": 126.89145784534162, "survivalProbability": 0.8201, "monthlyEstimateKRW": 183955047, "salesPercentile": 39.8}, {"sangwonCode": 3120034, "sangwonName": "중구청(퇴계로4가)", "gu": "중구", "lat": 37.56354649140835, "lon": 126.99809848175721, "survivalProbability": 0.8201, "monthlyEstimateKRW": 311212410, "salesPercentile": 62.0}, {"sangwonCode": 3120036, "sangwonName": "장충동족발거리(남소영길)", "gu": "중구", "lat": 37.56001447161879, "lon": 127.00550056095275, "survivalProbability": 0.8201, "monthlyEstimateKRW": 223964920, "salesPercentile": 47.4}, {"sangwonCode": 3120151, "sangwonName": "보라매공원", "gu": "동작구", "lat": 37.49122632464743, "lon": 126.92503035748912, "survivalProbability": 0.8201, "monthlyEstimateKRW": 314729820, "salesPercentile": 64.3}, {"sangwonCode": 3130113, "sangwonName": "신아타운", "gu": "중랑구", "lat": 37.60640493075793, "lon": 127.09453019739227, "survivalProbability": 0.8201, "monthlyEstimateKRW": 309223102, "salesPercentile": 61.3}, {"sangwonCode": 3120150, "sangwonName": "63빌딩", "gu": "영등포구", "lat": 37.5196884695514, "lon": 126.93970740059652, "survivalProbability": 0.8201, "monthlyEstimateKRW": 319093609, "salesPercentile": 67.7}, {"sangwonCode": 3120037, "sangwonName": "동대문역사문화공원역", "gu": "중구", "lat": 37.56545638813874, "lon": 127.00737989015032, "survivalProbability": 0.8201, "monthlyEstimateKRW": 353227583, "salesPercentile": 74.1}, {"sangwonCode": 3110159, "sangwonName": "구의역 4번", "gu": "광진구", "lat": 37.534966184561476, "lon": 127.0808515528512, "survivalProbability": 0.8201, "monthlyEstimateKRW": 97588488, "salesPercentile": 23.7}, {"sangwonCode": 3120149, "sangwonName": "여의도역(여의도)", "gu": "영등포구", "lat": 37.5226811750762, "lon": 126.92625456940182, "survivalProbability": 0.8201, "monthlyEstimateKRW": 1711788633, "salesPercentile": 97.0}, {"sangwonCode": 3110762, "sangwonName": "선유도역 1번", "gu": "영등포구", "lat": 37.54030612628488, "lon": 126.89276731629242, "survivalProbability": 0.8201, "monthlyEstimateKRW": 127796936, "salesPercentile": 28.9}, {"sangwonCode": 3120148, "sangwonName": "국회의사당역(국회의사당)", "gu": "영등포구", "lat": 37.528552135513465, "lon": 126.92073922815948, "survivalProbability": 0.8201, "monthlyEstimateKRW": 247869122, "salesPercentile": 48.5}, {"sangwonCode": 3120038, "sangwonName": "약수역", "gu": "중구", "lat": 37.554283830627085, "lon": 127.0100270036947, "survivalProbability": 0.8201, "monthlyEstimateKRW": 417964010, "salesPercentile": 77.8}, {"sangwonCode": 3120147, "sangwonName": "보라매역", "gu": "동작구", "lat": 37.49934180334875, "lon": 126.92105283479724, "survivalProbability": 0.8201, "monthlyEstimateKRW": 141234880, "salesPercentile": 33.5}, {"sangwonCode": 3120146, "sangwonName": "한강성심병원", "gu": "영등포구", "lat": 37.5230039545715, "lon": 126.91089197114088, "survivalProbability": 0.8201, "monthlyEstimateKRW": 1100362872, "salesPercentile": 89.5}, {"sangwonCode": 3110429, "sangwonName": "공릉동 국수거리", "gu": "노원구", "lat": 37.62103417354386, "lon": 127.07311752729491, "survivalProbability": 0.8201, "monthlyEstimateKRW": 87742180, "salesPercentile": 17.3}, {"sangwonCode": 3120145, "sangwonName": "영등포역(영등포)", "gu": "영등포구", "lat": 37.51843182609498, "lon": 126.90568269638135, "survivalProbability": 0.8201, "monthlyEstimateKRW": 484364407, "salesPercentile": 79.7}, {"sangwonCode": 3110980, "sangwonName": "개포지구대옆", "gu": "강남구", "lat": 37.4805454368145, "lon": 127.04789233962612, "survivalProbability": 0.8201, "monthlyEstimateKRW": 81290623, "salesPercentile": 10.5}, {"sangwonCode": 3110765, "sangwonName": "문래동사거리", "gu": "영등포구", "lat": 37.51143147963066, "lon": 126.89551189177746, "survivalProbability": 0.8201, "monthlyEstimateKRW": 79126958, "salesPercentile": 6.4}, {"sangwonCode": 3120040, "sangwonName": "용산전자상가(용산역)", "gu": "용산구", "lat": 37.53327570203355, "lon": 126.96155508063566, "survivalProbability": 0.8201, "monthlyEstimateKRW": 1983969989, "salesPercentile": 99.6}, {"sangwonCode": 3120140, "sangwonName": "문래동주민센터", "gu": "영등포구", "lat": 37.51470400084326, "lon": 126.89765645285537, "survivalProbability": 0.8201, "monthlyEstimateKRW": 399182788, "salesPercentile": 76.7}, {"sangwonCode": 3110770, "sangwonName": "영등포구청역 6번", "gu": "영등포구", "lat": 37.52289416609549, "lon": 126.8977131408658, "survivalProbability": 0.8201, "monthlyEstimateKRW": 89024304, "salesPercentile": 19.5}, {"sangwonCode": 3110436, "sangwonName": "상계제일중학교", "gu": "노원구", "lat": 37.658873767809375, "lon": 127.07589721053684, "survivalProbability": 0.8201, "monthlyEstimateKRW": 85835750, "salesPercentile": 13.5}, {"sangwonCode": 3120041, "sangwonName": "신용산역(용산역)", "gu": "용산구", "lat": 37.52899651132542, "lon": 126.96333347099194, "survivalProbability": 0.8201, "monthlyEstimateKRW": 251411171, "salesPercentile": 49.2}, {"sangwonCode": 3120139, "sangwonName": "대림3동사거리", "gu": "영등포구", "lat": 37.50016185253768, "lon": 126.89773284883364, "survivalProbability": 0.8201, "monthlyEstimateKRW": 317642346, "salesPercentile": 66.5}, {"sangwonCode": 3120138, "sangwonName": "당산2동(영등포우체국)", "gu": "영등포구", "lat": 37.529597277291366, "lon": 126.89731933174514, "survivalProbability": 0.8201, "monthlyEstimateKRW": 312012744, "salesPercentile": 63.5}, {"sangwonCode": 3110961, "sangwonName": "언주역 3번", "gu": "강남구", "lat": 37.51091410642729, "lon": 127.03424852226986, "survivalProbability": 0.8201, "monthlyEstimateKRW": 74160291, "salesPercentile": 1.5}, {"sangwonCode": 3120042, "sangwonName": "숙대입구역(남영역, 남영동)", "gu": "용산구", "lat": 37.54225254838164, "lon": 126.97176822424127, "survivalProbability": 0.8201, "monthlyEstimateKRW": 319683592, "salesPercentile": 68.0}, {"sangwonCode": 3120136, "sangwonName": "영등포구청역", "gu": "영등포구", "lat": 37.5253946047632, "lon": 126.89281128917447, "survivalProbability": 0.8201, "monthlyEstimateKRW": 212478563, "salesPercentile": 45.9}, {"sangwonCode": 3110776, "sangwonName": "도신초등학교", "gu": "영등포구", "lat": 37.49754391638084, "lon": 126.90245209989303, "survivalProbability": 0.8201, "monthlyEstimateKRW": 79195404, "salesPercentile": 7.1}, {"sangwonCode": 3120043, "sangwonName": "서울역", "gu": "중구", "lat": 37.556353450145394, "lon": 126.97293992249331, "survivalProbability": 0.8201, "monthlyEstimateKRW": 292665719, "salesPercentile": 56.4}, {"sangwonCode": 3110137, "sangwonName": "성수초등학교", "gu": "성동구", "lat": 37.54616776510738, "lon": 127.06245263029955, "survivalProbability": 0.8201, "monthlyEstimateKRW": 1062806822, "salesPercentile": 88.3}, {"sangwonCode": 3120132, "sangwonName": "독산동", "gu": "금천구", "lat": 37.470740558781436, "lon": 126.89389548521771, "survivalProbability": 0.8201, "monthlyEstimateKRW": 255218390, "salesPercentile": 49.6}, {"sangwonCode": 3120131, "sangwonName": "가산디지털단지", "gu": "금천구", "lat": 37.47710029831843, "lon": 126.88288623812605, "survivalProbability": 0.8201, "monthlyEstimateKRW": 1800790450, "salesPercentile": 98.5}, {"sangwonCode": 3110453, "sangwonName": "신사1동주민센터", "gu": "은평구", "lat": 37.59576090018161, "lon": 126.91284350185038, "survivalProbability": 0.8201, "monthlyEstimateKRW": 134854544, "salesPercentile": 30.5}, {"sangwonCode": 3110131, "sangwonName": "성수동카페거리", "gu": "성동구", "lat": 37.54260426552024, "lon": 127.05336339732489, "survivalProbability": 0.8201, "monthlyEstimateKRW": 158338763, "salesPercentile": 36.1}, {"sangwonCode": 3120046, "sangwonName": "이태원(이태원역)", "gu": "용산구", "lat": 37.534930676156144, "lon": 126.99478413778357, "survivalProbability": 0.8201, "monthlyEstimateKRW": 346502129, "salesPercentile": 73.3}, {"sangwonCode": 3110625, "sangwonName": "신정2동주민센터", "gu": "양천구", "lat": 37.518444828950926, "lon": 126.87167959095326, "survivalProbability": 0.8201, "monthlyEstimateKRW": 86234540, "salesPercentile": 14.7}, {"sangwonCode": 3110128, "sangwonName": "성원중학교", "gu": "성동구", "lat": 37.53816384184272, "lon": 127.04992055728603, "survivalProbability": 0.8201, "monthlyEstimateKRW": 137149760, "salesPercentile": 32.0}, {"sangwonCode": 3110939, "sangwonName": "양재역 8번(양재동우체국)", "gu": "서초구", "lat": 37.482044176111465, "lon": 127.03961711792392, "survivalProbability": 0.8201, "monthlyEstimateKRW": 213778454, "salesPercentile": 46.2}, {"sangwonCode": 3110456, "sangwonName": "구산보건지소", "gu": "은평구", "lat": 37.60779823704551, "lon": 126.91298801162269, "survivalProbability": 0.8201, "monthlyEstimateKRW": 74552016, "salesPercentile": 2.8}, {"sangwonCode": 3120129, "sangwonName": "구로디지털단지", "gu": "구로구", "lat": 37.48404057803035, "lon": 126.89515431983698, "survivalProbability": 0.8201, "monthlyEstimateKRW": 1043273479, "salesPercentile": 88.0}, {"sangwonCode": 3120128, "sangwonName": "신도림역", "gu": "구로구", "lat": 37.50819222492761, "lon": 126.89038157947542, "survivalProbability": 0.8201, "monthlyEstimateKRW": 287288639, "salesPercentile": 56.0}, {"sangwonCode": 3110458, "sangwonName": "선일여고", "gu": "은평구", "lat": 37.62118756887732, "lon": 126.9138672649344, "survivalProbability": 0.8201, "monthlyEstimateKRW": 81231879, "salesPercentile": 10.2}, {"sangwonCode": 3130179, "sangwonName": "이화여대 3,5,7길 상점가", "gu": "서대문구", "lat": 37.55821781854949, "lon": 126.94500703113266, "survivalProbability": 0.8201, "monthlyEstimateKRW": 306939978, "salesPercentile": 60.5}, {"sangwonCode": 3120127, "sangwonName": "구로구청", "gu": "구로구", "lat": 37.49660576225669, "lon": 126.89088478047054, "survivalProbability": 0.8201, "monthlyEstimateKRW": 321145405, "salesPercentile": 68.4}, {"sangwonCode": 3120125, "sangwonName": "구로역", "gu": "구로구", "lat": 37.50228754471039, "lon": 126.87802914643336, "survivalProbability": 0.8201, "monthlyEstimateKRW": 1014635956, "salesPercentile": 87.2}, {"sangwonCode": 3120124, "sangwonName": "개봉동 현대아파트", "gu": "구로구", "lat": 37.4888917210359, "lon": 126.85592258479969, "survivalProbability": 0.8201, "monthlyEstimateKRW": 286921009, "salesPercentile": 55.6}, {"sangwonCode": 3120049, "sangwonName": "왕십리역(왕십리)", "gu": "성동구", "lat": 37.56090973532495, "lon": 127.03720279807932, "survivalProbability": 0.8201, "monthlyEstimateKRW": 1576221449, "salesPercentile": 95.1}, {"sangwonCode": 3110464, "sangwonName": "연신내역 5번", "gu": "은평구", "lat": 37.61717129604579, "lon": 126.91683948862, "survivalProbability": 0.8201, "monthlyEstimateKRW": 81163433, "salesPercentile": 9.8}, {"sangwonCode": 3120051, "sangwonName": "뚝섬역", "gu": "성동구", "lat": 37.54667891193152, "lon": 127.04842120587679, "survivalProbability": 0.8201, "monthlyEstimateKRW": 172513839, "salesPercentile": 38.3}, {"sangwonCode": 3120052, "sangwonName": "성수역", "gu": "성동구", "lat": 37.54467502389429, "lon": 127.0566690594387, "survivalProbability": 0.8201, "monthlyEstimateKRW": 190507633, "salesPercentile": 42.5}, {"sangwonCode": 3120119, "sangwonName": "발산역(마곡)", "gu": "강서구", "lat": 37.559927290899275, "lon": 126.83568513889625, "survivalProbability": 0.8201, "monthlyEstimateKRW": 1346414926, "salesPercentile": 92.9}, {"sangwonCode": 3120053, "sangwonName": "건대입구역(건대)", "gu": "광진구", "lat": 37.54052361998077, "lon": 127.0694180102895, "survivalProbability": 0.8201, "monthlyEstimateKRW": 393666499, "salesPercentile": 75.9}, {"sangwonCode": 3120114, "sangwonName": "목동신시가지", "gu": "양천구", "lat": 37.53114395403733, "lon": 126.87542528536237, "survivalProbability": 0.8201, "monthlyEstimateKRW": 260955934, "salesPercentile": 50.8}, {"sangwonCode": 3110608, "sangwonName": "신월2동주민센터", "gu": "양천구", "lat": 37.52508137526259, "lon": 126.84586386894, "survivalProbability": 0.8201, "monthlyEstimateKRW": 73964250, "salesPercentile": 0.4}, {"sangwonCode": 3120113, "sangwonName": "오목교역", "gu": "양천구", "lat": 37.524006475648484, "lon": 126.87396651909376, "survivalProbability": 0.8201, "monthlyEstimateKRW": 141423553, "salesPercentile": 33.8}, {"sangwonCode": 3120112, "sangwonName": "등촌역", "gu": "양천구", "lat": 37.5509181198166, "lon": 126.86472078637462, "survivalProbability": 0.8201, "monthlyEstimateKRW": 170238802, "salesPercentile": 37.6}, {"sangwonCode": 3120055, "sangwonName": "군자역", "gu": "광진구", "lat": 37.55713177654428, "lon": 127.0793476213953, "survivalProbability": 0.8201, "monthlyEstimateKRW": 151740550, "salesPercentile": 34.6}, {"sangwonCode": 3110604, "sangwonName": "신월4동주민센터", "gu": "양천구", "lat": 37.52336983439267, "lon": 126.83937402800503, "survivalProbability": 0.8201, "monthlyEstimateKRW": 75367038, "salesPercentile": 4.1}, {"sangwonCode": 3120056, "sangwonName": "구의역", "gu": "광진구", "lat": 37.53754920268015, "lon": 127.08491629282449, "survivalProbability": 0.8201, "monthlyEstimateKRW": 140921507, "salesPercentile": 33.1}, {"sangwonCode": 3110069, "sangwonName": "숙대입구", "gu": "용산구", "lat": 37.545224851300794, "lon": 126.9678744716527, "survivalProbability": 0.8201, "monthlyEstimateKRW": 1343547087, "salesPercentile": 92.5}, {"sangwonCode": 3110068, "sangwonName": "남영역 1번", "gu": "용산구", "lat": 37.54062057647328, "lon": 126.96726543215075, "survivalProbability": 0.8201, "monthlyEstimateKRW": 726492118, "salesPercentile": 83.8}, {"sangwonCode": 3120106, "sangwonName": "마포역", "gu": "마포구", "lat": 37.53993702437845, "lon": 126.94601617916638, "survivalProbability": 0.8201, "monthlyEstimateKRW": 1320713283, "salesPercentile": 91.4}, {"sangwonCode": 3120057, "sangwonName": "아차산역", "gu": "광진구", "lat": 37.55425222476908, "lon": 127.08697232874627, "survivalProbability": 0.8201, "monthlyEstimateKRW": 574584976, "salesPercentile": 82.0}, {"sangwonCode": 3120104, "sangwonName": "연남동(홍대)", "gu": "마포구", "lat": 37.56007023507463, "lon": 126.9224714657634, "survivalProbability": 0.8201, "monthlyEstimateKRW": 467389988, "salesPercentile": 78.6}, {"sangwonCode": 3110060, "sangwonName": "효창공원앞역 6번", "gu": "용산구", "lat": 37.53824821820554, "lon": 126.9585767524867, "survivalProbability": 0.8201, "monthlyEstimateKRW": 97653477, "salesPercentile": 24.1}, {"sangwonCode": 3120103, "sangwonName": "홍대입구역(홍대)", "gu": "마포구", "lat": 37.55054422664607, "lon": 126.91880344160859, "survivalProbability": 0.8201, "monthlyEstimateKRW": 751889463, "salesPercentile": 84.2}, {"sangwonCode": 3120102, "sangwonName": "서교동(홍대)", "gu": "마포구", "lat": 37.554868134491784, "lon": 126.91753121902063, "survivalProbability": 0.8201, "monthlyEstimateKRW": 170549346, "salesPercentile": 38.0}, {"sangwonCode": 3120060, "sangwonName": "강변역(테크노마트)", "gu": "광진구", "lat": 37.534811785832595, "lon": 127.09463209799448, "survivalProbability": 0.8201, "monthlyEstimateKRW": 187150445, "salesPercentile": 40.6}, {"sangwonCode": 3120101, "sangwonName": "합정역", "gu": "마포구", "lat": 37.549468262404794, "lon": 126.91348588732001, "survivalProbability": 0.8201, "monthlyEstimateKRW": 187376491, "salesPercentile": 41.0}, {"sangwonCode": 3110881, "sangwonName": "구립대학경로당(관악산샘말공원)", "gu": "관악구", "lat": 37.46769853841552, "lon": 126.9362223021795, "survivalProbability": 0.8201, "monthlyEstimateKRW": 96923199, "salesPercentile": 23.3}, {"sangwonCode": 3110820, "sangwonName": "성남고등학교", "gu": "동작구", "lat": 37.504353122909095, "lon": 126.9236826987537, "survivalProbability": 0.8201, "monthlyEstimateKRW": 79799581, "salesPercentile": 7.5}, {"sangwonCode": 3120100, "sangwonName": "망원역", "gu": "마포구", "lat": 37.55535853038764, "lon": 126.91045735413947, "survivalProbability": 0.8201, "monthlyEstimateKRW": 284139530, "salesPercentile": 55.3}, {"sangwonCode": 3110052, "sangwonName": "장충초등학교", "gu": "중구", "lat": 37.55958143097188, "lon": 127.01276666015386, "survivalProbability": 0.8201, "monthlyEstimateKRW": 86993020, "salesPercentile": 16.2}, {"sangwonCode": 3120098, "sangwonName": "DMC(디지털미디어시티)", "gu": "마포구", "lat": 37.57990219166072, "lon": 126.8898010489625, "survivalProbability": 0.8201, "monthlyEstimateKRW": 1143891277, "salesPercentile": 89.8}, {"sangwonCode": 3120062, "sangwonName": "신설동역", "gu": "동대문구", "lat": 37.57495056845485, "lon": 127.024497100405, "survivalProbability": 0.8201, "monthlyEstimateKRW": 211516119, "salesPercentile": 45.1}, {"sangwonCode": 3110043, "sangwonName": "충무초등학교", "gu": "중구", "lat": 37.56056420346717, "lon": 127.00101862988308, "survivalProbability": 0.8201, "monthlyEstimateKRW": 136657538, "salesPercentile": 31.2}, {"sangwonCode": 3110042, "sangwonName": "남산골공원옆", "gu": "중구", "lat": 37.55658169774501, "lon": 126.99507688426245, "survivalProbability": 0.8201, "monthlyEstimateKRW": 427425234, "salesPercentile": 78.2}, {"sangwonCode": 3110041, "sangwonName": "남산케이블카", "gu": "중구", "lat": 37.5564006254871, "lon": 126.98482325928379, "survivalProbability": 0.8201, "monthlyEstimateKRW": 93701655, "salesPercentile": 21.4}, {"sangwonCode": 3120063, "sangwonName": "청량리역(청량리)", "gu": "동대문구", "lat": 37.58100711945642, "lon": 127.04780944194178, "survivalProbability": 0.8201, "monthlyEstimateKRW": 545747728, "salesPercentile": 80.8}, {"sangwonCode": 3120094, "sangwonName": "신촌역(신촌역, 신촌로터리)", "gu": "서대문구", "lat": 37.55652864102824, "lon": 126.93641829163414, "survivalProbability": 0.8201, "monthlyEstimateKRW": 226502080, "salesPercentile": 47.7}, {"sangwonCode": 3120093, "sangwonName": "연희동", "gu": "서대문구", "lat": 37.56685943536896, "lon": 126.92999160464343, "survivalProbability": 0.8201, "monthlyEstimateKRW": 316788632, "salesPercentile": 65.8}, {"sangwonCode": 3110027, "sangwonName": "혜화역 1번", "gu": "종로구", "lat": 37.58211587382123, "lon": 127.00573993541379, "survivalProbability": 0.8201, "monthlyEstimateKRW": 83606406, "salesPercentile": 11.7}, {"sangwonCode": 3120091, "sangwonName": "본서부병원", "gu": "은평구", "lat": 37.600560629824955, "lon": 126.92207842001997, "survivalProbability": 0.8201, "monthlyEstimateKRW": 311606155, "salesPercentile": 62.8}, {"sangwonCode": 3120090, "sangwonName": "연신내역", "gu": "은평구", "lat": 37.619066940896616, "lon": 126.92207043712689, "survivalProbability": 0.8201, "monthlyEstimateKRW": 304917864, "salesPercentile": 60.2}, {"sangwonCode": 3110018, "sangwonName": "중앙고등학교", "gu": "종로구", "lat": 37.58276405131138, "lon": 126.98735391827724, "survivalProbability": 0.8201, "monthlyEstimateKRW": 80329522, "salesPercentile": 8.6}, {"sangwonCode": 3110541, "sangwonName": "동교초등학교", "gu": "마포구", "lat": 37.55783805697095, "lon": 126.9013889146536, "survivalProbability": 0.8201, "monthlyEstimateKRW": 90915957, "salesPercentile": 19.9}, {"sangwonCode": 3120066, "sangwonName": "장한평역(장한평)", "gu": "동대문구", "lat": 37.56213234191365, "lon": 127.06450325618981, "survivalProbability": 0.8201, "monthlyEstimateKRW": 222428231, "salesPercentile": 47.0}, {"sangwonCode": 3110010, "sangwonName": "평창동서측", "gu": "종로구", "lat": 37.60936632114107, "lon": 126.96674832970702, "survivalProbability": 0.8201, "monthlyEstimateKRW": 86458220, "salesPercentile": 15.0}, {"sangwonCode": 3120087, "sangwonName": "응암역", "gu": "은평구", "lat": 37.59869132855268, "lon": 126.91588620727673, "survivalProbability": 0.8201, "monthlyEstimateKRW": 1689624072, "salesPercentile": 96.6}, {"sangwonCode": 3110544, "sangwonName": "망리단길", "gu": "마포구", "lat": 37.5549489373919, "lon": 126.90515005082226, "survivalProbability": 0.8201, "monthlyEstimateKRW": 129135734, "salesPercentile": 29.3}, {"sangwonCode": 3110008, "sangwonName": "배화여자대학교(박노수미술관)", "gu": "종로구", "lat": 37.58030943835253, "lon": 126.9670895683088, "survivalProbability": 0.8201, "monthlyEstimateKRW": 103310362, "salesPercentile": 26.3}, {"sangwonCode": 3120067, "sangwonName": "장안동사거리", "gu": "동대문구", "lat": 37.571931154399905, "lon": 127.07148472007246, "survivalProbability": 0.8201, "monthlyEstimateKRW": 533302301, "salesPercentile": 80.1}, {"sangwonCode": 3120084, "sangwonName": "공릉역", "gu": "노원구", "lat": 37.62567393004453, "lon": 127.07364315857275, "survivalProbability": 0.8201, "monthlyEstimateKRW": 296035324, "salesPercentile": 56.8}, {"sangwonCode": 3110857, "sangwonName": "미성동주민센터", "gu": "관악구", "lat": 37.475271208267024, "lon": 126.91434024298789, "survivalProbability": 0.8201, "monthlyEstimateKRW": 87837707, "salesPercentile": 17.7}, {"sangwonCode": 3110837, "sangwonName": "숭실대입구역 1번", "gu": "동작구", "lat": 37.49497111222602, "lon": 126.95345543447249, "survivalProbability": 0.8201, "monthlyEstimateKRW": 131197843, "salesPercentile": 29.7}, {"sangwonCode": 3130312, "sangwonName": "석촌시장", "gu": "송파구", "lat": 37.50037385552647, "lon": 127.10705115305089, "survivalProbability": 0.8201, "monthlyEstimateKRW": 301049809, "salesPercentile": 59.0}, {"sangwonCode": 3120081, "sangwonName": "노원역", "gu": "노원구", "lat": 37.65546707370536, "lon": 127.06218142111479, "survivalProbability": 0.8201, "monthlyEstimateKRW": 301121369, "salesPercentile": 59.8}, {"sangwonCode": 3130313, "sangwonName": "방이시장", "gu": "송파구", "lat": 37.51106079756516, "lon": 127.11552676175948, "survivalProbability": 0.8201, "monthlyEstimateKRW": 277479146, "salesPercentile": 54.1}, {"sangwonCode": 3110552, "sangwonName": "성미산체육관", "gu": "마포구", "lat": 37.564089068838044, "lon": 126.91029976327316, "survivalProbability": 0.8201, "monthlyEstimateKRW": 85895401, "salesPercentile": 13.9}, {"sangwonCode": 3110553, "sangwonName": "가좌역 2번", "gu": "마포구", "lat": 37.568080922063466, "lon": 126.91088357719615, "survivalProbability": 0.8201, "monthlyEstimateKRW": 80033553, "salesPercentile": 7.9}, {"sangwonCode": 3120079, "sangwonName": "창동역", "gu": "도봉구", "lat": 37.65239246410829, "lon": 127.04768518990885, "survivalProbability": 0.8201, "monthlyEstimateKRW": 1072783002, "salesPercentile": 88.7}, {"sangwonCode": 3120070, "sangwonName": "한성대입구역", "gu": "성북구", "lat": 37.5891705056814, "lon": 127.00817480174283, "survivalProbability": 0.8201, "monthlyEstimateKRW": 313570987, "salesPercentile": 63.9}, {"sangwonCode": 3110558, "sangwonName": "경성고등학교", "gu": "마포구", "lat": 37.564363450925, "lon": 126.91584558806812, "survivalProbability": 0.8201, "monthlyEstimateKRW": 96180231, "salesPercentile": 22.6}, {"sangwonCode": 3110572, "sangwonName": "서강대역 1번", "gu": "마포구", "lat": 37.55050130200841, "lon": 126.93704582425697, "survivalProbability": 0.8201, "monthlyEstimateKRW": 103751473, "salesPercentile": 26.7}, {"sangwonCode": 3110571, "sangwonName": "신수동주민센터", "gu": "마포구", "lat": 37.545554415089256, "lon": 126.93629182332131, "survivalProbability": 0.8201, "monthlyEstimateKRW": 78828778, "salesPercentile": 4.9}, {"sangwonCode": 3120072, "sangwonName": "성신여대", "gu": "성북구", "lat": 37.59236801480705, "lon": 127.01749391828598, "survivalProbability": 0.8201, "monthlyEstimateKRW": 168330717, "salesPercentile": 36.8}, {"sangwonCode": 3081591, "sangwonName": null, "gu": null, "lat": null, "lon": null, "survivalProbability": 0.8201, "monthlyEstimateKRW": 1346617116, "salesPercentile": 93.2}, {"sangwonCode": 3120075, "sangwonName": "월곡역", "gu": "성북구", "lat": 37.60316469689532, "lon": 127.04207074206094, "survivalProbability": 0.8201, "monthlyEstimateKRW": 1170574164, "salesPercentile": 90.2}, {"sangwonCode": 3110846, "sangwonName": "남성역 1번", "gu": "동작구", "lat": 37.48110151163349, "lon": 126.97230002266343, "survivalProbability": 0.8201, "monthlyEstimateKRW": 91260288, "salesPercentile": 20.3}]}