{"industryCode": "CS300035", "industryName": "인테리어", "dataAsOf": "2026-Q1", "survivalGranularity": "seoul_industry", "cells": [{"sangwonCode": 3110810, "sangwonName": "영신초등학교", "gu": "영등포구", "lat": 37.51093472393394, "lon": 126.91666342067874, "survivalProbability": 0.8407, "monthlyEstimateKRW": 90570866, "salesPercentile": 2.9}, {"sangwonCode": 3110942, "sangwonName": "염곡동 구룡사(포이동성당)", "gu": "서초구", "lat": 37.46958093920278, "lon": 127.04589577327441, "survivalProbability": 0.8407, "monthlyEstimateKRW": 117393135, "salesPercentile": 66.9}, {"sangwonCode": 3110943, "sangwonName": "법제교육센터(버들어린이공원)", "gu": "서초구", "lat": 37.47347311339665, "lon": 127.0463842665295, "survivalProbability": 0.8407, "monthlyEstimateKRW": 92128209, "salesPercentile": 9.6}, {"sangwonCode": 3110997, "sangwonName": "대청초등학교", "gu": "강남구", "lat": 37.491544188739695, "lon": 127.08459279952699, "survivalProbability": 0.8407, "monthlyEstimateKRW": 114560969, "salesPercentile": 62.8}, {"sangwonCode": 3110116, "sangwonName": "청계천박물관", "gu": "성동구", "lat": 37.57039789376655, "lon": 127.03501151510875, "survivalProbability": 0.8407, "monthlyEstimateKRW": 94357620, "salesPercentile": 23.0}, {"sangwonCode": 3110226, "sangwonName": "장안1동주민센터", "gu": "동대문구", "lat": 37.568960725192056, "lon": 127.06660322921046, "survivalProbability": 0.8407, "monthlyEstimateKRW": 113995756, "salesPercentile": 61.9}, {"sangwonCode": 3110229, "sangwonName": "장평중학교", "gu": "동대문구", "lat": 37.56456190380795, "lon": 127.06999492654315, "survivalProbability": 0.8407, "monthlyEstimateKRW": 95204641, "salesPercentile": 28.0}, {"sangwonCode": 3120048, "sangwonName": "금호역", "gu": "성동구", "lat": 37.54829999550683, "lon": 127.01963370266444, "survivalProbability": 0.8407, "monthlyEstimateKRW": 93789409, "salesPercentile": 18.8}, {"sangwonCode": 3120062, "sangwonName": "신설동역", "gu": "동대문구", "lat": 37.57495056845485, "lon": 127.024497100405, "survivalProbability": 0.8407, "monthlyEstimateKRW": 94297877, "salesPercentile": 22.6}, {"sangwonCode": 3120080, "sangwonName": "마들역", "gu": "노원구", "lat": 37.665929860375286, "lon": 127.05746383368468, "survivalProbability": 0.8407, "monthlyEstimateKRW": 128532033, "salesPercentile": 73.2}, {"sangwonCode": 3110424, "sangwonName": "상계초등학교", "gu": "노원구", "lat": 37.65878876746218, "lon": 127.06751070252072, "survivalProbability": 0.8407, "monthlyEstimateKRW": 106305442, "salesPercentile": 54.4}, {"sangwonCode": 3110357, "sangwonName": "가오리역 1번", "gu": "강북구", "lat": 37.643417950047436, "lon": 127.01782314180417, "survivalProbability": 0.8407, "monthlyEstimateKRW": 90267903, "salesPercentile": 1.3}, {"sangwonCode": 3120093, "sangwonName": "연희동", "gu": "서대문구", "lat": 37.56685943536896, "lon": 126.92999160464343, "survivalProbability": 0.8407, "monthlyEstimateKRW": 94040947, "salesPercentile": 20.5}, {"sangwonCode": 3120243, "sangwonName": "천호역", "gu": "강동구", "lat": 37.53952339599033, "lon": 127.12444156010653, "survivalProbability": 0.8407, "monthlyEstimateKRW": 963634830, "salesPercentile": 97.5}, {"sangwonCode": 3130054, "sangwonName": "황학동주방가구거리상점가", "gu": "중구", "lat": 37.56874345227643, "lon": 127.02062385070205, "survivalProbability": 0.8407, "monthlyEstimateKRW": 1029033138, "salesPercentile": 98.3}, {"sangwonCode": 3130140, "sangwonName": "숭인시장", "gu": "강북구", "lat": 37.613448848638036, "lon": 127.02930067226455, "survivalProbability": 0.8407, "monthlyEstimateKRW": 128356648, "salesPercentile": 72.8}, {"sangwonCode": 3111042, "sangwonName": "거여역 1번(거여공원)", "gu": "송파구", "lat": 37.49713654406891, "lon": 127.14357306164347, "survivalProbability": 0.8407, "monthlyEstimateKRW": 97692735, "salesPercentile": 38.5}, {"sangwonCode": 3110766, "sangwonName": "대림역 5번", "gu": "영등포구", "lat": 37.496178287632986, "lon": 126.89644912574266, "survivalProbability": 0.8407, "monthlyEstimateKRW": 92697293, "salesPercentile": 11.7}, {"sangwonCode": 3110877, "sangwonName": "신림역 8번", "gu": "관악구", "lat": 37.486338677230954, "lon": 126.93306314109579, "survivalProbability": 0.8407, "monthlyEstimateKRW": 90265404, "salesPercentile": 0.8}, {"sangwonCode": 3110866, "sangwonName": "난우중학교", "gu": "관악구", "lat": 37.46920403931831, "lon": 126.92250888426989, "survivalProbability": 0.8407, "monthlyEstimateKRW": 93257396, "salesPercentile": 13.0}, {"sangwonCode": 3110056, "sangwonName": "신당역 3번", "gu": "중구", "lat": 37.562850872583056, "lon": 127.02099573525913, "survivalProbability": 0.8407, "monthlyEstimateKRW": 97946900, "salesPercentile": 39.3}, {"sangwonCode": 3130229, "sangwonName": "남구로시장", "gu": "구로구", "lat": 37.4900783818487, "lon": 126.88654090369849, "survivalProbability": 0.8407, "monthlyEstimateKRW": 264459175, "salesPercentile": 91.2}, {"sangwonCode": 3110897, "sangwonName": "서울대입구역 8번", "gu": "관악구", "lat": 37.481646697842024, "lon": 126.95740956273038, "survivalProbability": 0.8407, "monthlyEstimateKRW": 93818119, "salesPercentile": 19.2}, {"sangwonCode": 3130205, "sangwonName": "신곡종합시장(신월6동 골목시장)", "gu": "양천구", "lat": 37.51806718222335, "lon": 126.84253004100526, "survivalProbability": 0.8407, "monthlyEstimateKRW": 129153759, "salesPercentile": 74.9}, {"sangwonCode": 3130086, "sangwonName": "서울약령시장", "gu": "동대문구", "lat": 37.58210104091711, "lon": 127.0375190174434, "survivalProbability": 0.8407, "monthlyEstimateKRW": 110957907, "salesPercentile": 59.0}, {"sangwonCode": 3110752, "sangwonName": "한울중학교", "gu": "금천구", "lat": 37.46170696090743, "lon": 126.90894149141734, "survivalProbability": 0.8407, "monthlyEstimateKRW": 91294909, "salesPercentile": 7.5}, {"sangwonCode": 3111051, "sangwonName": "천호역 6번", "gu": "강동구", "lat": 37.53472111071503, "lon": 127.1243996374976, "survivalProbability": 0.8407, "monthlyEstimateKRW": 94732661, "salesPercentile": 25.3}, {"sangwonCode": 3110264, "sangwonName": "면목역 2번", "gu": "중랑구", "lat": 37.58726118530816, "lon": 127.09159619054651, "survivalProbability": 0.8407, "monthlyEstimateKRW": 117372184, "salesPercentile": 66.5}, {"sangwonCode": 3111067, "sangwonName": "강동구립성내도서관", "gu": "강동구", "lat": 37.531988464913475, "lon": 127.13498479934741, "survivalProbability": 0.8407, "monthlyEstimateKRW": 94732661, "salesPercentile": 25.3}, {"sangwonCode": 3110319, "sangwonName": "종암동주민센터", "gu": "성북구", "lat": 37.59923839992779, "lon": 127.03595359013545, "survivalProbability": 0.8407, "monthlyEstimateKRW": 90381511, "salesPercentile": 1.9}, {"sangwonCode": 3120198, "sangwonName": "구역삼세무서", "gu": "강남구", "lat": 37.49553304713569, "lon": 127.03720426859347, "survivalProbability": 0.8407, "monthlyEstimateKRW": 236833806, "salesPercentile": 90.0}, {"sangwonCode": 3110355, "sangwonName": "삼양사거리역 2번", "gu": "강북구", "lat": 37.621596021966724, "lon": 127.01815775151192, "survivalProbability": 0.8407, "monthlyEstimateKRW": 92363892, "salesPercentile": 10.0}, {"sangwonCode": 3110646, "sangwonName": "푸른들청소년도서관", "gu": "강서구", "lat": 37.54405127997964, "lon": 126.83536920594427, "survivalProbability": 0.8407, "monthlyEstimateKRW": 94195544, "salesPercentile": 22.2}, {"sangwonCode": 3120156, "sangwonName": "총신대입구역(이수, 총신대)", "gu": "동작구", "lat": 37.48599581916168, "lon": 126.98170551541705, "survivalProbability": 0.8407, "monthlyEstimateKRW": 98455749, "salesPercentile": 41.0}, {"sangwonCode": 3110425, "sangwonName": "계상초등학교", "gu": "노원구", "lat": 37.661320204941866, "lon": 127.06806833085822, "survivalProbability": 0.8407, "monthlyEstimateKRW": 93662649, "salesPercentile": 17.6}, {"sangwonCode": 3110634, "sangwonName": "송정역 3번", "gu": "강서구", "lat": 37.557416444538866, "lon": 126.81340625888835, "survivalProbability": 0.8407, "monthlyEstimateKRW": 99191134, "salesPercentile": 44.8}, {"sangwonCode": 3110622, "sangwonName": "달마을공원", "gu": "양천구", "lat": 37.545319284332244, "lon": 126.8694948546841, "survivalProbability": 0.8407, "monthlyEstimateKRW": 115669556, "salesPercentile": 64.4}, {"sangwonCode": 3120123, "sangwonName": "오류동역", "gu": "구로구", "lat": 37.495238716981696, "lon": 126.84478309040126, "survivalProbability": 0.8407, "monthlyEstimateKRW": 93243001, "salesPercentile": 12.6}, {"sangwonCode": 3110475, "sangwonName": "백련산해모로아파트", "gu": "은평구", "lat": 37.59773160300439, "lon": 126.92220593140247, "survivalProbability": 0.8407, "monthlyEstimateKRW": 108316278, "salesPercentile": 56.1}, {"sangwonCode": 3110559, "sangwonName": "성산중학교", "gu": "마포구", "lat": 37.54663282010309, "lon": 126.91725739230134, "survivalProbability": 0.8407, "monthlyEstimateKRW": 94911577, "salesPercentile": 27.2}, {"sangwonCode": 3110572, "sangwonName": "서강대역 1번", "gu": "마포구", "lat": 37.55050130200841, "lon": 126.93704582425697, "survivalProbability": 0.8407, "monthlyEstimateKRW": 90988556, "salesPercentile": 6.3}, {"sangwonCode": 3110861, "sangwonName": "관악구신사동주민센터", "gu": "관악구", "lat": 37.483905325185546, "lon": 126.91779018557327, "survivalProbability": 0.8407, "monthlyEstimateKRW": 188056297, "salesPercentile": 87.0}, {"sangwonCode": 3130257, "sangwonName": "영등포시장기계공구상가", "gu": "영등포구", "lat": 37.51948040312949, "lon": 126.91005908096288, "survivalProbability": 0.8407, "monthlyEstimateKRW": 136055756, "salesPercentile": 80.8}, {"sangwonCode": 3130246, "sangwonName": "영등포청과시장(조광시장)", "gu": "영등포구", "lat": 37.521662703518885, "lon": 126.90113111439317, "survivalProbability": 0.8407, "monthlyEstimateKRW": 93345517, "salesPercentile": 13.8}, {"sangwonCode": 3130221, "sangwonName": "남부골목시장(남부화곡시장, 남부시장)", "gu": "강서구", "lat": 37.53307374754431, "lon": 126.86077051500729, "survivalProbability": 0.8407, "monthlyEstimateKRW": 127846741, "salesPercentile": 71.5}, {"sangwonCode": 3130219, "sangwonName": "까치산시장", "gu": "강서구", "lat": 37.532651467965756, "lon": 126.84716070133189, "survivalProbability": 0.8407, "monthlyEstimateKRW": 90697137, "salesPercentile": 3.8}, {"sangwonCode": 3110117, "sangwonName": "성동구보건소", "gu": "성동구", "lat": 37.567073116003144, "lon": 127.03536085082358, "survivalProbability": 0.8407, "monthlyEstimateKRW": 98729161, "salesPercentile": 42.7}, {"sangwonCode": 3110785, "sangwonName": "영등포푸르지오아파트", "gu": "영등포구", "lat": 37.5091772342772, "lon": 126.90408827327902, "survivalProbability": 0.8407, "monthlyEstimateKRW": 96113285, "salesPercentile": 30.5}, {"sangwonCode": 3120132, "sangwonName": "독산동", "gu": "금천구", "lat": 37.470740558781436, "lon": 126.89389548521771, "survivalProbability": 0.8407, "monthlyEstimateKRW": 98469304, "salesPercentile": 41.8}, {"sangwonCode": 3110770, "sangwonName": "영등포구청역 6번", "gu": "영등포구", "lat": 37.52289416609549, "lon": 126.8977131408658, "survivalProbability": 0.8407, "monthlyEstimateKRW": 97151206, "salesPercentile": 36.4}, {"sangwonCode": 3110147, "sangwonName": "능동우편취급국", "gu": "광진구", "lat": 37.55618033078989, "lon": 127.07377843003759, "survivalProbability": 0.8407, "monthlyEstimateKRW": 100700211, "salesPercentile": 49.8}, {"sangwonCode": 3120039, "sangwonName": "신당역", "gu": "중구", "lat": 37.565428542094914, "lon": 127.01572187665211, "survivalProbability": 0.8407, "monthlyEstimateKRW": 96474241, "salesPercentile": 32.2}, {"sangwonCode": 3110428, "sangwonName": "상계5동주민센터", "gu": "노원구", "lat": 37.66417450773257, "lon": 127.07113106886153, "survivalProbability": 0.8407, "monthlyEstimateKRW": 190280181, "salesPercentile": 87.4}, {"sangwonCode": 3110157, "sangwonName": "자양동우체국", "gu": "광진구", "lat": 37.52999274825613, "lon": 127.08072173589979, "survivalProbability": 0.8407, "monthlyEstimateKRW": 93774454, "salesPercentile": 18.4}, {"sangwonCode": 3120148, "sangwonName": "국회의사당역(국회의사당)", "gu": "영등포구", "lat": 37.528552135513465, "lon": 126.92073922815948, "survivalProbability": 0.8407, "monthlyEstimateKRW": 548991479, "salesPercentile": 94.6}, {"sangwonCode": 3130112, "sangwonName": "사가정시장", "gu": "중랑구", "lat": 37.581279375362584, "lon": 127.09058127117551, "survivalProbability": 0.8407, "monthlyEstimateKRW": 98089049, "salesPercentile": 40.2}, {"sangwonCode": 3130097, "sangwonName": "답십리 건축자재시장", "gu": "동대문구", "lat": 37.567912985683684, "lon": 127.05402664285535, "survivalProbability": 0.8407, "monthlyEstimateKRW": 107875273, "salesPercentile": 55.6}, {"sangwonCode": 3120160, "sangwonName": "사당역(사당)", "gu": "서초구", "lat": 37.47752639125283, "lon": 126.98206935862181, "survivalProbability": 0.8407, "monthlyEstimateKRW": 93597339, "salesPercentile": 16.3}, {"sangwonCode": 3110176, "sangwonName": "해오름공원", "gu": "광진구", "lat": 37.557816247579865, "lon": 127.09214865556346, "survivalProbability": 0.8407, "monthlyEstimateKRW": 98458786, "salesPercentile": 41.4}, {"sangwonCode": 3110749, "sangwonName": "금산초등학교(금천고등학교)", "gu": "금천구", "lat": 37.44205287827401, "lon": 126.90514583518677, "survivalProbability": 0.8407, "monthlyEstimateKRW": 99660482, "salesPercentile": 45.6}, {"sangwonCode": 3110187, "sangwonName": "제기동역 6번", "gu": "동대문구", "lat": 37.576083873726574, "lon": 127.03255763774018, "survivalProbability": 0.8407, "monthlyEstimateKRW": 94136645, "salesPercentile": 21.5}, {"sangwonCode": 3130010, "sangwonName": "종로신진시장", "gu": "종로구", "lat": 37.570312873990254, "lon": 127.00513909151051, "survivalProbability": 0.8407, "monthlyEstimateKRW": 91530954, "salesPercentile": 9.2}, {"sangwonCode": 3120182, "sangwonName": "양재시민의숲역(양재동꽃시장, aT센터)", "gu": "서초구", "lat": 37.469384734597455, "lon": 127.04036782735055, "survivalProbability": 0.8407, "monthlyEstimateKRW": 125375951, "salesPercentile": 69.9}, {"sangwonCode": 3120184, "sangwonName": "포이사거리(삼호물산)", "gu": "서초구", "lat": 37.47696053249972, "lon": 127.04506367970757, "survivalProbability": 0.8407, "monthlyEstimateKRW": 961459296, "salesPercentile": 97.1}, {"sangwonCode": 3120191, "sangwonName": "학동역", "gu": "강남구", "lat": 37.51355518491261, "lon": 127.03007596762794, "survivalProbability": 0.8407, "monthlyEstimateKRW": 1018836842, "salesPercentile": 97.9}, {"sangwonCode": 3110686, "sangwonName": "수궁동주민센터", "gu": "구로구", "lat": 37.494638620747644, "lon": 126.83415467880374, "survivalProbability": 0.8407, "monthlyEstimateKRW": 91466186, "salesPercentile": 8.8}, {"sangwonCode": 3111060, "sangwonName": "암사역 2번(서울강동초등학교)", "gu": "강동구", "lat": 37.54699551295604, "lon": 127.13016858602187, "survivalProbability": 0.8407, "monthlyEstimateKRW": 97581183, "salesPercentile": 37.2}, {"sangwonCode": 3120226, "sangwonName": "석촌고분역", "gu": "송파구", "lat": 37.5033197760243, "lon": 127.09704648858848, "survivalProbability": 0.8407, "monthlyEstimateKRW": 105356485, "salesPercentile": 53.6}, {"sangwonCode": 3120210, "sangwonName": "선릉역", "gu": "강남구", "lat": 37.50461073634166, "lon": 127.04935534409961, "survivalProbability": 0.8407, "monthlyEstimateKRW": 106839570, "salesPercentile": 54.8}, {"sangwonCode": 3111076, "sangwonName": "둔촌2동주민센터", "gu": "강동구", "lat": 37.53356458912888, "lon": 127.14316767622354, "survivalProbability": 0.8407, "monthlyEstimateKRW": 128752784, "salesPercentile": 74.5}, {"sangwonCode": 3110846, "sangwonName": "남성역 1번", "gu": "동작구", "lat": 37.48110151163349, "lon": 126.97230002266343, "survivalProbability": 0.8407, "monthlyEstimateKRW": 95800501, "salesPercentile": 29.1}, {"sangwonCode": 3111075, "sangwonName": "굽은다리역 2번", "gu": "강동구", "lat": 37.548667873482714, "lon": 127.14105777722531, "survivalProbability": 0.8407, "monthlyEstimateKRW": 116146184, "salesPercentile": 65.3}, {"sangwonCode": 3111073, "sangwonName": "둔촌동역 1번(한산중학교)", "gu": "강동구", "lat": 37.53115405950385, "lon": 127.13970109005331, "survivalProbability": 0.8407, "monthlyEstimateKRW": 96884643, "salesPercentile": 34.7}, {"sangwonCode": 3120213, "sangwonName": "삼성중앙역", "gu": "강남구", "lat": 37.51155556604917, "lon": 127.05374846991917, "survivalProbability": 0.8407, "monthlyEstimateKRW": 93502985, "salesPercentile": 15.9}, {"sangwonCode": 3111072, "sangwonName": "굽은다리역 1번(십자성마을)", "gu": "강동구", "lat": 37.54295769170239, "lon": 127.1392478634447, "survivalProbability": 0.8407, "monthlyEstimateKRW": 100470997, "salesPercentile": 47.7}, {"sangwonCode": 3120211, "sangwonName": "도성초등학교", "gu": "강남구", "lat": 37.50063596235816, "lon": 127.05246271839206, "survivalProbability": 0.8407, "monthlyEstimateKRW": 93870101, "salesPercentile": 19.7}, {"sangwonCode": 3110278, "sangwonName": "망우본동주민센터", "gu": "중랑구", "lat": 37.60150500683647, "lon": 127.10352681954076, "survivalProbability": 0.8407, "monthlyEstimateKRW": 97649794, "salesPercentile": 38.1}, {"sangwonCode": 3110299, "sangwonName": "정릉역 1번", "gu": "성북구", "lat": 37.60190042877038, "lon": 127.01798309800381, "survivalProbability": 0.8407, "monthlyEstimateKRW": 115471652, "salesPercentile": 63.6}, {"sangwonCode": 3110707, "sangwonName": "구로창업지원센터", "gu": "구로구", "lat": 37.50981240722824, "lon": 126.87946463909495, "survivalProbability": 0.8407, "monthlyEstimateKRW": 115568823, "salesPercentile": 64.0}, {"sangwonCode": 3111078, "sangwonName": "굽은다리역 4번", "gu": "강동구", "lat": 37.54284297310578, "lon": 127.14473562941309, "survivalProbability": 0.8407, "monthlyEstimateKRW": 117169441, "salesPercentile": 66.1}, {"sangwonCode": 3120222, "sangwonName": "삼성역", "gu": "강남구", "lat": 37.508667696206736, "lon": 127.06315654228577, "survivalProbability": 0.8407, "monthlyEstimateKRW": 262725482, "salesPercentile": 90.8}, {"sangwonCode": 3120224, "sangwonName": "수서역", "gu": "강남구", "lat": 37.487781357677065, "lon": 127.10303046246761, "survivalProbability": 0.8407, "monthlyEstimateKRW": 134975952, "salesPercentile": 79.9}, {"sangwonCode": 3110711, "sangwonName": "구로초등학교", "gu": "구로구", "lat": 37.49662631952319, "lon": 126.88408837350633, "survivalProbability": 0.8407, "monthlyEstimateKRW": 96511755, "salesPercentile": 32.6}, {"sangwonCode": 3111061, "sangwonName": "암사역 1번", "gu": "강동구", "lat": 37.55185075538313, "lon": 127.13119554025, "survivalProbability": 0.8407, "monthlyEstimateKRW": 95688477, "salesPercentile": 28.5}, {"sangwonCode": 3110690, "sangwonName": "오류2동버들시장", "gu": "구로구", "lat": 37.49227211395636, "lon": 126.84304783057685, "survivalProbability": 0.8407, "monthlyEstimateKRW": 90381511, "salesPercentile": 1.9}, {"sangwonCode": 3111089, "sangwonName": "상일여고(상일초등학교)", "gu": "강동구", "lat": 37.54811423179494, "lon": 127.17135024456684, "survivalProbability": 0.8407, "monthlyEstimateKRW": 97132203, "salesPercentile": 36.0}, {"sangwonCode": 3110689, "sangwonName": "오류동역 3번", "gu": "구로구", "lat": 37.49760566370818, "lon": 126.84274264528946, "survivalProbability": 0.8407, "monthlyEstimateKRW": 115682430, "salesPercentile": 64.9}, {"sangwonCode": 3110316, "sangwonName": "숭곡초등학교", "gu": "성북구", "lat": 37.60814966101142, "lon": 127.03438366024915, "survivalProbability": 0.8407, "monthlyEstimateKRW": 96845678, "salesPercentile": 34.1}, {"sangwonCode": 3110318, "sangwonName": "KT월곡지사", "gu": "성북구", "lat": 37.60366255226508, "lon": 127.03499312523303, "survivalProbability": 0.8407, "monthlyEstimateKRW": 94091514, "salesPercentile": 20.9}, {"sangwonCode": 3120232, "sangwonName": "송파나루역", "gu": "송파구", "lat": 37.51012711047405, "lon": 127.11204169365998, "survivalProbability": 0.8407, "monthlyEstimateKRW": 148784596, "salesPercentile": 82.8}, {"sangwonCode": 3120197, "sangwonName": "역삼역", "gu": "강남구", "lat": 37.500398869563554, "lon": 127.03595138126002, "survivalProbability": 0.8407, "monthlyEstimateKRW": 208094034, "salesPercentile": 88.7}, {"sangwonCode": 3110329, "sangwonName": "우리은행체육관", "gu": "성북구", "lat": 37.61627862322277, "lon": 127.05316682029753, "survivalProbability": 0.8407, "monthlyEstimateKRW": 98730536, "salesPercentile": 43.1}, {"sangwonCode": 3120236, "sangwonName": "장지역(가든파이브)", "gu": "송파구", "lat": 37.47804006486017, "lon": 127.12329941653981, "survivalProbability": 0.8407, "monthlyEstimateKRW": 917442927, "salesPercentile": 95.4}, {"sangwonCode": 3110252, "sangwonName": "장안제일시장", "gu": "중랑구", "lat": 37.58527730400473, "lon": 127.0816305342528, "survivalProbability": 0.8407, "monthlyEstimateKRW": 123632917, "salesPercentile": 69.0}, {"sangwonCode": 3110673, "sangwonName": "뜸부기어린이공원", "gu": "강서구", "lat": 37.53041452973515, "lon": 126.85970067142665, "survivalProbability": 0.8407, "monthlyEstimateKRW": 238588215, "salesPercentile": 90.4}, {"sangwonCode": 3110333, "sangwonName": "돌곶이역 5번", "gu": "성북구", "lat": 37.60947324115329, "lon": 127.0592890795929, "survivalProbability": 0.8407, "monthlyEstimateKRW": 92486537, "salesPercentile": 10.5}, {"sangwonCode": 3111046, "sangwonName": "마천역(마천초등학교)", "gu": "송파구", "lat": 37.495999240540726, "lon": 127.15239139655954, "survivalProbability": 0.8407, "monthlyEstimateKRW": 187182280, "salesPercentile": 86.2}, {"sangwonCode": 3120192, "sangwonName": "뱅뱅사거리", "gu": "강남구", "lat": 37.4902548060724, "lon": 127.03149136697971, "survivalProbability": 0.8407, "monthlyEstimateKRW": 400941540, "salesPercentile": 94.1}, {"sangwonCode": 3111044, "sangwonName": "남천초등학교", "gu": "송파구", "lat": 37.49924726592884, "lon": 127.14893749244365, "survivalProbability": 0.8407, "monthlyEstimateKRW": 100523898, "salesPercentile": 48.1}, {"sangwonCode": 3120190, "sangwonName": "강남을지병원", "gu": "강남구", "lat": 37.520006819268275, "lon": 127.02825732811267, "survivalProbability": 0.8407, "monthlyEstimateKRW": 110868612, "salesPercentile": 58.6}, {"sangwonCode": 3111035, "sangwonName": "오금공원(오주중학교)", "gu": "송파구", "lat": 37.502877446707714, "lon": 127.13464963793048, "survivalProbability": 0.8407, "monthlyEstimateKRW": 98803860, "salesPercentile": 43.9}, {"sangwonCode": 3110240, "sangwonName": "태릉시장 특화거리", "gu": "중랑구", "lat": 37.598056612126726, "lon": 127.07679791399993, "survivalProbability": 0.8407, "monthlyEstimateKRW": 135716664, "salesPercentile": 80.3}, {"sangwonCode": 3120008, "sangwonName": "인사동", "gu": "종로구", "lat": 37.57390703196603, "lon": 126.98522723193123, "survivalProbability": 0.8407, "monthlyEstimateKRW": 944003846, "salesPercentile": 96.2}, {"sangwonCode": 3110237, "sangwonName": "메가박스 상봉", "gu": "중랑구", "lat": 37.591408615387756, "lon": 127.07474165969481, "survivalProbability": 0.8407, "monthlyEstimateKRW": 92591995, "salesPercentile": 10.9}, {"sangwonCode": 3120245, "sangwonName": "둔촌역", "gu": "강동구", "lat": 37.526339264817906, "lon": 127.13491805500612, "survivalProbability": 0.8407, "monthlyEstimateKRW": 105999334, "salesPercentile": 54.0}, {"sangwonCode": 3120187, "sangwonName": "신논현역", "gu": "강남구", "lat": 37.50502379497898, "lon": 127.02527722374786, "survivalProbability": 0.8407, "monthlyEstimateKRW": 107688608, "salesPercentile": 55.2}, {"sangwonCode": 3120009, "sangwonName": "종로3가역", "gu": "종로구", "lat": 37.57165510209864, "lon": 126.99069513429947, "survivalProbability": 0.8407, "monthlyEstimateKRW": 267027378, "salesPercentile": 91.6}, {"sangwonCode": 3110232, "sangwonName": "동대부고", "gu": "동대문구", "lat": 37.577299862320345, "lon": 127.07347096415802, "survivalProbability": 0.8407, "monthlyEstimateKRW": 120656162, "salesPercentile": 68.2}, {"sangwonCode": 3110228, "sangwonName": "장안근린공원", "gu": "동대문구", "lat": 37.5758335619501, "lon": 127.0696432221665, "survivalProbability": 0.8407, "monthlyEstimateKRW": 99418142, "salesPercentile": 45.2}, {"sangwonCode": 3130001, "sangwonName": "통인시장", "gu": "종로구", "lat": 37.580589524576354, "lon": 126.97001029915941, "survivalProbability": 0.8407, "monthlyEstimateKRW": 155295425, "salesPercentile": 84.1}, {"sangwonCode": 3120014, "sangwonName": "종로5가역", "gu": "종로구", "lat": 37.571907724627984, "lon": 127.00232056437183, "survivalProbability": 0.8407, "monthlyEstimateKRW": 343742239, "salesPercentile": 92.5}, {"sangwonCode": 3120179, "sangwonName": "양재역", "gu": "서초구", "lat": 37.484496660060245, "lon": 127.03403294046717, "survivalProbability": 0.8407, "monthlyEstimateKRW": 104056924, "salesPercentile": 53.1}, {"sangwonCode": 3110738, "sangwonName": "문성초등학교", "gu": "금천구", "lat": 37.472305721353386, "lon": 126.90129790602968, "survivalProbability": 0.8407, "monthlyEstimateKRW": 100620914, "salesPercentile": 48.5}, {"sangwonCode": 3110659, "sangwonName": "화곡역 4번", "gu": "강서구", "lat": 37.54056131421404, "lon": 126.84644302224991, "survivalProbability": 0.8407, "monthlyEstimateKRW": 113358184, "salesPercentile": 61.1}, {"sangwonCode": 3110376, "sangwonName": "수송초등학교", "gu": "강북구", "lat": 37.63939671921139, "lon": 127.03142958043486, "survivalProbability": 0.8407, "monthlyEstimateKRW": 95800501, "salesPercentile": 29.1}, {"sangwonCode": 3130022, "sangwonName": "숭례문수입상가(남대문시장)", "gu": "중구", "lat": 37.55943555342979, "lon": 126.9761531025199, "survivalProbability": 0.8407, "monthlyEstimateKRW": 397589371, "salesPercentile": 93.7}, {"sangwonCode": 3130024, "sangwonName": "남대문시장(자유상가)", "gu": "중구", "lat": 37.55957999880267, "lon": 126.97761307341452, "survivalProbability": 0.8407, "monthlyEstimateKRW": 1457243203, "salesPercentile": 100.0}, {"sangwonCode": 3130035, "sangwonName": "방산종합시장(방산시장)", "gu": "중구", "lat": 37.56800643712113, "lon": 127.00016978853688, "survivalProbability": 0.8407, "monthlyEstimateKRW": 959232637, "salesPercentile": 96.7}, {"sangwonCode": 3130036, "sangwonName": "중부시장(신중부시장)", "gu": "중구", "lat": 37.56561879780388, "lon": 127.00026033411363, "survivalProbability": 0.8407, "monthlyEstimateKRW": 113057058, "salesPercentile": 60.7}, {"sangwonCode": 3110741, "sangwonName": "독산2동주민센터", "gu": "금천구", "lat": 37.46383656022357, "lon": 126.9017046630445, "survivalProbability": 0.8407, "monthlyEstimateKRW": 101109052, "salesPercentile": 51.3}, {"sangwonCode": 3130042, "sangwonName": "약수시장", "gu": "중구", "lat": 37.55285116043482, "lon": 127.01096611803986, "survivalProbability": 0.8407, "monthlyEstimateKRW": 109146700, "salesPercentile": 57.3}, {"sangwonCode": 3110389, "sangwonName": "한일병원", "gu": "도봉구", "lat": 37.64433448769298, "lon": 127.02999264822587, "survivalProbability": 0.8407, "monthlyEstimateKRW": 163485395, "salesPercentile": 85.4}, {"sangwonCode": 3130052, "sangwonName": "서울중앙시장(신중앙시장)", "gu": "중구", "lat": 37.566941725252974, "lon": 127.01905000259286, "survivalProbability": 0.8407, "monthlyEstimateKRW": 1080520763, "salesPercentile": 98.7}, {"sangwonCode": 3111015, "sangwonName": "석촌역 3번", "gu": "송파구", "lat": 37.50603667404324, "lon": 127.11191117169507, "survivalProbability": 0.8407, "monthlyEstimateKRW": 187709032, "salesPercentile": 86.6}, {"sangwonCode": 3110209, "sangwonName": "답십리 장령당공원", "gu": "동대문구", "lat": 37.569986179498024, "lon": 127.05201326325202, "survivalProbability": 0.8407, "monthlyEstimateKRW": 141001684, "salesPercentile": 82.0}, {"sangwonCode": 3110743, "sangwonName": "시흥초등학교(시흥1동우체국)", "gu": "금천구", "lat": 37.45541423177664, "lon": 126.90430389990269, "survivalProbability": 0.8407, "monthlyEstimateKRW": 94526219, "salesPercentile": 24.7}, {"sangwonCode": 3110394, "sangwonName": "방학중학교", "gu": "도봉구", "lat": 37.66664136923422, "lon": 127.03520401893273, "survivalProbability": 0.8407, "monthlyEstimateKRW": 121051766, "salesPercentile": 68.6}, {"sangwonCode": 3130055, "sangwonName": "황학시장(서울중앙시장, 신중앙시장)", "gu": "중구", "lat": 37.567292714343196, "lon": 127.02138183226494, "survivalProbability": 0.8407, "monthlyEstimateKRW": 343678684, "salesPercentile": 92.1}, {"sangwonCode": 3130056, "sangwonName": "용산용문시장", "gu": "용산구", "lat": 37.53643776809258, "lon": 126.96020703642986, "survivalProbability": 0.8407, "monthlyEstimateKRW": 144631368, "salesPercentile": 82.4}, {"sangwonCode": 3110744, "sangwonName": "독산동성당", "gu": "금천구", "lat": 37.47067726744691, "lon": 126.90418270467585, "survivalProbability": 0.8407, "monthlyEstimateKRW": 119122909, "salesPercentile": 67.4}, {"sangwonCode": 3110204, "sangwonName": "간데메공원", "gu": "동대문구", "lat": 37.573518572379605, "lon": 127.05088371301225, "survivalProbability": 0.8407, "monthlyEstimateKRW": 97842741, "salesPercentile": 38.9}, {"sangwonCode": 3130059, "sangwonName": "후암시장", "gu": "용산구", "lat": 37.55011025033981, "lon": 126.97626923912605, "survivalProbability": 0.8407, "monthlyEstimateKRW": 129466887, "salesPercentile": 76.2}, {"sangwonCode": 3110654, "sangwonName": "까치산역 4번", "gu": "강서구", "lat": 37.53303109083655, "lon": 126.8412427376533, "survivalProbability": 0.8407, "monthlyEstimateKRW": 113995756, "salesPercentile": 61.9}, {"sangwonCode": 3120169, "sangwonName": "서초역", "gu": "서초구", "lat": 37.49146604063206, "lon": 127.0085938332724, "survivalProbability": 0.8407, "monthlyEstimateKRW": 108875606, "salesPercentile": 56.9}, {"sangwonCode": 3110745, "sangwonName": "독산동정훈단지", "gu": "금천구", "lat": 37.46594683806725, "lon": 126.90403048852814, "survivalProbability": 0.8407, "monthlyEstimateKRW": 101109052, "salesPercentile": 51.3}, {"sangwonCode": 3110746, "sangwonName": "금천금빛공원(은행나무사거리서측)", "gu": "금천구", "lat": 37.451774280596055, "lon": 126.90447806264076, "survivalProbability": 0.8407, "monthlyEstimateKRW": 127885521, "salesPercentile": 72.0}, {"sangwonCode": 3130067, "sangwonName": "왕십리도선동상점가", "gu": "성동구", "lat": 37.564235292738104, "lon": 127.03429555496496, "survivalProbability": 0.8407, "monthlyEstimateKRW": 94776361, "salesPercentile": 25.9}, {"sangwonCode": 3110402, "sangwonName": "도봉구 정병원", "gu": "도봉구", "lat": 37.6617477362968, "lon": 127.03933841839088, "survivalProbability": 0.8407, "monthlyEstimateKRW": 94877955, "salesPercentile": 26.8}, {"sangwonCode": 3110403, "sangwonName": "방학1동주민센터", "gu": "도봉구", "lat": 37.66485586862868, "lon": 127.0400880977698, "survivalProbability": 0.8407, "monthlyEstimateKRW": 99671831, "salesPercentile": 46.0}, {"sangwonCode": 3110186, "sangwonName": "종암초등학교", "gu": "동대문구", "lat": 37.58187782946985, "lon": 127.03044307101194, "survivalProbability": 0.8407, "monthlyEstimateKRW": 128673735, "salesPercentile": 74.1}, {"sangwonCode": 3130072, "sangwonName": "성동용답상가시장", "gu": "성동구", "lat": 37.56397605579394, "lon": 127.05309567240342, "survivalProbability": 0.8407, "monthlyEstimateKRW": 91355499, "salesPercentile": 7.9}, {"sangwonCode": 3110404, "sangwonName": "신창초등학교", "gu": "도봉구", "lat": 37.63624951166753, "lon": 127.04051457750556, "survivalProbability": 0.8407, "monthlyEstimateKRW": 113995756, "salesPercentile": 61.9}, {"sangwonCode": 3111005, "sangwonName": "삼전역 3번", "gu": "송파구", "lat": 37.501461266767535, "lon": 127.08868660012052, "survivalProbability": 0.8407, "monthlyEstimateKRW": 96068663, "salesPercentile": 30.1}, {"sangwonCode": 3120161, "sangwonName": "방배동가구거리(사당동가구거리)", "gu": "서초구", "lat": 37.49497011583308, "lon": 126.9834787145183, "survivalProbability": 0.8407, "monthlyEstimateKRW": 109761392, "salesPercentile": 58.2}, {"sangwonCode": 3110405, "sangwonName": "방학역 1번", "gu": "도봉구", "lat": 37.66914421552273, "lon": 127.04101983972981, "survivalProbability": 0.8407, "monthlyEstimateKRW": 96050417, "salesPercentile": 29.7}, {"sangwonCode": 3111004, "sangwonName": "삼전역 1번", "gu": "송파구", "lat": 37.50671672745682, "lon": 127.08515279573975, "survivalProbability": 0.8407, "monthlyEstimateKRW": 190646002, "salesPercentile": 87.9}, {"sangwonCode": 3130090, "sangwonName": "청량리종합시장", "gu": "동대문구", "lat": 37.579676353298325, "lon": 127.04058579213896, "survivalProbability": 0.8407, "monthlyEstimateKRW": 100937895, "salesPercentile": 50.2}, {"sangwonCode": 3120031, "sangwonName": "을지로3가역", "gu": "중구", "lat": 37.56623117746982, "lon": 126.99161264533976, "survivalProbability": 0.8407, "monthlyEstimateKRW": 364656989, "salesPercentile": 92.9}, {"sangwonCode": 3110415, "sangwonName": "수락산역 4번", "gu": "노원구", "lat": 37.67578860179999, "lon": 127.05315257704137, "survivalProbability": 0.8407, "monthlyEstimateKRW": 116290943, "salesPercentile": 65.7}, {"sangwonCode": 3110645, "sangwonName": "우장산역 4번", "gu": "강서구", "lat": 37.55222974420196, "lon": 126.83351789025177, "survivalProbability": 0.8407, "monthlyEstimateKRW": 99913352, "salesPercentile": 46.4}, {"sangwonCode": 3120154, "sangwonName": "장승배기역", "gu": "동작구", "lat": 37.5044258725142, "lon": 126.94052266021389, "survivalProbability": 0.8407, "monthlyEstimateKRW": 95107779, "salesPercentile": 27.6}, {"sangwonCode": 3120032, "sangwonName": "충무로역", "gu": "중구", "lat": 37.56140202648682, "lon": 126.99494074826379, "survivalProbability": 0.8407, "monthlyEstimateKRW": 100325770, "salesPercentile": 46.9}, {"sangwonCode": 3130110, "sangwonName": "면목골목시장(면목시장)", "gu": "중랑구", "lat": 37.57866134278171, "lon": 127.08540447332199, "survivalProbability": 0.8407, "monthlyEstimateKRW": 129819202, "salesPercentile": 76.6}, {"sangwonCode": 3110419, "sangwonName": "수락산디자인거리", "gu": "노원구", "lat": 37.676426447476146, "lon": 127.05710918618395, "survivalProbability": 0.8407, "monthlyEstimateKRW": 94413071, "salesPercentile": 23.8}, {"sangwonCode": 3120033, "sangwonName": "을지로4가역", "gu": "중구", "lat": 37.56687113657297, "lon": 126.99670615237726, "survivalProbability": 0.8407, "monthlyEstimateKRW": 159998706, "salesPercentile": 84.9}, {"sangwonCode": 3130111, "sangwonName": "동원전통종합시장(동원시장, 동원전통시장 상점가)", "gu": "중랑구", "lat": 37.58989278841775, "lon": 127.09068228925835, "survivalProbability": 0.8407, "monthlyEstimateKRW": 139699432, "salesPercentile": 81.6}, {"sangwonCode": 3110159, "sangwonName": "구의역 4번", "gu": "광진구", "lat": 37.534966184561476, "lon": 127.0808515528512, "survivalProbability": 0.8407, "monthlyEstimateKRW": 96845678, "salesPercentile": 34.1}, {"sangwonCode": 3130115, "sangwonName": "우림골목시장", "gu": "중랑구", "lat": 37.597950947766826, "lon": 127.0978373645944, "survivalProbability": 0.8407, "monthlyEstimateKRW": 93404351, "salesPercentile": 14.6}, {"sangwonCode": 3120149, "sangwonName": "여의도역(여의도)", "gu": "영등포구", "lat": 37.5226811750762, "lon": 126.92625456940182, "survivalProbability": 0.8407, "monthlyEstimateKRW": 93927125, "salesPercentile": 20.1}, {"sangwonCode": 3130121, "sangwonName": "길음시장", "gu": "성북구", "lat": 37.602683630466736, "lon": 127.02189023475428, "survivalProbability": 0.8407, "monthlyEstimateKRW": 131776492, "salesPercentile": 78.2}, {"sangwonCode": 3120146, "sangwonName": "한강성심병원", "gu": "영등포구", "lat": 37.5230039545715, "lon": 126.91089197114088, "survivalProbability": 0.8407, "monthlyEstimateKRW": 153398206, "salesPercentile": 83.7}, {"sangwonCode": 3120038, "sangwonName": "약수역", "gu": "중구", "lat": 37.554283830627085, "lon": 127.0100270036947, "survivalProbability": 0.8407, "monthlyEstimateKRW": 124538128, "salesPercentile": 69.5}, {"sangwonCode": 3120145, "sangwonName": "영등포역(영등포)", "gu": "영등포구", "lat": 37.51843182609498, "lon": 126.90568269638135, "survivalProbability": 0.8407, "monthlyEstimateKRW": 199613055, "salesPercentile": 88.3}, {"sangwonCode": 3130129, "sangwonName": "장미원골목시장", "gu": "강북구", "lat": 37.644995149082234, "lon": 127.0143222680271, "survivalProbability": 0.8407, "monthlyEstimateKRW": 133445490, "salesPercentile": 78.7}, {"sangwonCode": 3110429, "sangwonName": "공릉동 국수거리", "gu": "노원구", "lat": 37.62103417354386, "lon": 127.07311752729491, "survivalProbability": 0.8407, "monthlyEstimateKRW": 101262290, "salesPercentile": 51.9}, {"sangwonCode": 3130137, "sangwonName": "수유전통시장(수유시장, 수유골목시장)", "gu": "강북구", "lat": 37.631163727607486, "lon": 127.02263495817301, "survivalProbability": 0.8407, "monthlyEstimateKRW": 373425260, "salesPercentile": 93.3}, {"sangwonCode": 3120139, "sangwonName": "대림3동사거리", "gu": "영등포구", "lat": 37.50016185253768, "lon": 126.89773284883364, "survivalProbability": 0.8407, "monthlyEstimateKRW": 139005415, "salesPercentile": 81.2}, {"sangwonCode": 3120041, "sangwonName": "신용산역(용산역)", "gu": "용산구", "lat": 37.52899651132542, "lon": 126.96333347099194, "survivalProbability": 0.8407, "monthlyEstimateKRW": 96587848, "salesPercentile": 33.1}, {"sangwonCode": 3120136, "sangwonName": "영등포구청역", "gu": "영등포구", "lat": 37.5253946047632, "lon": 126.89281128917447, "survivalProbability": 0.8407, "monthlyEstimateKRW": 178268856, "salesPercentile": 85.8}, {"sangwonCode": 3120042, "sangwonName": "숙대입구역(남영역, 남영동)", "gu": "용산구", "lat": 37.54225254838164, "lon": 126.97176822424127, "survivalProbability": 0.8407, "monthlyEstimateKRW": 112349189, "salesPercentile": 60.3}, {"sangwonCode": 3130152, "sangwonName": "오!도봉거리 상점가", "gu": "도봉구", "lat": 37.673007609322525, "lon": 127.04593009301792, "survivalProbability": 0.8407, "monthlyEstimateKRW": 129302661, "salesPercentile": 75.3}, {"sangwonCode": 3120134, "sangwonName": "구로전화국", "gu": "금천구", "lat": 37.47993162827735, "lon": 126.9054145419079, "survivalProbability": 0.8407, "monthlyEstimateKRW": 94795266, "salesPercentile": 26.4}, {"sangwonCode": 3110138, "sangwonName": "송정체육공원", "gu": "성동구", "lat": 37.550787295336974, "lon": 127.06717551903371, "survivalProbability": 0.8407, "monthlyEstimateKRW": 93685328, "salesPercentile": 18.0}, {"sangwonCode": 3110776, "sangwonName": "도신초등학교", "gu": "영등포구", "lat": 37.49754391638084, "lon": 126.90245209989303, "survivalProbability": 0.8407, "monthlyEstimateKRW": 93625096, "salesPercentile": 16.9}, {"sangwonCode": 3110446, "sangwonName": "내를건너서숲으로도서관", "gu": "은평구", "lat": 37.59086414192362, "lon": 126.90710860708315, "survivalProbability": 0.8407, "monthlyEstimateKRW": 127338463, "salesPercentile": 70.7}, {"sangwonCode": 3110627, "sangwonName": "신정롯데캐슬아파트", "gu": "양천구", "lat": 37.519996696799005, "lon": 126.87366784052162, "survivalProbability": 0.8407, "monthlyEstimateKRW": 90734998, "salesPercentile": 4.4}, {"sangwonCode": 3110778, "sangwonName": "구로디지털단지역 4번", "gu": "영등포구", "lat": 37.48862394889115, "lon": 126.90245239287532, "survivalProbability": 0.8407, "monthlyEstimateKRW": 100405771, "salesPercentile": 47.3}, {"sangwonCode": 3120131, "sangwonName": "가산디지털단지", "gu": "금천구", "lat": 37.47710029831843, "lon": 126.88288623812605, "survivalProbability": 0.8407, "monthlyEstimateKRW": 1318381818, "salesPercentile": 99.2}, {"sangwonCode": 3110452, "sangwonName": "새절역 3번", "gu": "은평구", "lat": 37.59016549565589, "lon": 126.91251034948718, "survivalProbability": 0.8407, "monthlyEstimateKRW": 91176781, "salesPercentile": 6.9}, {"sangwonCode": 3130168, "sangwonName": "연서시장", "gu": "은평구", "lat": 37.61966145751094, "lon": 126.92186592951714, "survivalProbability": 0.8407, "monthlyEstimateKRW": 130336767, "salesPercentile": 77.4}, {"sangwonCode": 3120130, "sangwonName": "구로디지털단지역", "gu": "구로구", "lat": 37.48321674132804, "lon": 126.9010574261167, "survivalProbability": 0.8407, "monthlyEstimateKRW": 96935977, "salesPercentile": 35.6}, {"sangwonCode": 3110128, "sangwonName": "성원중학교", "gu": "성동구", "lat": 37.53816384184272, "lon": 127.04992055728603, "survivalProbability": 0.8407, "monthlyEstimateKRW": 98616929, "salesPercentile": 42.3}, {"sangwonCode": 3130172, "sangwonName": "모래내시장(서중시장)", "gu": "서대문구", "lat": 37.570057260519455, "lon": 126.91517132922482, "survivalProbability": 0.8407, "monthlyEstimateKRW": 129359762, "salesPercentile": 75.7}, {"sangwonCode": 3130176, "sangwonName": "유진상가", "gu": "서대문구", "lat": 37.59159866059048, "lon": 126.94288775918265, "survivalProbability": 0.8407, "monthlyEstimateKRW": 130592205, "salesPercentile": 77.8}, {"sangwonCode": 3120047, "sangwonName": "한남오거리", "gu": "용산구", "lat": 37.53301141680184, "lon": 127.0075690290704, "survivalProbability": 0.8407, "monthlyEstimateKRW": 158986627, "salesPercentile": 84.5}, {"sangwonCode": 3110458, "sangwonName": "선일여고", "gu": "은평구", "lat": 37.62118756887732, "lon": 126.9138672649344, "survivalProbability": 0.8407, "monthlyEstimateKRW": 93625096, "salesPercentile": 16.9}, {"sangwonCode": 3110787, "sangwonName": "신길3동주민센터", "gu": "영등포구", "lat": 37.50674580845403, "lon": 126.90568609063068, "survivalProbability": 0.8407, "monthlyEstimateKRW": 90734998, "salesPercentile": 4.4}, {"sangwonCode": 3120125, "sangwonName": "구로역", "gu": "구로구", "lat": 37.50228754471039, "lon": 126.87802914643336, "survivalProbability": 0.8407, "monthlyEstimateKRW": 922676934, "salesPercentile": 95.8}, {"sangwonCode": 3120124, "sangwonName": "개봉동 현대아파트", "gu": "구로구", "lat": 37.4888917210359, "lon": 126.85592258479969, "survivalProbability": 0.8407, "monthlyEstimateKRW": 128261707, "salesPercentile": 72.4}, {"sangwonCode": 3130185, "sangwonName": "망원월드컵시장", "gu": "마포구", "lat": 37.55811166117051, "lon": 126.90542898536704, "survivalProbability": 0.8407, "monthlyEstimateKRW": 128651592, "salesPercentile": 73.6}, {"sangwonCode": 3110112, "sangwonName": "행당역 2번", "gu": "성동구", "lat": 37.559226552054376, "lon": 127.03141851074179, "survivalProbability": 0.8407, "monthlyEstimateKRW": 90836725, "salesPercentile": 5.0}, {"sangwonCode": 3130186, "sangwonName": "망원시장", "gu": "마포구", "lat": 37.55633776978263, "lon": 126.90677800571248, "survivalProbability": 0.8407, "monthlyEstimateKRW": 134477483, "salesPercentile": 79.1}, {"sangwonCode": 3120051, "sangwonName": "뚝섬역", "gu": "성동구", "lat": 37.54667891193152, "lon": 127.04842120587679, "survivalProbability": 0.8407, "monthlyEstimateKRW": 93413637, "salesPercentile": 15.1}, {"sangwonCode": 3110468, "sangwonName": "응암역 3번", "gu": "은평구", "lat": 37.60326100173212, "lon": 126.91823657343359, "survivalProbability": 0.8407, "monthlyEstimateKRW": 96727551, "salesPercentile": 33.5}, {"sangwonCode": 3110907, "sangwonName": "방배초등학교", "gu": "서초구", "lat": 37.48702347050339, "lon": 126.98530089260097, "survivalProbability": 0.8407, "monthlyEstimateKRW": 100689051, "salesPercentile": 49.0}, {"sangwonCode": 3130198, "sangwonName": "아현시장", "gu": "마포구", "lat": 37.55640179732696, "lon": 126.9543792384095, "survivalProbability": 0.8407, "monthlyEstimateKRW": 108749143, "salesPercentile": 56.5}, {"sangwonCode": 3110469, "sangwonName": "응암정보도서관", "gu": "은평구", "lat": 37.586196487934636, "lon": 126.91861754570077, "survivalProbability": 0.8407, "monthlyEstimateKRW": 218511796, "salesPercentile": 89.1}, {"sangwonCode": 3130204, "sangwonName": "경창시장", "gu": "양천구", "lat": 37.524526713829125, "lon": 126.84204133356633, "survivalProbability": 0.8407, "monthlyEstimateKRW": 127412935, "salesPercentile": 71.1}, {"sangwonCode": 3110800, "sangwonName": "영등포동성당", "gu": "영등포구", "lat": 37.52126449878274, "lon": 126.91020399762098, "survivalProbability": 0.8407, "monthlyEstimateKRW": 151709914, "salesPercentile": 83.3}, {"sangwonCode": 3110610, "sangwonName": "계남근린공원", "gu": "양천구", "lat": 37.51653636130315, "lon": 126.85013454972928, "survivalProbability": 0.8407, "monthlyEstimateKRW": 91176781, "salesPercentile": 6.9}, {"sangwonCode": 3110085, "sangwonName": "경리단길남측", "gu": "용산구", "lat": 37.53875974659307, "lon": 126.99162703817964, "survivalProbability": 0.8407, "monthlyEstimateKRW": 90263383, "salesPercentile": 0.4}, {"sangwonCode": 3110473, "sangwonName": "구산역 1번", "gu": "은평구", "lat": 37.6127051698786, "lon": 126.92087651968289, "survivalProbability": 0.8407, "monthlyEstimateKRW": 98799973, "salesPercentile": 43.5}, {"sangwonCode": 3110084, "sangwonName": "경리단길북측", "gu": "용산구", "lat": 37.54173302689627, "lon": 126.9913551393898, "survivalProbability": 0.8407, "monthlyEstimateKRW": 98340658, "salesPercentile": 40.6}, {"sangwonCode": 3130209, "sangwonName": "목사랑시장(목4동시장)", "gu": "양천구", "lat": 37.53793668742033, "lon": 126.86644144350878, "survivalProbability": 0.8407, "monthlyEstimateKRW": 109723879, "salesPercentile": 57.7}, {"sangwonCode": 3110081, "sangwonName": "해방촌 남동측", "gu": "용산구", "lat": 37.544119980506025, "lon": 126.98454285856135, "survivalProbability": 0.8407, "monthlyEstimateKRW": 90684474, "salesPercentile": 3.3}, {"sangwonCode": 3110606, "sangwonName": "신한은행 신월동지점", "gu": "양천구", "lat": 37.51989447026174, "lon": 126.84122532645456, "survivalProbability": 0.8407, "monthlyEstimateKRW": 115297072, "salesPercentile": 63.2}, {"sangwonCode": 3130213, "sangwonName": "방신전통시장", "gu": "강서구", "lat": 37.571632474906465, "lon": 126.81235201849918, "survivalProbability": 0.8407, "monthlyEstimateKRW": 134745889, "salesPercentile": 79.5}, {"sangwonCode": 3110478, "sangwonName": "응암1동주민센터", "gu": "은평구", "lat": 37.5998058991835, "lon": 126.92532920921035, "survivalProbability": 0.8407, "monthlyEstimateKRW": 127143009, "salesPercentile": 70.3}, {"sangwonCode": 3120054, "sangwonName": "어린이대공원역", "gu": "광진구", "lat": 37.547820046908846, "lon": 127.07219724027671, "survivalProbability": 0.8407, "monthlyEstimateKRW": 99146931, "salesPercentile": 44.4}, {"sangwonCode": 3120111, "sangwonName": "목동사거리", "gu": "강서구", "lat": 37.531878131050874, "lon": 126.86309205939345, "survivalProbability": 0.8407, "monthlyEstimateKRW": 96459044, "salesPercentile": 31.8}, {"sangwonCode": 3110895, "sangwonName": "샤로수길", "gu": "관악구", "lat": 37.47637531474311, "lon": 126.9561011279273, "survivalProbability": 0.8407, "monthlyEstimateKRW": 94426051, "salesPercentile": 24.3}, {"sangwonCode": 3120109, "sangwonName": "서울남부지방법원", "gu": "양천구", "lat": 37.52167521099988, "lon": 126.86003377953539, "survivalProbability": 0.8407, "monthlyEstimateKRW": 92629503, "salesPercentile": 11.3}, {"sangwonCode": 3110892, "sangwonName": "관악구 중앙길", "gu": "관악구", "lat": 37.484284219236116, "lon": 126.95112160044752, "survivalProbability": 0.8407, "monthlyEstimateKRW": 94136645, "salesPercentile": 21.5}, {"sangwonCode": 3120108, "sangwonName": "신정네거리역", "gu": "양천구", "lat": 37.52184641197067, "lon": 126.8526352486175, "survivalProbability": 0.8407, "monthlyEstimateKRW": 100694150, "salesPercentile": 49.4}, {"sangwonCode": 3110885, "sangwonName": "영락고등학교", "gu": "관악구", "lat": 37.47534972675296, "lon": 126.93927952242284, "survivalProbability": 0.8407, "monthlyEstimateKRW": 90839608, "salesPercentile": 5.4}, {"sangwonCode": 3120104, "sangwonName": "연남동(홍대)", "gu": "마포구", "lat": 37.56007023507463, "lon": 126.9224714657634, "survivalProbability": 0.8407, "monthlyEstimateKRW": 102054113, "salesPercentile": 52.7}, {"sangwonCode": 3110815, "sangwonName": "공군호텔", "gu": "영등포구", "lat": 37.51166828712483, "lon": 126.9221596147489, "survivalProbability": 0.8407, "monthlyEstimateKRW": 93378587, "salesPercentile": 14.2}, {"sangwonCode": 3110502, "sangwonName": "남가좌파출소", "gu": "서대문구", "lat": 37.57596396317863, "lon": 126.92272668132662, "survivalProbability": 0.8407, "monthlyEstimateKRW": 96449270, "salesPercentile": 31.0}, {"sangwonCode": 3110882, "sangwonName": "신성초등학교", "gu": "관악구", "lat": 37.473023526393646, "lon": 126.93625169251668, "survivalProbability": 0.8407, "monthlyEstimateKRW": 97175263, "salesPercentile": 36.8}, {"sangwonCode": 3110819, "sangwonName": "신대방역 4번", "gu": "동작구", "lat": 37.48877490125431, "lon": 126.91105702584524, "survivalProbability": 0.8407, "monthlyEstimateKRW": 90429536, "salesPercentile": 2.5}, {"sangwonCode": 3130255, "sangwonName": "영등포전통시장", "gu": "영등포구", "lat": 37.52106473916393, "lon": 126.90820198877576, "survivalProbability": 0.8407, "monthlyEstimateKRW": 96889288, "salesPercentile": 35.1}, {"sangwonCode": 3130261, "sangwonName": "성대전통시장(성대시장)", "gu": "동작구", "lat": 37.499122816445855, "lon": 126.93106137758035, "survivalProbability": 0.8407, "monthlyEstimateKRW": 130148586, "salesPercentile": 77.0}, {"sangwonCode": 3110873, "sangwonName": "당곡중학교", "gu": "관악구", "lat": 37.49122005096885, "lon": 126.9294742646681, "survivalProbability": 0.8407, "monthlyEstimateKRW": 93462143, "salesPercentile": 15.5}, {"sangwonCode": 3110593, "sangwonName": "신월3동주민센터", "gu": "양천구", "lat": 37.53348831317334, "lon": 126.82679378474677, "survivalProbability": 0.8407, "monthlyEstimateKRW": 94408091, "salesPercentile": 23.4}, {"sangwonCode": 3120094, "sangwonName": "신촌역(신촌역, 신촌로터리)", "gu": "서대문구", "lat": 37.55652864102824, "lon": 126.93641829163414, "survivalProbability": 0.8407, "monthlyEstimateKRW": 97960446, "salesPercentile": 39.7}, {"sangwonCode": 3110871, "sangwonName": "신원동주민센터", "gu": "관악구", "lat": 37.480514744310774, "lon": 126.92727965292688, "survivalProbability": 0.8407, "monthlyEstimateKRW": 91366153, "salesPercentile": 8.4}, {"sangwonCode": 3130273, "sangwonName": "남성사계시장(남성시장)", "gu": "동작구", "lat": 37.48822110802707, "lon": 126.98044987510083, "survivalProbability": 0.8407, "monthlyEstimateKRW": 97643621, "salesPercentile": 37.7}, {"sangwonCode": 3120063, "sangwonName": "청량리역(청량리)", "gu": "동대문구", "lat": 37.58100711945642, "lon": 127.04780944194178, "survivalProbability": 0.8407, "monthlyEstimateKRW": 111419442, "salesPercentile": 59.4}, {"sangwonCode": 3110020, "sangwonName": "서울국제고등학교", "gu": "종로구", "lat": 37.58827871837829, "lon": 126.9954484333874, "survivalProbability": 0.8407, "monthlyEstimateKRW": 90846107, "salesPercentile": 5.9}, {"sangwonCode": 3110828, "sangwonName": "노량진역 6번", "gu": "동작구", "lat": 37.511009954205484, "lon": 126.93618546819476, "survivalProbability": 0.8407, "monthlyEstimateKRW": 96456219, "salesPercentile": 31.4}, {"sangwonCode": 3110544, "sangwonName": "망리단길", "gu": "마포구", "lat": 37.5549489373919, "lon": 126.90515005082226, "survivalProbability": 0.8407, "monthlyEstimateKRW": 228208732, "salesPercentile": 89.5}, {"sangwonCode": 3110860, "sangwonName": "호림박물관(성보고등학교)", "gu": "관악구", "lat": 37.48176193235565, "lon": 126.91925103502298, "survivalProbability": 0.8407, "monthlyEstimateKRW": 120648464, "salesPercentile": 67.8}, {"sangwonCode": 3130311, "sangwonName": "새마을시장", "gu": "송파구", "lat": 37.50894216638436, "lon": 127.08521187520329, "survivalProbability": 0.8407, "monthlyEstimateKRW": 100998796, "salesPercentile": 50.6}, {"sangwonCode": 3120081, "sangwonName": "노원역", "gu": "노원구", "lat": 37.65546707370536, "lon": 127.06218142111479, "survivalProbability": 0.8407, "monthlyEstimateKRW": 764182359, "salesPercentile": 95.0}, {"sangwonCode": 3130313, "sangwonName": "방이시장", "gu": "송파구", "lat": 37.51106079756516, "lon": 127.11552676175948, "survivalProbability": 0.8407, "monthlyEstimateKRW": 93337881, "salesPercentile": 13.4}, {"sangwonCode": 3081591, "sangwonName": null, "gu": null, "lat": null, "lon": null, "survivalProbability": 0.8407, "monthlyEstimateKRW": 1379247727, "salesPercentile": 99.6}, {"sangwonCode": 3110850, "sangwonName": "사당역 10번", "gu": "동작구", "lat": 37.47941785252698, "lon": 126.97815707930891, "survivalProbability": 0.8407, "monthlyEstimateKRW": 92784983, "salesPercentile": 12.1}, {"sangwonCode": 3130324, "sangwonName": "길동복조리시장", "gu": "강동구", "lat": 37.53901513097588, "lon": 127.14358543114432, "survivalProbability": 0.8407, "monthlyEstimateKRW": 101273055, "salesPercentile": 52.3}, {"sangwonCode": 3110566, "sangwonName": "경의선책거리", "gu": "마포구", "lat": 37.55625383061659, "lon": 126.92853025842084, "survivalProbability": 0.8407, "monthlyEstimateKRW": 111603407, "salesPercentile": 59.8}]}