{"industryCode": "CS300032", "industryName": "가전제품", "dataAsOf": "2026-Q1", "survivalGranularity": "seoul_industry", "cells": [{"sangwonCode": 3111046, "sangwonName": "마천역(마천초등학교)", "gu": "송파구", "lat": 37.495999240540726, "lon": 127.15239139655954, "survivalProbability": 0.966, "monthlyEstimateKRW": 136398961, "salesPercentile": 64.4}, {"sangwonCode": 3130111, "sangwonName": "동원전통종합시장(동원시장, 동원전통시장 상점가)", "gu": "중랑구", "lat": 37.58989278841775, "lon": 127.09068228925835, "survivalProbability": 0.966, "monthlyEstimateKRW": 69504168, "salesPercentile": 1.4}, {"sangwonCode": 3120069, "sangwonName": "상봉역", "gu": "중랑구", "lat": 37.596373128943156, "lon": 127.08775735921145, "survivalProbability": 0.966, "monthlyEstimateKRW": 89855157, "salesPercentile": 41.1}, {"sangwonCode": 3120132, "sangwonName": "독산동", "gu": "금천구", "lat": 37.470740558781436, "lon": 126.89389548521771, "survivalProbability": 0.966, "monthlyEstimateKRW": 76925018, "salesPercentile": 19.2}, {"sangwonCode": 3120164, "sangwonName": "내방역", "gu": "서초구", "lat": 37.48818651312079, "lon": 126.9936227499084, "survivalProbability": 0.966, "monthlyEstimateKRW": 76396444, "salesPercentile": 17.8}, {"sangwonCode": 3120167, "sangwonName": "고속터미널(고속터미널역)", "gu": "서초구", "lat": 37.50505341252054, "lon": 127.00525902182616, "survivalProbability": 0.966, "monthlyEstimateKRW": 75120763, "salesPercentile": 13.7}, {"sangwonCode": 3120011, "sangwonName": "종로4가", "gu": "종로구", "lat": 37.571150886858554, "lon": 126.9975889014172, "survivalProbability": 0.966, "monthlyEstimateKRW": 293176656, "salesPercentile": 76.7}, {"sangwonCode": 3110983, "sangwonName": "국립국악고등학교", "gu": "강남구", "lat": 37.47790448472096, "lon": 127.05028744787174, "survivalProbability": 0.966, "monthlyEstimateKRW": 151192701, "salesPercentile": 67.1}, {"sangwonCode": 3110156, "sangwonName": "군자역 5번", "gu": "광진구", "lat": 37.55374327045005, "lon": 127.08046441912305, "survivalProbability": 0.966, "monthlyEstimateKRW": 102028500, "salesPercentile": 49.3}, {"sangwonCode": 3110695, "sangwonName": "개봉1동주민센터", "gu": "구로구", "lat": 37.50051860479138, "lon": 126.8517950693802, "survivalProbability": 0.966, "monthlyEstimateKRW": 103486550, "salesPercentile": 50.7}, {"sangwonCode": 3120156, "sangwonName": "총신대입구역(이수, 총신대)", "gu": "동작구", "lat": 37.48599581916168, "lon": 126.98170551541705, "survivalProbability": 0.966, "monthlyEstimateKRW": 131284414, "salesPercentile": 61.6}, {"sangwonCode": 3120041, "sangwonName": "신용산역(용산역)", "gu": "용산구", "lat": 37.52899651132542, "lon": 126.96333347099194, "survivalProbability": 0.966, "monthlyEstimateKRW": 748463635, "salesPercentile": 83.6}, {"sangwonCode": 3130248, "sangwonName": "영등포역지하도상점가", "gu": "영등포구", "lat": 37.51430435395737, "lon": 126.90459071258275, "survivalProbability": 0.966, "monthlyEstimateKRW": 72274629, "salesPercentile": 6.8}, {"sangwonCode": 3120103, "sangwonName": "홍대입구역(홍대)", "gu": "마포구", "lat": 37.55054422664607, "lon": 126.91880344160859, "survivalProbability": 0.966, "monthlyEstimateKRW": 97981198, "salesPercentile": 46.6}, {"sangwonCode": 3110810, "sangwonName": "영신초등학교", "gu": "영등포구", "lat": 37.51093472393394, "lon": 126.91666342067874, "survivalProbability": 0.966, "monthlyEstimateKRW": 87303896, "salesPercentile": 37.0}, {"sangwonCode": 3110181, "sangwonName": "신설동역 9번", "gu": "동대문구", "lat": 37.57225595717022, "lon": 127.02739410669473, "survivalProbability": 0.966, "monthlyEstimateKRW": 71255503, "salesPercentile": 4.1}, {"sangwonCode": 3120185, "sangwonName": "논현역", "gu": "강남구", "lat": 37.51104318245634, "lon": 127.02189737579353, "survivalProbability": 0.966, "monthlyEstimateKRW": 186070188, "salesPercentile": 71.2}, {"sangwonCode": 3110297, "sangwonName": "경동고등학교", "gu": "성북구", "lat": 37.588205872807336, "lon": 127.01419815660745, "survivalProbability": 0.966, "monthlyEstimateKRW": 174694902, "salesPercentile": 69.9}, {"sangwonCode": 3120222, "sangwonName": "삼성역", "gu": "강남구", "lat": 37.508667696206736, "lon": 127.06315654228577, "survivalProbability": 0.966, "monthlyEstimateKRW": 81508998, "salesPercentile": 30.1}, {"sangwonCode": 3120227, "sangwonName": "잠실역", "gu": "송파구", "lat": 37.51398412500385, "lon": 127.10126801274058, "survivalProbability": 0.966, "monthlyEstimateKRW": 1414225773, "salesPercentile": 97.3}, {"sangwonCode": 3120202, "sangwonName": "압구정로데오역(압구정로데오)", "gu": "강남구", "lat": 37.526769907891094, "lon": 127.04013853060529, "survivalProbability": 0.966, "monthlyEstimateKRW": 75991894, "salesPercentile": 16.4}, {"sangwonCode": 3120201, "sangwonName": "도곡1동", "gu": "강남구", "lat": 37.49256784501679, "lon": 127.03992798739, "survivalProbability": 0.966, "monthlyEstimateKRW": 74580294, "salesPercentile": 12.3}, {"sangwonCode": 3120236, "sangwonName": "장지역(가든파이브)", "gu": "송파구", "lat": 37.47804006486017, "lon": 127.12329941653981, "survivalProbability": 0.966, "monthlyEstimateKRW": 788915814, "salesPercentile": 84.9}, {"sangwonCode": 3120239, "sangwonName": "오금역", "gu": "송파구", "lat": 37.50177860016498, "lon": 127.12614312912417, "survivalProbability": 0.966, "monthlyEstimateKRW": 77707995, "salesPercentile": 23.3}, {"sangwonCode": 3110242, "sangwonName": "면목5동주민센터", "gu": "중랑구", "lat": 37.58466695176947, "lon": 127.07819937597111, "survivalProbability": 0.966, "monthlyEstimateKRW": 111484867, "salesPercentile": 54.8}, {"sangwonCode": 3120188, "sangwonName": "압구정역", "gu": "강남구", "lat": 37.52546693782541, "lon": 127.02807838256531, "survivalProbability": 0.966, "monthlyEstimateKRW": 78555815, "salesPercentile": 27.4}, {"sangwonCode": 3120009, "sangwonName": "종로3가역", "gu": "종로구", "lat": 37.57165510209864, "lon": 126.99069513429947, "survivalProbability": 0.966, "monthlyEstimateKRW": 487231162, "salesPercentile": 80.8}, {"sangwonCode": 3120186, "sangwonName": "가로수길", "gu": "강남구", "lat": 37.52077389382864, "lon": 127.0225789449648, "survivalProbability": 0.966, "monthlyEstimateKRW": 77040494, "salesPercentile": 20.5}, {"sangwonCode": 3120184, "sangwonName": "포이사거리(삼호물산)", "gu": "서초구", "lat": 37.47696053249972, "lon": 127.04506367970757, "survivalProbability": 0.966, "monthlyEstimateKRW": 77047993, "salesPercentile": 21.9}, {"sangwonCode": 3130004, "sangwonName": "낙원시장(낙원지하시장(대일상가))", "gu": "종로구", "lat": 37.572772081328125, "lon": 126.98788764600079, "survivalProbability": 0.966, "monthlyEstimateKRW": 1058524956, "salesPercentile": 87.7}, {"sangwonCode": 3130005, "sangwonName": "세운상가가동", "gu": "종로구", "lat": 37.569384872406744, "lon": 126.99543826391316, "survivalProbability": 0.966, "monthlyEstimateKRW": 1083737533, "salesPercentile": 90.4}, {"sangwonCode": 3120180, "sangwonName": "양재화물트럭터미널앞", "gu": "서초구", "lat": 37.463880723466325, "lon": 127.03679295600678, "survivalProbability": 0.966, "monthlyEstimateKRW": 82748224, "salesPercentile": 34.2}, {"sangwonCode": 3110738, "sangwonName": "문성초등학교", "gu": "금천구", "lat": 37.472305721353386, "lon": 126.90129790602968, "survivalProbability": 0.966, "monthlyEstimateKRW": 130178485, "salesPercentile": 60.3}, {"sangwonCode": 3130020, "sangwonName": "동묘시장(동묘벼룩시장)", "gu": "종로구", "lat": 37.571356966071896, "lon": 127.01665134166707, "survivalProbability": 0.966, "monthlyEstimateKRW": 72101413, "salesPercentile": 5.5}, {"sangwonCode": 3130022, "sangwonName": "숭례문수입상가(남대문시장)", "gu": "중구", "lat": 37.55943555342979, "lon": 126.9761531025199, "survivalProbability": 0.966, "monthlyEstimateKRW": 162597693, "salesPercentile": 68.5}, {"sangwonCode": 3111022, "sangwonName": "석촌중학교(방이육교)", "gu": "송파구", "lat": 37.502906487064415, "lon": 127.12460694915103, "survivalProbability": 0.966, "monthlyEstimateKRW": 205621911, "salesPercentile": 74.0}, {"sangwonCode": 3130024, "sangwonName": "남대문시장(자유상가)", "gu": "중구", "lat": 37.55957999880267, "lon": 126.97761307341452, "survivalProbability": 0.966, "monthlyEstimateKRW": 688168379, "salesPercentile": 82.2}, {"sangwonCode": 3130033, "sangwonName": "대림상가(청계상가)", "gu": "중구", "lat": 37.567546840841366, "lon": 126.99542705683898, "survivalProbability": 0.966, "monthlyEstimateKRW": 1138220665, "salesPercentile": 91.8}, {"sangwonCode": 3130054, "sangwonName": "황학동주방가구거리상점가", "gu": "중구", "lat": 37.56874345227643, "lon": 127.02062385070205, "survivalProbability": 0.966, "monthlyEstimateKRW": 94439672, "salesPercentile": 43.8}, {"sangwonCode": 3120172, "sangwonName": "교대입구교차로", "gu": "서초구", "lat": 37.48774452227515, "lon": 127.01257351118738, "survivalProbability": 0.966, "monthlyEstimateKRW": 85859076, "salesPercentile": 35.6}, {"sangwonCode": 3110398, "sangwonName": "쌍문2동우체국", "gu": "도봉구", "lat": 37.654891974674136, "lon": 127.03714764587913, "survivalProbability": 0.966, "monthlyEstimateKRW": 110526243, "salesPercentile": 53.4}, {"sangwonCode": 3120025, "sangwonName": "롯데백화점(시청광장 지하쇼핑센터)", "gu": "중구", "lat": 37.56500454898951, "lon": 126.98073543386651, "survivalProbability": 0.966, "monthlyEstimateKRW": 193027926, "salesPercentile": 72.6}, {"sangwonCode": 3110405, "sangwonName": "방학역 1번", "gu": "도봉구", "lat": 37.66914421552273, "lon": 127.04101983972981, "survivalProbability": 0.966, "monthlyEstimateKRW": 905940647, "salesPercentile": 86.3}, {"sangwonCode": 3120027, "sangwonName": "명동역(명동재미로)", "gu": "중구", "lat": 37.55977021816383, "lon": 126.98379263879171, "survivalProbability": 0.966, "monthlyEstimateKRW": 73773201, "salesPercentile": 9.6}, {"sangwonCode": 3110176, "sangwonName": "해오름공원", "gu": "광진구", "lat": 37.557816247579865, "lon": 127.09214865556346, "survivalProbability": 0.966, "monthlyEstimateKRW": 73068818, "salesPercentile": 8.2}, {"sangwonCode": 3120160, "sangwonName": "사당역(사당)", "gu": "서초구", "lat": 37.47752639125283, "lon": 126.98206935862181, "survivalProbability": 0.966, "monthlyEstimateKRW": 81791161, "salesPercentile": 32.9}, {"sangwonCode": 3120159, "sangwonName": "서울대입구역", "gu": "관악구", "lat": 37.48095081268923, "lon": 126.95191519812431, "survivalProbability": 0.966, "monthlyEstimateKRW": 1933295755, "salesPercentile": 100.0}, {"sangwonCode": 3120030, "sangwonName": "중부경찰서(영화인의거리)", "gu": "중구", "lat": 37.5627892721598, "lon": 126.9903114098835, "survivalProbability": 0.966, "monthlyEstimateKRW": 77719820, "salesPercentile": 24.7}, {"sangwonCode": 3120031, "sangwonName": "을지로3가역", "gu": "중구", "lat": 37.56623117746982, "lon": 126.99161264533976, "survivalProbability": 0.966, "monthlyEstimateKRW": 80338184, "salesPercentile": 28.8}, {"sangwonCode": 3110415, "sangwonName": "수락산역 4번", "gu": "노원구", "lat": 37.67578860179999, "lon": 127.05315257704137, "survivalProbability": 0.966, "monthlyEstimateKRW": 101738974, "salesPercentile": 47.9}, {"sangwonCode": 3110638, "sangwonName": "신방화역 2번", "gu": "강서구", "lat": 37.56875208070871, "lon": 126.81411374137508, "survivalProbability": 0.966, "monthlyEstimateKRW": 1177114007, "salesPercentile": 93.2}, {"sangwonCode": 3110429, "sangwonName": "공릉동 국수거리", "gu": "노원구", "lat": 37.62103417354386, "lon": 127.07311752729491, "survivalProbability": 0.966, "monthlyEstimateKRW": 96508718, "salesPercentile": 45.2}, {"sangwonCode": 3120145, "sangwonName": "영등포역(영등포)", "gu": "영등포구", "lat": 37.51843182609498, "lon": 126.90568269638135, "survivalProbability": 0.966, "monthlyEstimateKRW": 114953660, "salesPercentile": 56.2}, {"sangwonCode": 3120040, "sangwonName": "용산전자상가(용산역)", "gu": "용산구", "lat": 37.53327570203355, "lon": 126.96155508063566, "survivalProbability": 0.966, "monthlyEstimateKRW": 1755285728, "salesPercentile": 98.6}, {"sangwonCode": 3120134, "sangwonName": "구로전화국", "gu": "금천구", "lat": 37.47993162827735, "lon": 126.9054145419079, "survivalProbability": 0.966, "monthlyEstimateKRW": 78346406, "salesPercentile": 26.0}, {"sangwonCode": 3110137, "sangwonName": "성수초등학교", "gu": "성동구", "lat": 37.54616776510738, "lon": 127.06245263029955, "survivalProbability": 0.966, "monthlyEstimateKRW": 148664729, "salesPercentile": 65.8}, {"sangwonCode": 3120131, "sangwonName": "가산디지털단지", "gu": "금천구", "lat": 37.47710029831843, "lon": 126.88288623812605, "survivalProbability": 0.966, "monthlyEstimateKRW": 1063854562, "salesPercentile": 89.0}, {"sangwonCode": 3120129, "sangwonName": "구로디지털단지", "gu": "구로구", "lat": 37.48404057803035, "lon": 126.89515431983698, "survivalProbability": 0.966, "monthlyEstimateKRW": 478341959, "salesPercentile": 79.5}, {"sangwonCode": 3120128, "sangwonName": "신도림역", "gu": "구로구", "lat": 37.50819222492761, "lon": 126.89038157947542, "survivalProbability": 0.966, "monthlyEstimateKRW": 309271443, "salesPercentile": 78.1}, {"sangwonCode": 3110117, "sangwonName": "성동구보건소", "gu": "성동구", "lat": 37.567073116003144, "lon": 127.03536085082358, "survivalProbability": 0.966, "monthlyEstimateKRW": 119001010, "salesPercentile": 57.5}, {"sangwonCode": 3120053, "sangwonName": "건대입구역(건대)", "gu": "광진구", "lat": 37.54052361998077, "lon": 127.0694180102895, "survivalProbability": 0.966, "monthlyEstimateKRW": 120000098, "salesPercentile": 58.9}, {"sangwonCode": 3120109, "sangwonName": "서울남부지방법원", "gu": "양천구", "lat": 37.52167521099988, "lon": 126.86003377953539, "survivalProbability": 0.966, "monthlyEstimateKRW": 74014875, "salesPercentile": 11.0}, {"sangwonCode": 3110892, "sangwonName": "관악구 중앙길", "gu": "관악구", "lat": 37.484284219236116, "lon": 126.95112160044752, "survivalProbability": 0.966, "monthlyEstimateKRW": 69938169, "salesPercentile": 2.7}, {"sangwonCode": 3130240, "sangwonName": "영등포유통상가", "gu": "영등포구", "lat": 37.522602705909264, "lon": 126.89415014284982, "survivalProbability": 0.966, "monthlyEstimateKRW": 106944322, "salesPercentile": 52.1}, {"sangwonCode": 3120060, "sangwonName": "강변역(테크노마트)", "gu": "광진구", "lat": 37.534811785832595, "lon": 127.09463209799448, "survivalProbability": 0.966, "monthlyEstimateKRW": 1259144912, "salesPercentile": 95.9}, {"sangwonCode": 3110055, "sangwonName": "황학동벼룩시장", "gu": "중구", "lat": 37.56987904492781, "lon": 127.01858665039832, "survivalProbability": 0.966, "monthlyEstimateKRW": 131503507, "salesPercentile": 63.0}, {"sangwonCode": 3120062, "sangwonName": "신설동역", "gu": "동대문구", "lat": 37.57495056845485, "lon": 127.024497100405, "survivalProbability": 0.966, "monthlyEstimateKRW": 75343923, "salesPercentile": 15.1}, {"sangwonCode": 3120094, "sangwonName": "신촌역(신촌역, 신촌로터리)", "gu": "서대문구", "lat": 37.55652864102824, "lon": 126.93641829163414, "survivalProbability": 0.966, "monthlyEstimateKRW": 88897758, "salesPercentile": 39.7}, {"sangwonCode": 3110532, "sangwonName": "아현역 2번", "gu": "서대문구", "lat": 37.55966460055765, "lon": 126.95758023545093, "survivalProbability": 0.966, "monthlyEstimateKRW": 87367341, "salesPercentile": 38.4}, {"sangwonCode": 3120090, "sangwonName": "연신내역", "gu": "은평구", "lat": 37.619066940896616, "lon": 126.92207043712689, "survivalProbability": 0.966, "monthlyEstimateKRW": 91146744, "salesPercentile": 42.5}, {"sangwonCode": 3120081, "sangwonName": "노원역", "gu": "노원구", "lat": 37.65546707370536, "lon": 127.06218142111479, "survivalProbability": 0.966, "monthlyEstimateKRW": 240875967, "salesPercentile": 75.3}, {"sangwonCode": 3081591, "sangwonName": null, "gu": null, "lat": null, "lon": null, "survivalProbability": 0.966, "monthlyEstimateKRW": 1188240800, "salesPercentile": 94.5}, {"sangwonCode": 3120073, "sangwonName": "미아사거리", "gu": "성북구", "lat": 37.60788077539443, "lon": 127.02913993403489, "survivalProbability": 0.966, "monthlyEstimateKRW": 81746306, "salesPercentile": 31.5}]}