{"industryCode": "CS300001", "industryName": "슈퍼마켓", "dataAsOf": "2026-Q1", "survivalGranularity": "seoul_industry", "cells": [{"sangwonCode": 3111019, "sangwonName": "한성백제역 3번", "gu": "송파구", "lat": 37.5135634626904, "lon": 127.11767970969707, "survivalProbability": 0.7373, "monthlyEstimateKRW": 609331678, "salesPercentile": 57.7}, {"sangwonCode": 3130113, "sangwonName": "신아타운", "gu": "중랑구", "lat": 37.60640493075793, "lon": 127.09453019739227, "survivalProbability": 0.7373, "monthlyEstimateKRW": 359069365, "salesPercentile": 12.0}, {"sangwonCode": 3110187, "sangwonName": "제기동역 6번", "gu": "동대문구", "lat": 37.576083873726574, "lon": 127.03255763774018, "survivalProbability": 0.7373, "monthlyEstimateKRW": 380424485, "salesPercentile": 16.2}, {"sangwonCode": 3110204, "sangwonName": "간데메공원", "gu": "동대문구", "lat": 37.573518572379605, "lon": 127.05088371301225, "survivalProbability": 0.7373, "monthlyEstimateKRW": 384260668, "salesPercentile": 16.6}, {"sangwonCode": 3110639, "sangwonName": "신방화역 8번", "gu": "강서구", "lat": 37.566086019095295, "lon": 126.8146749940266, "survivalProbability": 0.7373, "monthlyEstimateKRW": 284198260, "salesPercentile": 2.7}, {"sangwonCode": 3110534, "sangwonName": "경기대학교", "gu": "서대문구", "lat": 37.56418852067717, "lon": 126.9602149175942, "survivalProbability": 0.7373, "monthlyEstimateKRW": 339913249, "salesPercentile": 9.3}, {"sangwonCode": 3110334, "sangwonName": "석관중앙교회", "gu": "성북구", "lat": 37.608038984981924, "lon": 127.0625496269382, "survivalProbability": 0.7373, "monthlyEstimateKRW": 544700211, "salesPercentile": 48.9}, {"sangwonCode": 3110368, "sangwonName": "송천초등학교", "gu": "강북구", "lat": 37.61467534388805, "lon": 127.02422696852264, "survivalProbability": 0.7373, "monthlyEstimateKRW": 427920300, "salesPercentile": 27.0}, {"sangwonCode": 3110467, "sangwonName": "은평요양병원", "gu": "은평구", "lat": 37.62484029093253, "lon": 126.91913049837581, "survivalProbability": 0.7373, "monthlyEstimateKRW": 309994855, "salesPercentile": 5.1}, {"sangwonCode": 3110433, "sangwonName": "공릉역 2번", "gu": "노원구", "lat": 37.62447424820976, "lon": 127.07580558296289, "survivalProbability": 0.7373, "monthlyEstimateKRW": 411778825, "salesPercentile": 23.1}, {"sangwonCode": 3110559, "sangwonName": "성산중학교", "gu": "마포구", "lat": 37.54663282010309, "lon": 126.91725739230134, "survivalProbability": 0.7373, "monthlyEstimateKRW": 552073964, "salesPercentile": 49.8}, {"sangwonCode": 3110583, "sangwonName": "공덕래미안3차아파트", "gu": "마포구", "lat": 37.548805708899394, "lon": 126.95266378611491, "survivalProbability": 0.7373, "monthlyEstimateKRW": 302411934, "salesPercentile": 4.1}, {"sangwonCode": 3120058, "sangwonName": "구의사거리", "gu": "광진구", "lat": 37.544493709236626, "lon": 127.0879228233173, "survivalProbability": 0.7373, "monthlyEstimateKRW": 1226099085, "salesPercentile": 86.6}, {"sangwonCode": 3120053, "sangwonName": "건대입구역(건대)", "gu": "광진구", "lat": 37.54052361998077, "lon": 127.0694180102895, "survivalProbability": 0.7373, "monthlyEstimateKRW": 770462903, "salesPercentile": 70.3}, {"sangwonCode": 3120241, "sangwonName": "거여역", "gu": "송파구", "lat": 37.49283633341059, "lon": 127.1455437075945, "survivalProbability": 0.7373, "monthlyEstimateKRW": 512642503, "salesPercentile": 44.1}, {"sangwonCode": 3120034, "sangwonName": "중구청(퇴계로4가)", "gu": "중구", "lat": 37.56354649140835, "lon": 126.99809848175721, "survivalProbability": 0.7373, "monthlyEstimateKRW": 446852898, "salesPercentile": 32.2}, {"sangwonCode": 3120016, "sangwonName": "동대문역", "gu": "종로구", "lat": 37.571231452916095, "lon": 127.01137632245057, "survivalProbability": 0.7373, "monthlyEstimateKRW": 466461481, "salesPercentile": 37.3}, {"sangwonCode": 3110663, "sangwonName": "우장산롯데캐슬아파트앞", "gu": "강서구", "lat": 37.55417025454575, "lon": 126.84944809476413, "survivalProbability": 0.7373, "monthlyEstimateKRW": 1167576426, "salesPercentile": 85.2}, {"sangwonCode": 3130151, "sangwonName": "신도봉시장", "gu": "도봉구", "lat": 37.670270229972296, "lon": 127.04162120121192, "survivalProbability": 0.7373, "monthlyEstimateKRW": 991187474, "salesPercentile": 79.7}, {"sangwonCode": 3111043, "sangwonName": "마천공원", "gu": "송파구", "lat": 37.500756183807006, "lon": 127.14553646050463, "survivalProbability": 0.7373, "monthlyEstimateKRW": 432659441, "salesPercentile": 28.1}, {"sangwonCode": 3130168, "sangwonName": "연서시장", "gu": "은평구", "lat": 37.61966145751094, "lon": 126.92186592951714, "survivalProbability": 0.7373, "monthlyEstimateKRW": 837227017, "salesPercentile": 73.8}, {"sangwonCode": 3110095, "sangwonName": "한강진역 3번", "gu": "용산구", "lat": 37.537426541732394, "lon": 127.00224029314316, "survivalProbability": 0.7373, "monthlyEstimateKRW": 344098335, "salesPercentile": 9.6}, {"sangwonCode": 3130219, "sangwonName": "까치산시장", "gu": "강서구", "lat": 37.532651467965756, "lon": 126.84716070133189, "survivalProbability": 0.7373, "monthlyEstimateKRW": 861930082, "salesPercentile": 75.0}, {"sangwonCode": 3110066, "sangwonName": "서울역 15번", "gu": "용산구", "lat": 37.55314437161729, "lon": 126.96694307959059, "survivalProbability": 0.7373, "monthlyEstimateKRW": 719558392, "salesPercentile": 67.0}, {"sangwonCode": 3110057, "sangwonName": "황학코아루아파트", "gu": "중구", "lat": 37.56630135637733, "lon": 127.02278510211976, "survivalProbability": 0.7373, "monthlyEstimateKRW": 486231499, "salesPercentile": 40.1}, {"sangwonCode": 3110918, "sangwonName": "방배역 3번", "gu": "서초구", "lat": 37.48208668385183, "lon": 126.99357804332585, "survivalProbability": 0.7373, "monthlyEstimateKRW": 450467016, "salesPercentile": 33.3}, {"sangwonCode": 3110040, "sangwonName": "중구회현체육센터(정화예술대남산캠퍼스)", "gu": "중구", "lat": 37.55612994758037, "lon": 126.98211844625749, "survivalProbability": 0.7373, "monthlyEstimateKRW": 451917417, "salesPercentile": 33.7}, {"sangwonCode": 3110808, "sangwonName": "신길역 1번", "gu": "영등포구", "lat": 37.516609318608964, "lon": 126.91424776874355, "survivalProbability": 0.7373, "monthlyEstimateKRW": 293969386, "salesPercentile": 3.3}, {"sangwonCode": 3110866, "sangwonName": "난우중학교", "gu": "관악구", "lat": 37.46920403931831, "lon": 126.92250888426989, "survivalProbability": 0.7373, "monthlyEstimateKRW": 363979654, "salesPercentile": 13.3}, {"sangwonCode": 3110858, "sangwonName": "신대방역 1번", "gu": "관악구", "lat": 37.48696656212724, "lon": 126.91470002177657, "survivalProbability": 0.7373, "monthlyEstimateKRW": 231196330, "salesPercentile": 0.4}, {"sangwonCode": 3130199, "sangwonName": "신월3동 골목시장", "gu": "양천구", "lat": 37.53376667458731, "lon": 126.82614824040027, "survivalProbability": 0.7373, "monthlyEstimateKRW": 614552236, "salesPercentile": 58.6}, {"sangwonCode": 3130163, "sangwonName": "응암오거리상점가", "gu": "은평구", "lat": 37.589005588687364, "lon": 126.9157725618011, "survivalProbability": 0.7373, "monthlyEstimateKRW": 605015690, "salesPercentile": 57.3}, {"sangwonCode": 3110155, "sangwonName": "광진구청", "gu": "광진구", "lat": 37.53819282960434, "lon": 127.07928228984191, "survivalProbability": 0.7373, "monthlyEstimateKRW": 294530275, "salesPercentile": 3.5}, {"sangwonCode": 3110736, "sangwonName": "독산119안전센터", "gu": "금천구", "lat": 37.46757501512585, "lon": 126.90081805088234, "survivalProbability": 0.7373, "monthlyEstimateKRW": 369078035, "salesPercentile": 14.4}, {"sangwonCode": 3111039, "sangwonName": "벌말어린이공원", "gu": "송파구", "lat": 37.50217000650291, "lon": 127.13867447153532, "survivalProbability": 0.7373, "monthlyEstimateKRW": 428182438, "salesPercentile": 27.1}, {"sangwonCode": 3110259, "sangwonName": "사가정역 1번", "gu": "중랑구", "lat": 37.582264812341826, "lon": 127.08609919438236, "survivalProbability": 0.7373, "monthlyEstimateKRW": 508870054, "salesPercentile": 43.3}, {"sangwonCode": 3110386, "sangwonName": "연산군묘", "gu": "도봉구", "lat": 37.66094100470591, "lon": 127.02383399587633, "survivalProbability": 0.7373, "monthlyEstimateKRW": 270204879, "salesPercentile": 1.6}, {"sangwonCode": 3110624, "sangwonName": "목동문화체육센터", "gu": "양천구", "lat": 37.541230447765756, "lon": 126.87104084620819, "survivalProbability": 0.7373, "monthlyEstimateKRW": 414685946, "salesPercentile": 23.7}, {"sangwonCode": 3120121, "sangwonName": "까치산역", "gu": "강서구", "lat": 37.530165049640445, "lon": 126.84742598554176, "survivalProbability": 0.7373, "monthlyEstimateKRW": 454142511, "salesPercentile": 34.6}, {"sangwonCode": 3110530, "sangwonName": "아현역 1번", "gu": "서대문구", "lat": 37.557527752751184, "lon": 126.9536315870961, "survivalProbability": 0.7373, "monthlyEstimateKRW": 336841031, "salesPercentile": 8.7}, {"sangwonCode": 3111074, "sangwonName": "명일역 1번", "gu": "강동구", "lat": 37.55128181237798, "lon": 127.14018000099055, "survivalProbability": 0.7373, "monthlyEstimateKRW": 281264262, "salesPercentile": 2.1}, {"sangwonCode": 3110837, "sangwonName": "숭실대입구역 1번", "gu": "동작구", "lat": 37.49497111222602, "lon": 126.95345543447249, "survivalProbability": 0.7373, "monthlyEstimateKRW": 451820117, "salesPercentile": 33.5}, {"sangwonCode": 3110009, "sangwonName": "자하문터널", "gu": "종로구", "lat": 37.59507637869068, "lon": 126.96592808590958, "survivalProbability": 0.7373, "monthlyEstimateKRW": 317092186, "salesPercentile": 6.1}, {"sangwonCode": 3110478, "sangwonName": "응암1동주민센터", "gu": "은평구", "lat": 37.5998058991835, "lon": 126.92532920921035, "survivalProbability": 0.7373, "monthlyEstimateKRW": 320193852, "salesPercentile": 6.4}, {"sangwonCode": 3110449, "sangwonName": "증산역 3번", "gu": "은평구", "lat": 37.5834218710177, "lon": 126.90701596105264, "survivalProbability": 0.7373, "monthlyEstimateKRW": 998657750, "salesPercentile": 80.0}, {"sangwonCode": 3110440, "sangwonName": "상계3동4동주민센터", "gu": "노원구", "lat": 37.672112743973784, "lon": 127.08392455657341, "survivalProbability": 0.7373, "monthlyEstimateKRW": 505916495, "salesPercentile": 43.0}, {"sangwonCode": 3110418, "sangwonName": "광운대학교 남단", "gu": "노원구", "lat": 37.61777199035563, "lon": 127.05799308954444, "survivalProbability": 0.7373, "monthlyEstimateKRW": 265383814, "salesPercentile": 1.3}, {"sangwonCode": 3110190, "sangwonName": "고대앞사거리", "gu": "동대문구", "lat": 37.58501225661796, "lon": 127.03420318826822, "survivalProbability": 0.7373, "monthlyEstimateKRW": 272600987, "salesPercentile": 1.7}, {"sangwonCode": 3130058, "sangwonName": "이촌종합시장", "gu": "용산구", "lat": 37.52061117520384, "lon": 126.97476276716449, "survivalProbability": 0.7373, "monthlyEstimateKRW": 546557028, "salesPercentile": 49.3}, {"sangwonCode": 3111021, "sangwonName": "방이역 4번", "gu": "송파구", "lat": 37.51121564107836, "lon": 127.12279974688528, "survivalProbability": 0.7373, "monthlyEstimateKRW": 682019612, "salesPercentile": 63.7}, {"sangwonCode": 3110232, "sangwonName": "동대부고", "gu": "동대문구", "lat": 37.577299862320345, "lon": 127.07347096415802, "survivalProbability": 0.7373, "monthlyEstimateKRW": 469600874, "salesPercentile": 37.8}, {"sangwonCode": 3130327, "sangwonName": "평화시장(남평화시장, 제일평화시장, 신평화패션타운)", "gu": "중구", "lat": 37.56890689674102, "lon": 127.0112514558032, "survivalProbability": 0.7373, "monthlyEstimateKRW": 577515329, "salesPercentile": 53.1}, {"sangwonCode": 3110846, "sangwonName": "남성역 1번", "gu": "동작구", "lat": 37.48110151163349, "lon": 126.97230002266343, "survivalProbability": 0.7373, "monthlyEstimateKRW": 1153129751, "salesPercentile": 84.7}, {"sangwonCode": 3120215, "sangwonName": "포스코사거리", "gu": "강남구", "lat": 37.50682411890163, "lon": 127.05626720528876, "survivalProbability": 0.7373, "monthlyEstimateKRW": 1766615615, "salesPercentile": 96.2}, {"sangwonCode": 3111075, "sangwonName": "굽은다리역 2번", "gu": "강동구", "lat": 37.548667873482714, "lon": 127.14105777722531, "survivalProbability": 0.7373, "monthlyEstimateKRW": 424893087, "salesPercentile": 26.1}, {"sangwonCode": 3110291, "sangwonName": "한성대입구역 3번", "gu": "성북구", "lat": 37.58566550742506, "lon": 127.00995195817097, "survivalProbability": 0.7373, "monthlyEstimateKRW": 1000049151, "salesPercentile": 80.1}, {"sangwonCode": 3110701, "sangwonName": "고척동성당", "gu": "구로구", "lat": 37.505447814423974, "lon": 126.85975871674793, "survivalProbability": 0.7373, "monthlyEstimateKRW": 952416803, "salesPercentile": 78.3}, {"sangwonCode": 3110289, "sangwonName": "북한산보국문역 2번", "gu": "성북구", "lat": 37.60894733639276, "lon": 127.00694249312983, "survivalProbability": 0.7373, "monthlyEstimateKRW": 381691546, "salesPercentile": 16.3}, {"sangwonCode": 3110700, "sangwonName": "고척초등학교", "gu": "구로구", "lat": 37.501976069275166, "lon": 126.85735633995357, "survivalProbability": 0.7373, "monthlyEstimateKRW": 455271147, "salesPercentile": 34.8}, {"sangwonCode": 3110703, "sangwonName": "개봉역", "gu": "구로구", "lat": 37.495184430322844, "lon": 126.85897502647666, "survivalProbability": 0.7373, "monthlyEstimateKRW": 934525914, "salesPercentile": 77.6}, {"sangwonCode": 3110287, "sangwonName": "정릉3동주민센터", "gu": "성북구", "lat": 37.609343919599404, "lon": 127.00364681020984, "survivalProbability": 0.7373, "monthlyEstimateKRW": 358996709, "salesPercentile": 11.9}, {"sangwonCode": 3120213, "sangwonName": "삼성중앙역", "gu": "강남구", "lat": 37.51155556604917, "lon": 127.05374846991917, "survivalProbability": 0.7373, "monthlyEstimateKRW": 723865649, "salesPercentile": 67.2}, {"sangwonCode": 3111073, "sangwonName": "둔촌동역 1번(한산중학교)", "gu": "강동구", "lat": 37.53115405950385, "lon": 127.13970109005331, "survivalProbability": 0.7373, "monthlyEstimateKRW": 487239191, "salesPercentile": 40.3}, {"sangwonCode": 3110286, "sangwonName": "한성대입구역 5번", "gu": "성북구", "lat": 37.58981045467751, "lon": 127.00302311738922, "survivalProbability": 0.7373, "monthlyEstimateKRW": 523294106, "salesPercentile": 45.4}, {"sangwonCode": 3120217, "sangwonName": "대치사거리", "gu": "강남구", "lat": 37.503038855171134, "lon": 127.05841315411669, "survivalProbability": 0.7373, "monthlyEstimateKRW": 850500535, "salesPercentile": 74.7}, {"sangwonCode": 3110295, "sangwonName": "정릉우체국", "gu": "성북구", "lat": 37.606910650147945, "lon": 127.01242366605265, "survivalProbability": 0.7373, "monthlyEstimateKRW": 347122757, "salesPercentile": 10.3}, {"sangwonCode": 3110699, "sangwonName": "덕의초등학교", "gu": "구로구", "lat": 37.506136184220836, "lon": 126.85527871714595, "survivalProbability": 0.7373, "monthlyEstimateKRW": 438454987, "salesPercentile": 30.3}, {"sangwonCode": 3111077, "sangwonName": "길동주민센터(강동도서관)", "gu": "강동구", "lat": 37.537195500867774, "lon": 127.14326513418865, "survivalProbability": 0.7373, "monthlyEstimateKRW": 1929270849, "salesPercentile": 97.9}, {"sangwonCode": 3120212, "sangwonName": "한티역", "gu": "강남구", "lat": 37.49742786864853, "lon": 127.05360263990124, "survivalProbability": 0.7373, "monthlyEstimateKRW": 1520029111, "salesPercentile": 93.5}, {"sangwonCode": 3110282, "sangwonName": "국민대학교앞", "gu": "성북구", "lat": 37.607866347041465, "lon": 126.99879952100844, "survivalProbability": 0.7373, "monthlyEstimateKRW": 360631262, "salesPercentile": 12.8}, {"sangwonCode": 3110296, "sangwonName": "성신여대입구역 4번", "gu": "성북구", "lat": 37.59370183429791, "lon": 127.01493520393063, "survivalProbability": 0.7373, "monthlyEstimateKRW": 371829393, "salesPercentile": 14.7}, {"sangwonCode": 3111072, "sangwonName": "굽은다리역 1번(십자성마을)", "gu": "강동구", "lat": 37.54295769170239, "lon": 127.1392478634447, "survivalProbability": 0.7373, "monthlyEstimateKRW": 455331444, "salesPercentile": 34.9}, {"sangwonCode": 3120218, "sangwonName": "코엑스", "gu": "강남구", "lat": 37.51216568743434, "lon": 127.05911022474436, "survivalProbability": 0.7373, "monthlyEstimateKRW": 905554725, "salesPercentile": 76.8}, {"sangwonCode": 3110698, "sangwonName": "개웅초등학교(개웅중학교)", "gu": "구로구", "lat": 37.48845594025623, "lon": 126.85324361249401, "survivalProbability": 0.7373, "monthlyEstimateKRW": 470231847, "salesPercentile": 37.9}, {"sangwonCode": 3110706, "sangwonName": "그라운드 고척", "gu": "구로구", "lat": 37.501246978346835, "lon": 126.86565863686842, "survivalProbability": 0.7373, "monthlyEstimateKRW": 424158832, "salesPercentile": 25.7}, {"sangwonCode": 3111070, "sangwonName": "천호초등학교", "gu": "강동구", "lat": 37.547410762366354, "lon": 127.13742293636366, "survivalProbability": 0.7373, "monthlyEstimateKRW": 378354627, "salesPercentile": 15.9}, {"sangwonCode": 3110278, "sangwonName": "망우본동주민센터", "gu": "중랑구", "lat": 37.60150500683647, "lon": 127.10352681954076, "survivalProbability": 0.7373, "monthlyEstimateKRW": 488305331, "salesPercentile": 40.6}, {"sangwonCode": 3120219, "sangwonName": "은마아파트", "gu": "강남구", "lat": 37.49884807441995, "lon": 127.06060379417535, "survivalProbability": 0.7373, "monthlyEstimateKRW": 1111243782, "salesPercentile": 83.2}, {"sangwonCode": 3110697, "sangwonName": "개봉3동주민센터", "gu": "구로구", "lat": 37.484402313249085, "lon": 126.85397516427814, "survivalProbability": 0.7373, "monthlyEstimateKRW": 321746553, "salesPercentile": 6.8}, {"sangwonCode": 3110299, "sangwonName": "정릉역 1번", "gu": "성북구", "lat": 37.60190042877038, "lon": 127.01798309800381, "survivalProbability": 0.7373, "monthlyEstimateKRW": 740665869, "salesPercentile": 68.4}, {"sangwonCode": 3110277, "sangwonName": "러스크서울병원", "gu": "중랑구", "lat": 37.598874850037376, "lon": 127.10268520613624, "survivalProbability": 0.7373, "monthlyEstimateKRW": 384127299, "salesPercentile": 16.5}, {"sangwonCode": 3110707, "sangwonName": "구로창업지원센터", "gu": "구로구", "lat": 37.50981240722824, "lon": 126.87946463909495, "survivalProbability": 0.7373, "monthlyEstimateKRW": 437395632, "salesPercentile": 29.9}, {"sangwonCode": 3111078, "sangwonName": "굽은다리역 4번", "gu": "강동구", "lat": 37.54284297310578, "lon": 127.14473562941309, "survivalProbability": 0.7373, "monthlyEstimateKRW": 533357268, "salesPercentile": 46.7}, {"sangwonCode": 3110696, "sangwonName": "오류동역 1번", "gu": "구로구", "lat": 37.49400453363189, "lon": 126.85195494682537, "survivalProbability": 0.7373, "monthlyEstimateKRW": 441977121, "salesPercentile": 31.2}, {"sangwonCode": 3120210, "sangwonName": "선릉역", "gu": "강남구", "lat": 37.50461073634166, "lon": 127.04935534409961, "survivalProbability": 0.7373, "monthlyEstimateKRW": 1922212484, "salesPercentile": 97.8}, {"sangwonCode": 3120220, "sangwonName": "대치역", "gu": "강남구", "lat": 37.494188996315316, "lon": 127.06228493383824, "survivalProbability": 0.7373, "monthlyEstimateKRW": 1296466107, "salesPercentile": 88.7}, {"sangwonCode": 3111067, "sangwonName": "강동구립성내도서관", "gu": "강동구", "lat": 37.531988464913475, "lon": 127.13498479934741, "survivalProbability": 0.7373, "monthlyEstimateKRW": 335301806, "salesPercentile": 8.2}, {"sangwonCode": 3110708, "sangwonName": "화원어린이공원", "gu": "구로구", "lat": 37.49791195977646, "lon": 126.88127053475066, "survivalProbability": 0.7373, "monthlyEstimateKRW": 453937674, "salesPercentile": 34.1}, {"sangwonCode": 3110300, "sangwonName": "삼선동주민센터", "gu": "성북구", "lat": 37.58927728633153, "lon": 127.01956520434038, "survivalProbability": 0.7373, "monthlyEstimateKRW": 599566407, "salesPercentile": 56.4}, {"sangwonCode": 3110709, "sangwonName": "구로119안전센터", "gu": "구로구", "lat": 37.49392980227567, "lon": 126.88155953983662, "survivalProbability": 0.7373, "monthlyEstimateKRW": 889492354, "salesPercentile": 76.3}, {"sangwonCode": 3110274, "sangwonName": "서일대학교", "gu": "중랑구", "lat": 37.58956195338933, "lon": 127.09875482708568, "survivalProbability": 0.7373, "monthlyEstimateKRW": 1264634215, "salesPercentile": 87.8}, {"sangwonCode": 3120221, "sangwonName": "봉은사역", "gu": "강남구", "lat": 37.51446155948791, "lon": 127.06239226670147, "survivalProbability": 0.7373, "monthlyEstimateKRW": 1034605141, "salesPercentile": 81.0}, {"sangwonCode": 3120209, "sangwonName": "강남구청(청담역_8번, 강남세무서)", "gu": "강남구", "lat": 37.51874742762321, "lon": 127.04951170686684, "survivalProbability": 0.7373, "monthlyEstimateKRW": 1148517454, "salesPercentile": 84.5}, {"sangwonCode": 3111066, "sangwonName": "암사동성당(효정하나플러스아파트)", "gu": "강동구", "lat": 37.54923425244234, "lon": 127.1344048084421, "survivalProbability": 0.7373, "monthlyEstimateKRW": 419567912, "salesPercentile": 24.8}, {"sangwonCode": 3110301, "sangwonName": "성신여대입구역 7번", "gu": "성북구", "lat": 37.59585472017824, "lon": 127.01836664037195, "survivalProbability": 0.7373, "monthlyEstimateKRW": 565227289, "salesPercentile": 51.4}, {"sangwonCode": 3111079, "sangwonName": "둔촌고등학교(둔촌중학교)", "gu": "강동구", "lat": 37.53076044252061, "lon": 127.14483672836192, "survivalProbability": 0.7373, "monthlyEstimateKRW": 273104795, "salesPercentile": 1.8}, {"sangwonCode": 3110302, "sangwonName": "보문역 8번", "gu": "성북구", "lat": 37.58356504559915, "lon": 127.01923538316017, "survivalProbability": 0.7373, "monthlyEstimateKRW": 395177320, "salesPercentile": 19.5}, {"sangwonCode": 3111065, "sangwonName": "천일초등학교", "gu": "강동구", "lat": 37.54145908808072, "lon": 127.13400613278739, "survivalProbability": 0.7373, "monthlyEstimateKRW": 362444638, "salesPercentile": 13.2}, {"sangwonCode": 3110695, "sangwonName": "개봉1동주민센터", "gu": "구로구", "lat": 37.50051860479138, "lon": 126.8517950693802, "survivalProbability": 0.7373, "monthlyEstimateKRW": 1300305352, "salesPercentile": 88.9}, {"sangwonCode": 3110273, "sangwonName": "장스여성병원", "gu": "중랑구", "lat": 37.600581092452465, "lon": 127.09873541769939, "survivalProbability": 0.7373, "monthlyEstimateKRW": 359503387, "salesPercentile": 12.3}, {"sangwonCode": 3120222, "sangwonName": "삼성역", "gu": "강남구", "lat": 37.508667696206736, "lon": 127.06315654228577, "survivalProbability": 0.7373, "monthlyEstimateKRW": 1463703325, "salesPercentile": 92.2}, {"sangwonCode": 3110710, "sangwonName": "남구로역 3번", "gu": "구로구", "lat": 37.486886294270526, "lon": 126.88394512624056, "survivalProbability": 0.7373, "monthlyEstimateKRW": 1532963231, "salesPercentile": 93.6}, {"sangwonCode": 3111080, "sangwonName": "굽은다리역 3번", "gu": "강동구", "lat": 37.54799505551849, "lon": 127.14605826969836, "survivalProbability": 0.7373, "monthlyEstimateKRW": 311103769, "salesPercentile": 5.2}, {"sangwonCode": 3120208, "sangwonName": "청담사거리(청담동명품거리)", "gu": "강남구", "lat": 37.524829939190084, "lon": 127.04770569306329, "survivalProbability": 0.7373, "monthlyEstimateKRW": 997479279, "salesPercentile": 79.9}, {"sangwonCode": 3110303, "sangwonName": "성신여대입구역 1번", "gu": "성북구", "lat": 37.59415138795524, "lon": 127.02110643481099, "survivalProbability": 0.7373, "monthlyEstimateKRW": 318733888, "salesPercentile": 6.3}, {"sangwonCode": 3120223, "sangwonName": "휘문고교사거리", "gu": "강남구", "lat": 37.50434150525624, "lon": 127.06566363237532, "survivalProbability": 0.7373, "monthlyEstimateKRW": 481138176, "salesPercentile": 39.3}, {"sangwonCode": 3110272, "sangwonName": "신내1동주민센터", "gu": "중랑구", "lat": 37.60615847906632, "lon": 127.09842568909319, "survivalProbability": 0.7373, "monthlyEstimateKRW": 564654900, "salesPercentile": 51.3}, {"sangwonCode": 3111083, "sangwonName": "GS강동자이아파트", "gu": "강동구", "lat": 37.538289959838245, "lon": 127.14713686672866, "survivalProbability": 0.7373, "monthlyEstimateKRW": 843232175, "salesPercentile": 74.3}, {"sangwonCode": 3111063, "sangwonName": "강동구립 천호도서관", "gu": "강동구", "lat": 37.54009151114284, "lon": 127.13228380422073, "survivalProbability": 0.7373, "monthlyEstimateKRW": 510721432, "salesPercentile": 43.7}, {"sangwonCode": 3110305, "sangwonName": "보문역 5번", "gu": "성북구", "lat": 37.58440245928824, "lon": 127.02214528008177, "survivalProbability": 0.7373, "monthlyEstimateKRW": 947633330, "salesPercentile": 78.1}, {"sangwonCode": 3120224, "sangwonName": "수서역", "gu": "강남구", "lat": 37.487781357677065, "lon": 127.10303046246761, "survivalProbability": 0.7373, "monthlyEstimateKRW": 434739100, "salesPercentile": 28.6}, {"sangwonCode": 3120207, "sangwonName": "선정릉역", "gu": "강남구", "lat": 37.511468934172726, "lon": 127.04549160322158, "survivalProbability": 0.7373, "monthlyEstimateKRW": 705978928, "salesPercentile": 65.6}, {"sangwonCode": 3110270, "sangwonName": "혜원여고", "gu": "중랑구", "lat": 37.59177960411285, "lon": 127.09729711212769, "survivalProbability": 0.7373, "monthlyEstimateKRW": 461610736, "salesPercentile": 36.3}, {"sangwonCode": 3110694, "sangwonName": "세곡초등학교", "gu": "구로구", "lat": 37.50475669640574, "lon": 126.84736461127714, "survivalProbability": 0.7373, "monthlyEstimateKRW": 941848320, "salesPercentile": 78.0}, {"sangwonCode": 3110269, "sangwonName": "용마문화복지센터", "gu": "중랑구", "lat": 37.5882316079015, "lon": 127.09494877873335, "survivalProbability": 0.7373, "monthlyEstimateKRW": 435024547, "salesPercentile": 29.0}, {"sangwonCode": 3110711, "sangwonName": "구로초등학교", "gu": "구로구", "lat": 37.49662631952319, "lon": 126.88408837350633, "survivalProbability": 0.7373, "monthlyEstimateKRW": 664546571, "salesPercentile": 62.7}, {"sangwonCode": 3110307, "sangwonName": "길음역 7번", "gu": "성북구", "lat": 37.60415200470216, "lon": 127.02314770784841, "survivalProbability": 0.7373, "monthlyEstimateKRW": 309420212, "salesPercentile": 5.0}, {"sangwonCode": 3110692, "sangwonName": "큰굴다리", "gu": "구로구", "lat": 37.49959252924015, "lon": 126.84627816117745, "survivalProbability": 0.7373, "monthlyEstimateKRW": 424718752, "salesPercentile": 25.9}, {"sangwonCode": 3110268, "sangwonName": "망우3동주민센터", "gu": "중랑구", "lat": 37.591844991057506, "lon": 127.09444384127862, "survivalProbability": 0.7373, "monthlyEstimateKRW": 450200774, "salesPercentile": 33.1}, {"sangwonCode": 3111085, "sangwonName": "묘곡초등학교(고덕아이파크아파트)", "gu": "강동구", "lat": 37.56094142583823, "lon": 127.1539043851388, "survivalProbability": 0.7373, "monthlyEstimateKRW": 457616604, "salesPercentile": 35.3}, {"sangwonCode": 3120206, "sangwonName": "개나리아파트", "gu": "강남구", "lat": 37.49725157451181, "lon": 127.04415987749276, "survivalProbability": 0.7373, "monthlyEstimateKRW": 497006235, "salesPercentile": 41.7}, {"sangwonCode": 3110308, "sangwonName": "길음역 8번", "gu": "성북구", "lat": 37.607269174073934, "lon": 127.02441709427482, "survivalProbability": 0.7373, "monthlyEstimateKRW": 483964168, "salesPercentile": 39.8}, {"sangwonCode": 3120225, "sangwonName": "잠실새내역(신천)", "gu": "송파구", "lat": 37.51048475437836, "lon": 127.0825782728224, "survivalProbability": 0.7373, "monthlyEstimateKRW": 2165385612, "salesPercentile": 99.0}, {"sangwonCode": 3110267, "sangwonName": "망우역 2번", "gu": "중랑구", "lat": 37.60077772897528, "lon": 127.08941586511447, "survivalProbability": 0.7373, "monthlyEstimateKRW": 454067574, "salesPercentile": 34.5}, {"sangwonCode": 3111061, "sangwonName": "암사역 1번", "gu": "강동구", "lat": 37.55185075538313, "lon": 127.13119554025, "survivalProbability": 0.7373, "monthlyEstimateKRW": 458267253, "salesPercentile": 35.5}, {"sangwonCode": 3110691, "sangwonName": "개봉중학교", "gu": "구로구", "lat": 37.50249143401964, "lon": 126.84449665369102, "survivalProbability": 0.7373, "monthlyEstimateKRW": 585505502, "salesPercentile": 53.9}, {"sangwonCode": 3110312, "sangwonName": "안암역 2번", "gu": "성북구", "lat": 37.58868967882518, "lon": 127.0290871611702, "survivalProbability": 0.7373, "monthlyEstimateKRW": 408063505, "salesPercentile": 21.7}, {"sangwonCode": 3120205, "sangwonName": "매봉역", "gu": "강남구", "lat": 37.48435825746537, "lon": 127.04389223582503, "survivalProbability": 0.7373, "monthlyEstimateKRW": 602787919, "salesPercentile": 57.0}, {"sangwonCode": 3110712, "sangwonName": "남구로역 5번", "gu": "구로구", "lat": 37.487447465830186, "lon": 126.88656749689855, "survivalProbability": 0.7373, "monthlyEstimateKRW": 831836233, "salesPercentile": 73.5}, {"sangwonCode": 3110266, "sangwonName": "면목동우체국", "gu": "중랑구", "lat": 37.5831706467708, "lon": 127.09163646470414, "survivalProbability": 0.7373, "monthlyEstimateKRW": 543039886, "salesPercentile": 48.4}, {"sangwonCode": 3111086, "sangwonName": "한영중고", "gu": "강동구", "lat": 37.5479481533716, "lon": 127.15459058686204, "survivalProbability": 0.7373, "monthlyEstimateKRW": 367475408, "salesPercentile": 14.1}, {"sangwonCode": 3110313, "sangwonName": "안암역 3번", "gu": "성북구", "lat": 37.58398634417268, "lon": 127.02969670042593, "survivalProbability": 0.7373, "monthlyEstimateKRW": 370913231, "salesPercentile": 14.6}, {"sangwonCode": 3120226, "sangwonName": "석촌고분역", "gu": "송파구", "lat": 37.5033197760243, "lon": 127.09704648858848, "survivalProbability": 0.7373, "monthlyEstimateKRW": 712600304, "salesPercentile": 66.3}, {"sangwonCode": 3120204, "sangwonName": "르네상스호텔사거리", "gu": "강남구", "lat": 37.50309058777553, "lon": 127.04281749442562, "survivalProbability": 0.7373, "monthlyEstimateKRW": 794348511, "salesPercentile": 71.6}, {"sangwonCode": 3110265, "sangwonName": "망우역 1번", "gu": "중랑구", "lat": 37.59935166722568, "lon": 127.0926528164819, "survivalProbability": 0.7373, "monthlyEstimateKRW": 348437273, "salesPercentile": 10.6}, {"sangwonCode": 3111060, "sangwonName": "암사역 2번(서울강동초등학교)", "gu": "강동구", "lat": 37.54699551295604, "lon": 127.13016858602187, "survivalProbability": 0.7373, "monthlyEstimateKRW": 600724606, "salesPercentile": 56.7}, {"sangwonCode": 3111087, "sangwonName": "고덕중학교(고덕2동주민센터)", "gu": "강동구", "lat": 37.56143419088499, "lon": 127.16269966363117, "survivalProbability": 0.7373, "monthlyEstimateKRW": 264217327, "salesPercentile": 1.1}, {"sangwonCode": 3110314, "sangwonName": "종암경찰서", "gu": "성북구", "lat": 37.60114052292245, "lon": 127.03238736566581, "survivalProbability": 0.7373, "monthlyEstimateKRW": 344288369, "salesPercentile": 9.7}, {"sangwonCode": 3120227, "sangwonName": "잠실역", "gu": "송파구", "lat": 37.51398412500385, "lon": 127.10126801274058, "survivalProbability": 0.7373, "monthlyEstimateKRW": 542926468, "salesPercentile": 48.2}, {"sangwonCode": 3110264, "sangwonName": "면목역 2번", "gu": "중랑구", "lat": 37.58726118530816, "lon": 127.09159619054651, "survivalProbability": 0.7373, "monthlyEstimateKRW": 1035643768, "salesPercentile": 81.1}, {"sangwonCode": 3120203, "sangwonName": "강남구청역", "gu": "강남구", "lat": 37.51624600772093, "lon": 127.04068715258765, "survivalProbability": 0.7373, "monthlyEstimateKRW": 1507310694, "salesPercentile": 93.3}, {"sangwonCode": 3110690, "sangwonName": "오류2동버들시장", "gu": "구로구", "lat": 37.49227211395636, "lon": 126.84304783057685, "survivalProbability": 0.7373, "monthlyEstimateKRW": 653651579, "salesPercentile": 62.1}, {"sangwonCode": 3110713, "sangwonName": "구로보건소", "gu": "구로구", "lat": 37.50126053635339, "lon": 126.88723646192494, "survivalProbability": 0.7373, "monthlyEstimateKRW": 1363658922, "salesPercentile": 90.3}, {"sangwonCode": 3110263, "sangwonName": "면목역 1번", "gu": "중랑구", "lat": 37.59178551911678, "lon": 127.08983537331045, "survivalProbability": 0.7373, "monthlyEstimateKRW": 819460461, "salesPercentile": 72.7}, {"sangwonCode": 3110315, "sangwonName": "종암아이파크2차", "gu": "성북구", "lat": 37.59732899315395, "lon": 127.03359734683603, "survivalProbability": 0.7373, "monthlyEstimateKRW": 544457087, "salesPercentile": 48.8}, {"sangwonCode": 3120228, "sangwonName": "석촌역(석촌호수)", "gu": "송파구", "lat": 37.50602362134798, "lon": 127.1065389661683, "survivalProbability": 0.7373, "monthlyEstimateKRW": 762846209, "salesPercentile": 70.1}, {"sangwonCode": 3111089, "sangwonName": "상일여고(상일초등학교)", "gu": "강동구", "lat": 37.54811423179494, "lon": 127.17135024456684, "survivalProbability": 0.7373, "monthlyEstimateKRW": 414484881, "salesPercentile": 23.6}, {"sangwonCode": 3110262, "sangwonName": "상봉역 3번", "gu": "중랑구", "lat": 37.5943810926847, "lon": 127.08888734246219, "survivalProbability": 0.7373, "monthlyEstimateKRW": 544170574, "salesPercentile": 48.7}, {"sangwonCode": 3111059, "sangwonName": "강동역 4번(강풀만화거리)", "gu": "강동구", "lat": 37.533876788109865, "lon": 127.13032680682069, "survivalProbability": 0.7373, "monthlyEstimateKRW": 954791843, "salesPercentile": 78.4}, {"sangwonCode": 3120202, "sangwonName": "압구정로데오역(압구정로데오)", "gu": "강남구", "lat": 37.526769907891094, "lon": 127.04013853060529, "survivalProbability": 0.7373, "monthlyEstimateKRW": 580629334, "salesPercentile": 53.4}, {"sangwonCode": 3110316, "sangwonName": "숭곡초등학교", "gu": "성북구", "lat": 37.60814966101142, "lon": 127.03438366024915, "survivalProbability": 0.7373, "monthlyEstimateKRW": 832272480, "salesPercentile": 73.6}, {"sangwonCode": 3110689, "sangwonName": "오류동역 3번", "gu": "구로구", "lat": 37.49760566370818, "lon": 126.84274264528946, "survivalProbability": 0.7373, "monthlyEstimateKRW": 569320831, "salesPercentile": 51.7}, {"sangwonCode": 3120229, "sangwonName": "방이동먹자골목", "gu": "송파구", "lat": 37.51438248056646, "lon": 127.10923158441152, "survivalProbability": 0.7373, "monthlyEstimateKRW": 1339491812, "salesPercentile": 90.0}, {"sangwonCode": 3110261, "sangwonName": "사가정역 4번", "gu": "중랑구", "lat": 37.57810062863918, "lon": 127.08825666448381, "survivalProbability": 0.7373, "monthlyEstimateKRW": 593172444, "salesPercentile": 54.8}, {"sangwonCode": 3110688, "sangwonName": "오류지구대", "gu": "구로구", "lat": 37.49536562485887, "lon": 126.83863113866649, "survivalProbability": 0.7373, "monthlyEstimateKRW": 435515227, "salesPercentile": 29.3}, {"sangwonCode": 3120201, "sangwonName": "도곡1동", "gu": "강남구", "lat": 37.49256784501679, "lon": 127.03992798739, "survivalProbability": 0.7373, "monthlyEstimateKRW": 1055443193, "salesPercentile": 81.7}, {"sangwonCode": 3110260, "sangwonName": "면목역 3번", "gu": "중랑구", "lat": 37.58958078442301, "lon": 127.08622084620522, "survivalProbability": 0.7373, "monthlyEstimateKRW": 571598345, "salesPercentile": 52.1}, {"sangwonCode": 3111057, "sangwonName": "천호공원(해공체육문화센터)", "gu": "강동구", "lat": 37.54332876710307, "lon": 127.12987932321663, "survivalProbability": 0.7373, "monthlyEstimateKRW": 567936111, "salesPercentile": 51.6}, {"sangwonCode": 3110317, "sangwonName": "종암중학교", "gu": "성북구", "lat": 37.59327436938832, "lon": 127.03416167700084, "survivalProbability": 0.7373, "monthlyEstimateKRW": 284178466, "salesPercentile": 2.6}, {"sangwonCode": 3110318, "sangwonName": "KT월곡지사", "gu": "성북구", "lat": 37.60366255226508, "lon": 127.03499312523303, "survivalProbability": 0.7373, "monthlyEstimateKRW": 772914268, "salesPercentile": 70.5}, {"sangwonCode": 3111056, "sangwonName": "천호태영아파트", "gu": "강동구", "lat": 37.53774374681216, "lon": 127.12880605851154, "survivalProbability": 0.7373, "monthlyEstimateKRW": 281530818, "salesPercentile": 2.2}, {"sangwonCode": 3110714, "sangwonName": "구로4동주민센터", "gu": "구로구", "lat": 37.49132429193936, "lon": 126.88919631652536, "survivalProbability": 0.7373, "monthlyEstimateKRW": 738740870, "salesPercentile": 68.2}, {"sangwonCode": 3110686, "sangwonName": "수궁동주민센터", "gu": "구로구", "lat": 37.494638620747644, "lon": 126.83415467880374, "survivalProbability": 0.7373, "monthlyEstimateKRW": 444488096, "salesPercentile": 31.6}, {"sangwonCode": 3110319, "sangwonName": "종암동주민센터", "gu": "성북구", "lat": 37.59923839992779, "lon": 127.03595359013545, "survivalProbability": 0.7373, "monthlyEstimateKRW": 697803086, "salesPercentile": 64.8}, {"sangwonCode": 3120231, "sangwonName": "가락시장", "gu": "송파구", "lat": 37.49354890241443, "lon": 127.11173422450942, "survivalProbability": 0.7373, "monthlyEstimateKRW": 2205729258, "salesPercentile": 99.3}, {"sangwonCode": 3120001, "sangwonName": "서대문역", "gu": "종로구", "lat": 37.566677102939934, "lon": 126.96608817274021, "survivalProbability": 0.7373, "monthlyEstimateKRW": 614480638, "salesPercentile": 58.5}, {"sangwonCode": 3110258, "sangwonName": "면동초등학교", "gu": "중랑구", "lat": 37.58630144712347, "lon": 127.08584343751289, "survivalProbability": 0.7373, "monthlyEstimateKRW": 708208338, "salesPercentile": 65.7}, {"sangwonCode": 3110320, "sangwonName": "KB국민은행 종암동지점", "gu": "성북구", "lat": 37.59493135476554, "lon": 127.03694796929915, "survivalProbability": 0.7373, "monthlyEstimateKRW": 477662925, "salesPercentile": 38.7}, {"sangwonCode": 3110683, "sangwonName": "오류고등학교", "gu": "구로구", "lat": 37.49882785373005, "lon": 126.82755240000924, "survivalProbability": 0.7373, "monthlyEstimateKRW": 385235255, "salesPercentile": 16.9}, {"sangwonCode": 3110322, "sangwonName": "장위1동주민센터", "gu": "성북구", "lat": 37.61519300306757, "lon": 127.04179435821293, "survivalProbability": 0.7373, "monthlyEstimateKRW": 426875171, "salesPercentile": 26.9}, {"sangwonCode": 3120233, "sangwonName": "몽촌토성역", "gu": "송파구", "lat": 37.51596426713219, "lon": 127.11345302908573, "survivalProbability": 0.7373, "monthlyEstimateKRW": 499821164, "salesPercentile": 41.9}, {"sangwonCode": 3110256, "sangwonName": "면목2동체육관", "gu": "중랑구", "lat": 37.589871676851374, "lon": 127.0826206130532, "survivalProbability": 0.7373, "monthlyEstimateKRW": 1129729274, "salesPercentile": 83.6}, {"sangwonCode": 3110680, "sangwonName": "온수역 5번(온수산업단지)", "gu": "구로구", "lat": 37.49311994948703, "lon": 126.8185078878857, "survivalProbability": 0.7373, "monthlyEstimateKRW": 612054164, "salesPercentile": 58.3}, {"sangwonCode": 3120198, "sangwonName": "구역삼세무서", "gu": "강남구", "lat": 37.49553304713569, "lon": 127.03720426859347, "survivalProbability": 0.7373, "monthlyEstimateKRW": 1536871206, "salesPercentile": 94.0}, {"sangwonCode": 3110715, "sangwonName": "구로구민회관", "gu": "구로구", "lat": 37.497252236455466, "lon": 126.88847512035333, "survivalProbability": 0.7373, "monthlyEstimateKRW": 323855902, "salesPercentile": 7.1}, {"sangwonCode": 3111052, "sangwonName": "암사역 3번(천호동자전거거리)", "gu": "강동구", "lat": 37.54790198936116, "lon": 127.12510051019554, "survivalProbability": 0.7373, "monthlyEstimateKRW": 436449954, "salesPercentile": 29.6}, {"sangwonCode": 3110325, "sangwonName": "장곡초등학교", "gu": "성북구", "lat": 37.6169032997047, "lon": 127.04604280668192, "survivalProbability": 0.7373, "monthlyEstimateKRW": 547508691, "salesPercentile": 49.5}, {"sangwonCode": 3120234, "sangwonName": "가락시장역", "gu": "송파구", "lat": 37.494695372813744, "lon": 127.11872437303792, "survivalProbability": 0.7373, "monthlyEstimateKRW": 609439332, "salesPercentile": 57.8}, {"sangwonCode": 3120002, "sangwonName": "서촌(경복궁역)", "gu": "종로구", "lat": 37.579283529870374, "lon": 126.97182217376677, "survivalProbability": 0.7373, "monthlyEstimateKRW": 703886957, "salesPercentile": 65.4}, {"sangwonCode": 3110677, "sangwonName": "등촌역 1번", "gu": "강서구", "lat": 37.55366734475919, "lon": 126.86575698649337, "survivalProbability": 0.7373, "monthlyEstimateKRW": 389076495, "salesPercentile": 18.0}, {"sangwonCode": 3110255, "sangwonName": "상봉역 4번", "gu": "중랑구", "lat": 37.593691768235416, "lon": 127.0827833599205, "survivalProbability": 0.7373, "monthlyEstimateKRW": 839683085, "salesPercentile": 74.1}, {"sangwonCode": 3110327, "sangwonName": "상월곡역 2번", "gu": "성북구", "lat": 37.60873878305574, "lon": 127.049877085475, "survivalProbability": 0.7373, "monthlyEstimateKRW": 757031629, "salesPercentile": 69.4}, {"sangwonCode": 3111051, "sangwonName": "천호역 6번", "gu": "강동구", "lat": 37.53472111071503, "lon": 127.1243996374976, "survivalProbability": 0.7373, "monthlyEstimateKRW": 480533585, "salesPercentile": 39.0}, {"sangwonCode": 3120235, "sangwonName": "문정역", "gu": "송파구", "lat": 37.48551288001509, "lon": 127.11994227871679, "survivalProbability": 0.7373, "monthlyEstimateKRW": 1583845426, "salesPercentile": 94.5}, {"sangwonCode": 3120197, "sangwonName": "역삼역", "gu": "강남구", "lat": 37.500398869563554, "lon": 127.03595138126002, "survivalProbability": 0.7373, "monthlyEstimateKRW": 2313326334, "salesPercentile": 100.0}, {"sangwonCode": 3110254, "sangwonName": "오거리공원", "gu": "중랑구", "lat": 37.57668988738031, "lon": 127.08299094516109, "survivalProbability": 0.7373, "monthlyEstimateKRW": 762560244, "salesPercentile": 69.9}, {"sangwonCode": 3110329, "sangwonName": "우리은행체육관", "gu": "성북구", "lat": 37.61627862322277, "lon": 127.05316682029753, "survivalProbability": 0.7373, "monthlyEstimateKRW": 345673614, "salesPercentile": 10.1}, {"sangwonCode": 3110675, "sangwonName": "화곡4동주민센터", "gu": "강서구", "lat": 37.53623598406385, "lon": 126.86053834758106, "survivalProbability": 0.7373, "monthlyEstimateKRW": 576033163, "salesPercentile": 52.9}, {"sangwonCode": 3110330, "sangwonName": "돌곶이역 1번", "gu": "성북구", "lat": 37.61062895729644, "lon": 127.05419343609921, "survivalProbability": 0.7373, "monthlyEstimateKRW": 504278018, "salesPercentile": 42.8}, {"sangwonCode": 3110253, "sangwonName": "중곡초등학교", "gu": "중랑구", "lat": 37.57314927575237, "lon": 127.08256817561062, "survivalProbability": 0.7373, "monthlyEstimateKRW": 679448643, "salesPercentile": 63.6}, {"sangwonCode": 3110717, "sangwonName": "남구로역 2번", "gu": "구로구", "lat": 37.48428725232738, "lon": 126.88901449779476, "survivalProbability": 0.7373, "monthlyEstimateKRW": 2207365816, "salesPercentile": 99.4}, {"sangwonCode": 3120003, "sangwonName": "광화문역", "gu": "종로구", "lat": 37.57196808426292, "lon": 126.97459828971189, "survivalProbability": 0.7373, "monthlyEstimateKRW": 1435725237, "salesPercentile": 91.7}, {"sangwonCode": 3110331, "sangwonName": "돌곶이역 8번", "gu": "성북구", "lat": 37.6084019827491, "lon": 127.05743087131309, "survivalProbability": 0.7373, "monthlyEstimateKRW": 509390306, "salesPercentile": 43.6}, {"sangwonCode": 3120196, "sangwonName": "서울세관", "gu": "강남구", "lat": 37.515328702568155, "lon": 127.03534773317885, "survivalProbability": 0.7373, "monthlyEstimateKRW": 574724123, "salesPercentile": 52.6}, {"sangwonCode": 3120236, "sangwonName": "장지역(가든파이브)", "gu": "송파구", "lat": 37.47804006486017, "lon": 127.12329941653981, "survivalProbability": 0.7373, "monthlyEstimateKRW": 1802967604, "salesPercentile": 96.5}, {"sangwonCode": 3110252, "sangwonName": "장안제일시장", "gu": "중랑구", "lat": 37.58527730400473, "lon": 127.0816305342528, "survivalProbability": 0.7373, "monthlyEstimateKRW": 531044963, "salesPercentile": 46.4}, {"sangwonCode": 3111048, "sangwonName": "천호역 1번(천호문구완구거리)", "gu": "강동구", "lat": 37.54091418243181, "lon": 127.12132089509707, "survivalProbability": 0.7373, "monthlyEstimateKRW": 385238146, "salesPercentile": 17.0}, {"sangwonCode": 3110332, "sangwonName": "돌곶이역 3번", "gu": "성북구", "lat": 37.61243780519847, "lon": 127.05866850498415, "survivalProbability": 0.7373, "monthlyEstimateKRW": 410126079, "salesPercentile": 22.6}, {"sangwonCode": 3111047, "sangwonName": "마천1치안센터", "gu": "송파구", "lat": 37.49657030635304, "lon": 127.15665583665135, "survivalProbability": 0.7373, "monthlyEstimateKRW": 360098572, "salesPercentile": 12.4}, {"sangwonCode": 3120195, "sangwonName": "성수대교남단", "gu": "강남구", "lat": 37.527672703247156, "lon": 127.03445981915029, "survivalProbability": 0.7373, "monthlyEstimateKRW": 536043986, "salesPercentile": 47.1}, {"sangwonCode": 3110673, "sangwonName": "뜸부기어린이공원", "gu": "강서구", "lat": 37.53041452973515, "lon": 126.85970067142665, "survivalProbability": 0.7373, "monthlyEstimateKRW": 435000841, "salesPercentile": 28.9}, {"sangwonCode": 3120237, "sangwonName": "경찰병원역", "gu": "송파구", "lat": 37.49717102650773, "lon": 127.12080906154488, "survivalProbability": 0.7373, "monthlyEstimateKRW": 1162244678, "salesPercentile": 85.0}, {"sangwonCode": 3120194, "sangwonName": "언주역(차병원)", "gu": "강남구", "lat": 37.507400250733085, "lon": 127.03403202540474, "survivalProbability": 0.7373, "monthlyEstimateKRW": 757854165, "salesPercentile": 69.5}, {"sangwonCode": 3120004, "sangwonName": "종로구청", "gu": "종로구", "lat": 37.57410466145737, "lon": 126.98109533500013, "survivalProbability": 0.7373, "monthlyEstimateKRW": 614146933, "salesPercentile": 58.4}, {"sangwonCode": 3110335, "sangwonName": "석계역 7번", "gu": "성북구", "lat": 37.612849524067954, "lon": 127.06393543121227, "survivalProbability": 0.7373, "monthlyEstimateKRW": 528673751, "salesPercentile": 46.2}, {"sangwonCode": 3110718, "sangwonName": "한국SGI본부", "gu": "구로구", "lat": 37.503462343662285, "lon": 126.89080694582884, "survivalProbability": 0.7373, "monthlyEstimateKRW": 466648115, "salesPercentile": 37.4}, {"sangwonCode": 3110249, "sangwonName": "중화역 1번", "gu": "중랑구", "lat": 37.60427126674587, "lon": 127.08007714819284, "survivalProbability": 0.7373, "monthlyEstimateKRW": 401586734, "salesPercentile": 20.7}, {"sangwonCode": 3111046, "sangwonName": "마천역(마천초등학교)", "gu": "송파구", "lat": 37.495999240540726, "lon": 127.15239139655954, "survivalProbability": 0.7373, "monthlyEstimateKRW": 1452414058, "salesPercentile": 92.0}, {"sangwonCode": 3120193, "sangwonName": "도산공원교차로", "gu": "강남구", "lat": 37.521564162466845, "lon": 127.03357465676805, "survivalProbability": 0.7373, "monthlyEstimateKRW": 393152181, "salesPercentile": 18.9}, {"sangwonCode": 3110248, "sangwonName": "먹골파출소", "gu": "중랑구", "lat": 37.61523601878214, "lon": 127.08049665488883, "survivalProbability": 0.7373, "monthlyEstimateKRW": 385685332, "salesPercentile": 17.1}, {"sangwonCode": 3120239, "sangwonName": "오금역", "gu": "송파구", "lat": 37.50177860016498, "lon": 127.12614312912417, "survivalProbability": 0.7373, "monthlyEstimateKRW": 718998475, "salesPercentile": 66.9}, {"sangwonCode": 3120005, "sangwonName": "삼청동", "gu": "종로구", "lat": 37.58349301373539, "lon": 126.98105899645378, "survivalProbability": 0.7373, "monthlyEstimateKRW": 607365363, "salesPercentile": 57.6}, {"sangwonCode": 3110341, "sangwonName": "북한산우이역 2번", "gu": "강북구", "lat": 37.66188906345276, "lon": 127.00946345210346, "survivalProbability": 0.7373, "monthlyEstimateKRW": 422848307, "salesPercentile": 25.6}, {"sangwonCode": 3110247, "sangwonName": "먹골역 1번", "gu": "중랑구", "lat": 37.610200308625146, "lon": 127.07929071096504, "survivalProbability": 0.7373, "monthlyEstimateKRW": 1010592096, "salesPercentile": 80.7}, {"sangwonCode": 3110671, "sangwonName": "등촌1동주민센터", "gu": "강서구", "lat": 37.55565994906193, "lon": 126.8592232956464, "survivalProbability": 0.7373, "monthlyEstimateKRW": 451200726, "salesPercentile": 33.4}, {"sangwonCode": 3110720, "sangwonName": "대림역 2번", "gu": "구로구", "lat": 37.4929406764136, "lon": 126.89308384367953, "survivalProbability": 0.7373, "monthlyEstimateKRW": 1171813575, "salesPercentile": 85.5}, {"sangwonCode": 3120192, "sangwonName": "뱅뱅사거리", "gu": "강남구", "lat": 37.4902548060724, "lon": 127.03149136697971, "survivalProbability": 0.7373, "monthlyEstimateKRW": 1604560921, "salesPercentile": 94.6}, {"sangwonCode": 3120240, "sangwonName": "개롱역", "gu": "송파구", "lat": 37.49604787721762, "lon": 127.13460345002983, "survivalProbability": 0.7373, "monthlyEstimateKRW": 588573249, "salesPercentile": 54.3}, {"sangwonCode": 3111044, "sangwonName": "남천초등학교", "gu": "송파구", "lat": 37.49924726592884, "lon": 127.14893749244365, "survivalProbability": 0.7373, "monthlyEstimateKRW": 615965388, "salesPercentile": 58.8}, {"sangwonCode": 3110343, "sangwonName": "무너미어린이공원", "gu": "강북구", "lat": 37.644878286044325, "lon": 127.0119427585941, "survivalProbability": 0.7373, "monthlyEstimateKRW": 421110285, "salesPercentile": 25.5}, {"sangwonCode": 3110246, "sangwonName": "월드순복음교회", "gu": "중랑구", "lat": 37.593027672289224, "lon": 127.07893279696668, "survivalProbability": 0.7373, "monthlyEstimateKRW": 532844633, "salesPercentile": 46.5}, {"sangwonCode": 3110345, "sangwonName": "솔밭공원역 2번", "gu": "강북구", "lat": 37.65729376201776, "lon": 127.01261338082156, "survivalProbability": 0.7373, "monthlyEstimateKRW": 376120892, "salesPercentile": 15.2}, {"sangwonCode": 3110245, "sangwonName": "KB국민은행 중화동지점", "gu": "중랑구", "lat": 37.59708224403993, "lon": 127.0787672252466, "survivalProbability": 0.7373, "monthlyEstimateKRW": 461923651, "salesPercentile": 36.4}, {"sangwonCode": 3120006, "sangwonName": "종각역", "gu": "종로구", "lat": 37.57037490191488, "lon": 126.98349603169189, "survivalProbability": 0.7373, "monthlyEstimateKRW": 1414609085, "salesPercentile": 91.2}, {"sangwonCode": 3110670, "sangwonName": "신곡초등학교", "gu": "강서구", "lat": 37.53553664636464, "lon": 126.85590077983865, "survivalProbability": 0.7373, "monthlyEstimateKRW": 364520089, "salesPercentile": 13.6}, {"sangwonCode": 3120191, "sangwonName": "학동역", "gu": "강남구", "lat": 37.51355518491261, "lon": 127.03007596762794, "survivalProbability": 0.7373, "monthlyEstimateKRW": 1248346163, "salesPercentile": 87.2}, {"sangwonCode": 3110244, "sangwonName": "중화역 4번", "gu": "중랑구", "lat": 37.60341653482143, "lon": 127.07827562121437, "survivalProbability": 0.7373, "monthlyEstimateKRW": 425569071, "salesPercentile": 26.4}, {"sangwonCode": 3110348, "sangwonName": "강북문화예술회관", "gu": "강북구", "lat": 37.64216601575762, "lon": 127.01467296968984, "survivalProbability": 0.7373, "monthlyEstimateKRW": 415059536, "salesPercentile": 23.8}, {"sangwonCode": 3111042, "sangwonName": "거여역 1번(거여공원)", "gu": "송파구", "lat": 37.49713654406891, "lon": 127.14357306164347, "survivalProbability": 0.7373, "monthlyEstimateKRW": 1337483447, "salesPercentile": 89.8}, {"sangwonCode": 3110722, "sangwonName": "G타워", "gu": "구로구", "lat": 37.48023108551514, "lon": 126.89717210666026, "survivalProbability": 0.7373, "monthlyEstimateKRW": 473389695, "salesPercentile": 38.4}, {"sangwonCode": 3110349, "sangwonName": "화계역 2번", "gu": "강북구", "lat": 37.63321923019276, "lon": 127.01470519772923, "survivalProbability": 0.7373, "monthlyEstimateKRW": 280718286, "salesPercentile": 2.0}, {"sangwonCode": 3120242, "sangwonName": "강동구청역", "gu": "강동구", "lat": 37.52923581309821, "lon": 127.12268220880003, "survivalProbability": 0.7373, "monthlyEstimateKRW": 626657592, "salesPercentile": 60.1}, {"sangwonCode": 3110723, "sangwonName": "가산디지털단지역 1번 출입구", "gu": "금천구", "lat": 37.48321884165624, "lon": 126.88358899345991, "survivalProbability": 0.7373, "monthlyEstimateKRW": 389764852, "salesPercentile": 18.1}, {"sangwonCode": 3110350, "sangwonName": "가오리역 2번", "gu": "강북구", "lat": 37.63947200306674, "lon": 127.01521628317677, "survivalProbability": 0.7373, "monthlyEstimateKRW": 376776040, "salesPercentile": 15.3}, {"sangwonCode": 3120190, "sangwonName": "강남을지병원", "gu": "강남구", "lat": 37.520006819268275, "lon": 127.02825732811267, "survivalProbability": 0.7373, "monthlyEstimateKRW": 1030392769, "salesPercentile": 80.9}, {"sangwonCode": 3110351, "sangwonName": "수유북부시장옆", "gu": "강북구", "lat": 37.63627345900942, "lon": 127.01557817756292, "survivalProbability": 0.7373, "monthlyEstimateKRW": 273986383, "salesPercentile": 1.9}, {"sangwonCode": 3110668, "sangwonName": "화곡2동주민센터", "gu": "강서구", "lat": 37.53247006333166, "lon": 126.85331580752785, "survivalProbability": 0.7373, "monthlyEstimateKRW": 674941383, "salesPercentile": 63.4}, {"sangwonCode": 3110724, "sangwonName": "금천구립가산도서관", "gu": "금천구", "lat": 37.4730711718446, "lon": 126.89060246530504, "survivalProbability": 0.7373, "monthlyEstimateKRW": 295521420, "salesPercentile": 3.6}, {"sangwonCode": 3120007, "sangwonName": "북촌(안국역)", "gu": "종로구", "lat": 37.57915989328047, "lon": 126.98574695667236, "survivalProbability": 0.7373, "monthlyEstimateKRW": 748102685, "salesPercentile": 69.0}, {"sangwonCode": 3120243, "sangwonName": "천호역", "gu": "강동구", "lat": 37.53952339599033, "lon": 127.12444156010653, "survivalProbability": 0.7373, "monthlyEstimateKRW": 596914328, "salesPercentile": 56.0}, {"sangwonCode": 3110352, "sangwonName": "수유1동주민센터", "gu": "강북구", "lat": 37.6301286649574, "lon": 127.01610934145873, "survivalProbability": 0.7373, "monthlyEstimateKRW": 483890063, "salesPercentile": 39.7}, {"sangwonCode": 3111038, "sangwonName": "보인중학교", "gu": "송파구", "lat": 37.49972782218089, "lon": 127.13906576695737, "survivalProbability": 0.7373, "monthlyEstimateKRW": 436679100, "salesPercentile": 29.7}, {"sangwonCode": 3110241, "sangwonName": "먹골역 5번", "gu": "중랑구", "lat": 37.60822843634927, "lon": 127.07734066163741, "survivalProbability": 0.7373, "monthlyEstimateKRW": 1777297968, "salesPercentile": 96.3}, {"sangwonCode": 3120189, "sangwonName": "강남역", "gu": "서초구", "lat": 37.497571920870165, "lon": 127.02775129423334, "survivalProbability": 0.7373, "monthlyEstimateKRW": 2257837736, "salesPercentile": 99.7}, {"sangwonCode": 3110726, "sangwonName": "금천철쭉어린이공원(금하마을)", "gu": "금천구", "lat": 37.45329404179641, "lon": 126.8906764836956, "survivalProbability": 0.7373, "monthlyEstimateKRW": 405927622, "salesPercentile": 21.6}, {"sangwonCode": 3120244, "sangwonName": "암사역", "gu": "강동구", "lat": 37.55137688969368, "lon": 127.12785627932669, "survivalProbability": 0.7373, "monthlyEstimateKRW": 537923458, "salesPercentile": 47.6}, {"sangwonCode": 3120008, "sangwonName": "인사동", "gu": "종로구", "lat": 37.57390703196603, "lon": 126.98522723193123, "survivalProbability": 0.7373, "monthlyEstimateKRW": 1003391968, "salesPercentile": 80.3}, {"sangwonCode": 3110355, "sangwonName": "삼양사거리역 2번", "gu": "강북구", "lat": 37.621596021966724, "lon": 127.01815775151192, "survivalProbability": 0.7373, "monthlyEstimateKRW": 420559067, "salesPercentile": 25.2}, {"sangwonCode": 3120188, "sangwonName": "압구정역", "gu": "강남구", "lat": 37.52546693782541, "lon": 127.02807838256531, "survivalProbability": 0.7373, "monthlyEstimateKRW": 751430200, "salesPercentile": 69.1}, {"sangwonCode": 3110356, "sangwonName": "덕수교", "gu": "강북구", "lat": 37.64821112137031, "lon": 127.01823221742598, "survivalProbability": 0.7373, "monthlyEstimateKRW": 241905023, "salesPercentile": 0.6}, {"sangwonCode": 3110728, "sangwonName": "두산초등학교", "gu": "금천구", "lat": 37.46734184716617, "lon": 126.89179773823689, "survivalProbability": 0.7373, "monthlyEstimateKRW": 410215706, "salesPercentile": 22.7}, {"sangwonCode": 3111034, "sangwonName": "오동나무공원(송파레미니스1단지)", "gu": "송파구", "lat": 37.50662576054443, "lon": 127.13453196048948, "survivalProbability": 0.7373, "monthlyEstimateKRW": 438820386, "salesPercentile": 30.5}, {"sangwonCode": 3110666, "sangwonName": "KC대학교", "gu": "강서구", "lat": 37.54927286665986, "lon": 126.85264916819561, "survivalProbability": 0.7373, "monthlyEstimateKRW": 1884607669, "salesPercentile": 97.7}, {"sangwonCode": 3120245, "sangwonName": "둔촌역", "gu": "강동구", "lat": 37.526339264817906, "lon": 127.13491805500612, "survivalProbability": 0.7373, "monthlyEstimateKRW": 1278259052, "salesPercentile": 88.3}, {"sangwonCode": 3110237, "sangwonName": "메가박스 상봉", "gu": "중랑구", "lat": 37.591408615387756, "lon": 127.07474165969481, "survivalProbability": 0.7373, "monthlyEstimateKRW": 553209530, "salesPercentile": 49.9}, {"sangwonCode": 3110358, "sangwonName": "인수동 우편취급국", "gu": "강북구", "lat": 37.63589449602717, "lon": 127.01929418298732, "survivalProbability": 0.7373, "monthlyEstimateKRW": 286791734, "salesPercentile": 2.8}, {"sangwonCode": 3110729, "sangwonName": "가산동우체국", "gu": "금천구", "lat": 37.47802914720058, "lon": 126.8932520648618, "survivalProbability": 0.7373, "monthlyEstimateKRW": 308568695, "salesPercentile": 4.6}, {"sangwonCode": 3110359, "sangwonName": "수유시장옆", "gu": "강북구", "lat": 37.63881357448498, "lon": 127.01997473599367, "survivalProbability": 0.7373, "monthlyEstimateKRW": 487294089, "salesPercentile": 40.4}, {"sangwonCode": 3110236, "sangwonName": "신묵초등학교", "gu": "중랑구", "lat": 37.60887870447146, "lon": 127.07492901956759, "survivalProbability": 0.7373, "monthlyEstimateKRW": 543381676, "salesPercentile": 48.5}, {"sangwonCode": 3120009, "sangwonName": "종로3가역", "gu": "종로구", "lat": 37.57165510209864, "lon": 126.99069513429947, "survivalProbability": 0.7373, "monthlyEstimateKRW": 1961319673, "salesPercentile": 98.4}, {"sangwonCode": 3120187, "sangwonName": "신논현역", "gu": "강남구", "lat": 37.50502379497898, "lon": 127.02527722374786, "survivalProbability": 0.7373, "monthlyEstimateKRW": 1860266869, "salesPercentile": 97.3}, {"sangwonCode": 3110360, "sangwonName": "수유초등학교", "gu": "강북구", "lat": 37.63250662510774, "lon": 127.02027893106107, "survivalProbability": 0.7373, "monthlyEstimateKRW": 408605113, "salesPercentile": 22.1}, {"sangwonCode": 3110665, "sangwonName": "곰달래도서관", "gu": "강서구", "lat": 37.52964910739219, "lon": 126.85265383966636, "survivalProbability": 0.7373, "monthlyEstimateKRW": 727701958, "salesPercentile": 67.6}, {"sangwonCode": 3120246, "sangwonName": "길동역", "gu": "강동구", "lat": 37.536471614031555, "lon": 127.13829670196402, "survivalProbability": 0.7373, "monthlyEstimateKRW": 1425817334, "salesPercentile": 91.4}, {"sangwonCode": 3110730, "sangwonName": "서울축산농협 독산역지점(독산파출소)", "gu": "금천구", "lat": 37.46490291619055, "lon": 126.89490976198287, "survivalProbability": 0.7373, "monthlyEstimateKRW": 328859894, "salesPercentile": 7.7}, {"sangwonCode": 3110233, "sangwonName": "중랑역 1번", "gu": "중랑구", "lat": 37.59596815056542, "lon": 127.07391960683593, "survivalProbability": 0.7373, "monthlyEstimateKRW": 849660147, "salesPercentile": 74.6}, {"sangwonCode": 3110361, "sangwonName": "삼양사거리역 1번", "gu": "강북구", "lat": 37.620856567278494, "lon": 127.02195219826604, "survivalProbability": 0.7373, "monthlyEstimateKRW": 336392499, "salesPercentile": 8.5}, {"sangwonCode": 3110362, "sangwonName": "우이천 계성교", "gu": "강북구", "lat": 37.646318365703095, "lon": 127.02225429849477, "survivalProbability": 0.7373, "monthlyEstimateKRW": 426679448, "salesPercentile": 26.8}, {"sangwonCode": 3120186, "sangwonName": "가로수길", "gu": "강남구", "lat": 37.52077389382864, "lon": 127.0225789449648, "survivalProbability": 0.7373, "monthlyEstimateKRW": 1147847769, "salesPercentile": 84.4}, {"sangwonCode": 3111031, "sangwonName": "장지동주민센터(한림연예예술고교)", "gu": "송파구", "lat": 37.486051200890266, "lon": 127.1305941940208, "survivalProbability": 0.7373, "monthlyEstimateKRW": 445685571, "salesPercentile": 31.8}, {"sangwonCode": 3120247, "sangwonName": "굽은다리역", "gu": "강동구", "lat": 37.54581880892867, "lon": 127.14264794652553, "survivalProbability": 0.7373, "monthlyEstimateKRW": 1135492641, "salesPercentile": 84.1}, {"sangwonCode": 3110364, "sangwonName": "미아역 8번", "gu": "강북구", "lat": 37.62728941870225, "lon": 127.02298495804368, "survivalProbability": 0.7373, "monthlyEstimateKRW": 575940586, "salesPercentile": 52.8}, {"sangwonCode": 3120010, "sangwonName": "원남동사거리", "gu": "종로구", "lat": 37.57502516803858, "lon": 126.99773594038506, "survivalProbability": 0.7373, "monthlyEstimateKRW": 484153522, "salesPercentile": 39.9}, {"sangwonCode": 3111030, "sangwonName": "방이역 2번", "gu": "송파구", "lat": 37.506334079138135, "lon": 127.12947590742026, "survivalProbability": 0.7373, "monthlyEstimateKRW": 529090204, "salesPercentile": 46.3}, {"sangwonCode": 3110365, "sangwonName": "미아역 5번", "gu": "강북구", "lat": 37.623703424347134, "lon": 127.02332368413528, "survivalProbability": 0.7373, "monthlyEstimateKRW": 458864147, "salesPercentile": 35.7}, {"sangwonCode": 3110230, "sangwonName": "장안현대홈타운1차아파트", "gu": "동대문구", "lat": 37.56900286007882, "lon": 127.07158379588344, "survivalProbability": 0.7373, "monthlyEstimateKRW": 517984599, "salesPercentile": 44.6}, {"sangwonCode": 3120248, "sangwonName": "명일역", "gu": "강동구", "lat": 37.55124972345866, "lon": 127.1443784336575, "survivalProbability": 0.7373, "monthlyEstimateKRW": 755470340, "salesPercentile": 69.3}, {"sangwonCode": 3120185, "sangwonName": "논현역", "gu": "강남구", "lat": 37.51104318245634, "lon": 127.02189737579353, "survivalProbability": 0.7373, "monthlyEstimateKRW": 1254635968, "salesPercentile": 87.4}, {"sangwonCode": 3120011, "sangwonName": "종로4가", "gu": "종로구", "lat": 37.571150886858554, "lon": 126.9975889014172, "survivalProbability": 0.7373, "monthlyEstimateKRW": 496858664, "salesPercentile": 41.6}, {"sangwonCode": 3110662, "sangwonName": "까치산역 1번", "gu": "강서구", "lat": 37.53485244846705, "lon": 126.84913619684757, "survivalProbability": 0.7373, "monthlyEstimateKRW": 918806051, "salesPercentile": 77.1}, {"sangwonCode": 3110229, "sangwonName": "장평중학교", "gu": "동대문구", "lat": 37.56456190380795, "lon": 127.06999492654315, "survivalProbability": 0.7373, "monthlyEstimateKRW": 448637626, "salesPercentile": 32.6}, {"sangwonCode": 3110732, "sangwonName": "가산초등학교(세일중학교)", "gu": "금천구", "lat": 37.475906522035814, "lon": 126.89749458115419, "survivalProbability": 0.7373, "monthlyEstimateKRW": 436242135, "salesPercentile": 29.5}, {"sangwonCode": 3110661, "sangwonName": "강서새말어린이공원", "gu": "강서구", "lat": 37.55223991977548, "lon": 126.84773181802537, "survivalProbability": 0.7373, "monthlyEstimateKRW": 743684767, "salesPercentile": 68.6}, {"sangwonCode": 3110228, "sangwonName": "장안근린공원", "gu": "동대문구", "lat": 37.5758335619501, "lon": 127.0696432221665, "survivalProbability": 0.7373, "monthlyEstimateKRW": 2197363514, "salesPercentile": 99.1}, {"sangwonCode": 3120184, "sangwonName": "포이사거리(삼호물산)", "gu": "서초구", "lat": 37.47696053249972, "lon": 127.04506367970757, "survivalProbability": 0.7373, "monthlyEstimateKRW": 1941661651, "salesPercentile": 98.2}, {"sangwonCode": 3120012, "sangwonName": "대학로(혜화역)", "gu": "종로구", "lat": 37.5827467014045, "lon": 127.00132461165737, "survivalProbability": 0.7373, "monthlyEstimateKRW": 1875975714, "salesPercentile": 97.6}, {"sangwonCode": 3110369, "sangwonName": "성신여대운정그린캠퍼스", "gu": "강북구", "lat": 37.633154257577395, "lon": 127.02579638357507, "survivalProbability": 0.7373, "monthlyEstimateKRW": 573014671, "salesPercentile": 52.3}, {"sangwonCode": 3130001, "sangwonName": "통인시장", "gu": "종로구", "lat": 37.580589524576354, "lon": 126.97001029915941, "survivalProbability": 0.7373, "monthlyEstimateKRW": 869013341, "salesPercentile": 75.3}, {"sangwonCode": 3110735, "sangwonName": "말미고개", "gu": "금천구", "lat": 37.462708144784365, "lon": 126.89915158569944, "survivalProbability": 0.7373, "monthlyEstimateKRW": 887652920, "salesPercentile": 76.2}, {"sangwonCode": 3130002, "sangwonName": "세종마을음식문화거리(금천교시장)", "gu": "종로구", "lat": 37.5768145641106, "lon": 126.9708268941168, "survivalProbability": 0.7373, "monthlyEstimateKRW": 526003446, "salesPercentile": 45.7}, {"sangwonCode": 3110370, "sangwonName": "도봉세무서", "gu": "강북구", "lat": 37.61866612696216, "lon": 127.0269693758849, "survivalProbability": 0.7373, "monthlyEstimateKRW": 344297273, "salesPercentile": 9.8}, {"sangwonCode": 3111027, "sangwonName": "문정초등학교", "gu": "송파구", "lat": 37.48862354516316, "lon": 127.12648283683586, "survivalProbability": 0.7373, "monthlyEstimateKRW": 1750144488, "salesPercentile": 96.0}, {"sangwonCode": 3130004, "sangwonName": "낙원시장(낙원지하시장(대일상가))", "gu": "종로구", "lat": 37.572772081328125, "lon": 126.98788764600079, "survivalProbability": 0.7373, "monthlyEstimateKRW": 369836270, "salesPercentile": 14.5}, {"sangwonCode": 3110226, "sangwonName": "장안1동주민센터", "gu": "동대문구", "lat": 37.568960725192056, "lon": 127.06660322921046, "survivalProbability": 0.7373, "monthlyEstimateKRW": 1760883058, "salesPercentile": 96.1}, {"sangwonCode": 3130005, "sangwonName": "세운상가가동", "gu": "종로구", "lat": 37.569384872406744, "lon": 126.99543826391316, "survivalProbability": 0.7373, "monthlyEstimateKRW": 324834864, "salesPercentile": 7.3}, {"sangwonCode": 3110660, "sangwonName": "등촌3동주민센터", "gu": "강서구", "lat": 37.55832107704375, "lon": 126.84728936932454, "survivalProbability": 0.7373, "monthlyEstimateKRW": 817987276, "salesPercentile": 72.4}, {"sangwonCode": 3120182, "sangwonName": "양재시민의숲역(양재동꽃시장, aT센터)", "gu": "서초구", "lat": 37.469384734597455, "lon": 127.04036782735055, "survivalProbability": 0.7373, "monthlyEstimateKRW": 434777457, "salesPercentile": 28.7}, {"sangwonCode": 3130007, "sangwonName": "광장시장(광장전통시장)", "gu": "종로구", "lat": 37.57002466717994, "lon": 126.99981888734061, "survivalProbability": 0.7373, "monthlyEstimateKRW": 1945753685, "salesPercentile": 98.3}, {"sangwonCode": 3120013, "sangwonName": "이화사거리", "gu": "종로구", "lat": 37.57493507964541, "lon": 127.00158483982133, "survivalProbability": 0.7373, "monthlyEstimateKRW": 505181506, "salesPercentile": 42.9}, {"sangwonCode": 3111026, "sangwonName": "문정역 2번", "gu": "송파구", "lat": 37.48402890980623, "lon": 127.12601152245665, "survivalProbability": 0.7373, "monthlyEstimateKRW": 1320971235, "salesPercentile": 89.5}, {"sangwonCode": 3110372, "sangwonName": "강북중학교", "gu": "강북구", "lat": 37.643190633332985, "lon": 127.0283945689594, "survivalProbability": 0.7373, "monthlyEstimateKRW": 490687462, "salesPercentile": 41.0}, {"sangwonCode": 3130010, "sangwonName": "종로신진시장", "gu": "종로구", "lat": 37.570312873990254, "lon": 127.00513909151051, "survivalProbability": 0.7373, "monthlyEstimateKRW": 462997626, "salesPercentile": 36.7}, {"sangwonCode": 3110737, "sangwonName": "금천세무서", "gu": "금천구", "lat": 37.47653113040603, "lon": 126.90090796494161, "survivalProbability": 0.7373, "monthlyEstimateKRW": 412284989, "salesPercentile": 23.2}, {"sangwonCode": 3111025, "sangwonName": "경찰병원역 3번", "gu": "송파구", "lat": 37.494156381623775, "lon": 127.12587022274428, "survivalProbability": 0.7373, "monthlyEstimateKRW": 367287885, "salesPercentile": 13.9}, {"sangwonCode": 3120180, "sangwonName": "양재화물트럭터미널앞", "gu": "서초구", "lat": 37.463880723466325, "lon": 127.03679295600678, "survivalProbability": 0.7373, "monthlyEstimateKRW": 596814506, "salesPercentile": 55.9}, {"sangwonCode": 3110224, "sangwonName": "외대앞역 2번", "gu": "동대문구", "lat": 37.59425330406559, "lon": 127.06353452878629, "survivalProbability": 0.7373, "monthlyEstimateKRW": 490329787, "salesPercentile": 40.9}, {"sangwonCode": 3110374, "sangwonName": "송중초등학교", "gu": "강북구", "lat": 37.61982748768701, "lon": 127.0307077341858, "survivalProbability": 0.7373, "monthlyEstimateKRW": 617659115, "salesPercentile": 59.1}, {"sangwonCode": 3120014, "sangwonName": "종로5가역", "gu": "종로구", "lat": 37.571907724627984, "lon": 127.00232056437183, "survivalProbability": 0.7373, "monthlyEstimateKRW": 394012982, "salesPercentile": 19.3}, {"sangwonCode": 3130015, "sangwonName": "창신골목시장", "gu": "종로구", "lat": 37.57325869940521, "lon": 127.01129739060529, "survivalProbability": 0.7373, "monthlyEstimateKRW": 802272568, "salesPercentile": 72.2}, {"sangwonCode": 3130020, "sangwonName": "동묘시장(동묘벼룩시장)", "gu": "종로구", "lat": 37.571356966071896, "lon": 127.01665134166707, "survivalProbability": 0.7373, "monthlyEstimateKRW": 747319495, "salesPercentile": 68.9}, {"sangwonCode": 3130018, "sangwonName": "동대문문구완구거리(동대문문구완구시장)", "gu": "종로구", "lat": 37.57142039698896, "lon": 127.0138553769603, "survivalProbability": 0.7373, "monthlyEstimateKRW": 599686366, "salesPercentile": 56.6}, {"sangwonCode": 3110738, "sangwonName": "문성초등학교", "gu": "금천구", "lat": 37.472305721353386, "lon": 126.90129790602968, "survivalProbability": 0.7373, "monthlyEstimateKRW": 830492342, "salesPercentile": 73.3}, {"sangwonCode": 3120179, "sangwonName": "양재역", "gu": "서초구", "lat": 37.484496660060245, "lon": 127.03403294046717, "survivalProbability": 0.7373, "monthlyEstimateKRW": 1320009364, "salesPercentile": 89.1}, {"sangwonCode": 3110376, "sangwonName": "수송초등학교", "gu": "강북구", "lat": 37.63939671921139, "lon": 127.03142958043486, "survivalProbability": 0.7373, "monthlyEstimateKRW": 760399766, "salesPercentile": 69.8}, {"sangwonCode": 3130022, "sangwonName": "숭례문수입상가(남대문시장)", "gu": "중구", "lat": 37.55943555342979, "lon": 126.9761531025199, "survivalProbability": 0.7373, "monthlyEstimateKRW": 542949646, "salesPercentile": 48.3}, {"sangwonCode": 3110220, "sangwonName": "외대앞역 1번", "gu": "동대문구", "lat": 37.59521860885541, "lon": 127.06118009171786, "survivalProbability": 0.7373, "monthlyEstimateKRW": 312157190, "salesPercentile": 5.4}, {"sangwonCode": 3130024, "sangwonName": "남대문시장(자유상가)", "gu": "중구", "lat": 37.55957999880267, "lon": 126.97761307341452, "survivalProbability": 0.7373, "monthlyEstimateKRW": 1827307959, "salesPercentile": 96.9}, {"sangwonCode": 3110659, "sangwonName": "화곡역 4번", "gu": "강서구", "lat": 37.54056131421404, "lon": 126.84644302224991, "survivalProbability": 0.7373, "monthlyEstimateKRW": 2152343778, "salesPercentile": 98.9}, {"sangwonCode": 3120015, "sangwonName": "종로6가", "gu": "종로구", "lat": 37.57210575706799, "lon": 127.00702963068177, "survivalProbability": 0.7373, "monthlyEstimateKRW": 523385332, "salesPercentile": 45.5}, {"sangwonCode": 3110378, "sangwonName": "송중동주민센터", "gu": "강북구", "lat": 37.61465474806964, "lon": 127.0345678760869, "survivalProbability": 0.7373, "monthlyEstimateKRW": 365210972, "salesPercentile": 13.7}, {"sangwonCode": 3120178, "sangwonName": "신사역", "gu": "서초구", "lat": 37.515963075171285, "lon": 127.01955735958383, "survivalProbability": 0.7373, "monthlyEstimateKRW": 1339258408, "salesPercentile": 89.9}, {"sangwonCode": 3110219, "sangwonName": "삼육보건대학교", "gu": "동대문구", "lat": 37.587713860831755, "lon": 127.06017759350853, "survivalProbability": 0.7373, "monthlyEstimateKRW": 300100412, "salesPercentile": 3.8}, {"sangwonCode": 3130025, "sangwonName": "삼익패션타운(남대문시장)", "gu": "중구", "lat": 37.559949713268395, "lon": 126.97928802926204, "survivalProbability": 0.7373, "monthlyEstimateKRW": 535374491, "salesPercentile": 46.9}, {"sangwonCode": 3110740, "sangwonName": "금천해태공원", "gu": "금천구", "lat": 37.45862856769765, "lon": 126.90153063651739, "survivalProbability": 0.7373, "monthlyEstimateKRW": 692559802, "salesPercentile": 64.4}, {"sangwonCode": 3130032, "sangwonName": "인현시장", "gu": "중구", "lat": 37.56324907476504, "lon": 126.9950651270371, "survivalProbability": 0.7373, "monthlyEstimateKRW": 569817572, "salesPercentile": 51.8}, {"sangwonCode": 3110382, "sangwonName": "솔밭공원역 1번", "gu": "도봉구", "lat": 37.6558610511858, "lon": 127.01393904788436, "survivalProbability": 0.7373, "monthlyEstimateKRW": 408260556, "salesPercentile": 21.8}, {"sangwonCode": 3120177, "sangwonName": "신논현역 1번", "gu": "서초구", "lat": 37.50543027854698, "lon": 127.01988259526811, "survivalProbability": 0.7373, "monthlyEstimateKRW": 672337414, "salesPercentile": 63.2}, {"sangwonCode": 3130033, "sangwonName": "대림상가(청계상가)", "gu": "중구", "lat": 37.567546840841366, "lon": 126.99542705683898, "survivalProbability": 0.7373, "monthlyEstimateKRW": 420051586, "salesPercentile": 24.9}, {"sangwonCode": 3110218, "sangwonName": "답십리사거리", "gu": "동대문구", "lat": 37.57059598801341, "lon": 127.05816024441098, "survivalProbability": 0.7373, "monthlyEstimateKRW": 512352685, "salesPercentile": 44.0}, {"sangwonCode": 3120176, "sangwonName": "논현역 4번", "gu": "서초구", "lat": 37.50841277570839, "lon": 127.01884284504102, "survivalProbability": 0.7373, "monthlyEstimateKRW": 594600984, "salesPercentile": 55.4}, {"sangwonCode": 3130035, "sangwonName": "방산종합시장(방산시장)", "gu": "중구", "lat": 37.56800643712113, "lon": 127.00016978853688, "survivalProbability": 0.7373, "monthlyEstimateKRW": 718269126, "salesPercentile": 66.7}, {"sangwonCode": 3110216, "sangwonName": "전농중학교", "gu": "동대문구", "lat": 37.57890305419834, "lon": 127.0583704812324, "survivalProbability": 0.7373, "monthlyEstimateKRW": 417795943, "salesPercentile": 24.6}, {"sangwonCode": 3110741, "sangwonName": "독산2동주민센터", "gu": "금천구", "lat": 37.46383656022357, "lon": 126.9017046630445, "survivalProbability": 0.7373, "monthlyEstimateKRW": 413635648, "salesPercentile": 23.4}, {"sangwonCode": 3110387, "sangwonName": "쌍문초등학교", "gu": "도봉구", "lat": 37.650408392580964, "lon": 127.02446520633931, "survivalProbability": 0.7373, "monthlyEstimateKRW": 705051553, "salesPercentile": 65.5}, {"sangwonCode": 3130036, "sangwonName": "중부시장(신중부시장)", "gu": "중구", "lat": 37.56561879780388, "lon": 127.00026033411363, "survivalProbability": 0.7373, "monthlyEstimateKRW": 644570419, "salesPercentile": 61.4}, {"sangwonCode": 3120017, "sangwonName": "동묘앞역(동묘)", "gu": "종로구", "lat": 37.572744764086856, "lon": 127.01464801900576, "survivalProbability": 0.7373, "monthlyEstimateKRW": 611963427, "salesPercentile": 58.2}, {"sangwonCode": 3110214, "sangwonName": "경희대후문", "gu": "동대문구", "lat": 37.597518483440886, "lon": 127.056471314137, "survivalProbability": 0.7373, "monthlyEstimateKRW": 291980403, "salesPercentile": 3.0}, {"sangwonCode": 3110657, "sangwonName": "양천향교역 5번", "gu": "강서구", "lat": 37.56653329038731, "lon": 126.84357129242574, "survivalProbability": 0.7373, "monthlyEstimateKRW": 388348195, "salesPercentile": 17.6}, {"sangwonCode": 3130042, "sangwonName": "약수시장", "gu": "중구", "lat": 37.55285116043482, "lon": 127.01096611803986, "survivalProbability": 0.7373, "monthlyEstimateKRW": 969110600, "salesPercentile": 78.9}, {"sangwonCode": 3120175, "sangwonName": "남부터미널역", "gu": "서초구", "lat": 37.48511285891225, "lon": 127.01811336179759, "survivalProbability": 0.7373, "monthlyEstimateKRW": 1865412409, "salesPercentile": 97.4}, {"sangwonCode": 3130047, "sangwonName": "테크노상가(엘리시움)", "gu": "중구", "lat": 37.56895177373238, "lon": 127.01293804999196, "survivalProbability": 0.7373, "monthlyEstimateKRW": 360244196, "salesPercentile": 12.6}, {"sangwonCode": 3130048, "sangwonName": "동평화시장", "gu": "중구", "lat": 37.56949234348714, "lon": 127.0131871716288, "survivalProbability": 0.7373, "monthlyEstimateKRW": 395586528, "salesPercentile": 19.8}, {"sangwonCode": 3110390, "sangwonName": "방학초등학교", "gu": "도봉구", "lat": 37.66294826180096, "lon": 127.0319948557538, "survivalProbability": 0.7373, "monthlyEstimateKRW": 308697433, "salesPercentile": 4.7}, {"sangwonCode": 3130050, "sangwonName": "청평화시장", "gu": "중구", "lat": 37.56928489112657, "lon": 127.01505484086675, "survivalProbability": 0.7373, "monthlyEstimateKRW": 501375181, "salesPercentile": 42.1}, {"sangwonCode": 3120018, "sangwonName": "중림동", "gu": "중구", "lat": 37.55949660361493, "lon": 126.96766462208775, "survivalProbability": 0.7373, "monthlyEstimateKRW": 593246874, "salesPercentile": 54.9}, {"sangwonCode": 3110656, "sangwonName": "까치산역 3번", "gu": "강서구", "lat": 37.52876264452878, "lon": 126.84296009158733, "survivalProbability": 0.7373, "monthlyEstimateKRW": 1816746755, "salesPercentile": 96.6}, {"sangwonCode": 3110391, "sangwonName": "샘말어린이공원", "gu": "도봉구", "lat": 37.66943498973112, "lon": 127.03319911031681, "survivalProbability": 0.7373, "monthlyEstimateKRW": 420875589, "salesPercentile": 25.4}, {"sangwonCode": 3120173, "sangwonName": "교대역(법원.검찰청)", "gu": "서초구", "lat": 37.49370893679033, "lon": 127.0147795736092, "survivalProbability": 0.7373, "monthlyEstimateKRW": 2047654927, "salesPercentile": 98.8}, {"sangwonCode": 3130052, "sangwonName": "서울중앙시장(신중앙시장)", "gu": "중구", "lat": 37.566941725252974, "lon": 127.01905000259286, "survivalProbability": 0.7373, "monthlyEstimateKRW": 743499104, "salesPercentile": 68.5}, {"sangwonCode": 3110211, "sangwonName": "전곡마을마당공원", "gu": "동대문구", "lat": 37.5798238453243, "lon": 127.05465790447084, "survivalProbability": 0.7373, "monthlyEstimateKRW": 715207517, "salesPercentile": 66.4}, {"sangwonCode": 3110392, "sangwonName": "발바닥공원", "gu": "도봉구", "lat": 37.659380273733284, "lon": 127.03236731659005, "survivalProbability": 0.7373, "monthlyEstimateKRW": 1117829535, "salesPercentile": 83.3}, {"sangwonCode": 3130053, "sangwonName": "백학시장", "gu": "중구", "lat": 37.564148546707614, "lon": 127.01960390526173, "survivalProbability": 0.7373, "monthlyEstimateKRW": 1797814520, "salesPercentile": 96.4}, {"sangwonCode": 3111015, "sangwonName": "석촌역 3번", "gu": "송파구", "lat": 37.50603667404324, "lon": 127.11191117169507, "survivalProbability": 0.7373, "monthlyEstimateKRW": 645122463, "salesPercentile": 61.5}, {"sangwonCode": 3110743, "sangwonName": "시흥초등학교(시흥1동우체국)", "gu": "금천구", "lat": 37.45541423177664, "lon": 126.90430389990269, "survivalProbability": 0.7373, "monthlyEstimateKRW": 438348685, "salesPercentile": 30.2}, {"sangwonCode": 3110210, "sangwonName": "서울시립대", "gu": "동대문구", "lat": 37.585617460347805, "lon": 127.05416397669767, "survivalProbability": 0.7373, "monthlyEstimateKRW": 321715183, "salesPercentile": 6.7}, {"sangwonCode": 3110394, "sangwonName": "방학중학교", "gu": "도봉구", "lat": 37.66664136923422, "lon": 127.03520401893273, "survivalProbability": 0.7373, "monthlyEstimateKRW": 472189823, "salesPercentile": 38.2}, {"sangwonCode": 3130054, "sangwonName": "황학동주방가구거리상점가", "gu": "중구", "lat": 37.56874345227643, "lon": 127.02062385070205, "survivalProbability": 0.7373, "monthlyEstimateKRW": 589233696, "salesPercentile": 54.4}, {"sangwonCode": 3120172, "sangwonName": "교대입구교차로", "gu": "서초구", "lat": 37.48774452227515, "lon": 127.01257351118738, "survivalProbability": 0.7373, "monthlyEstimateKRW": 702735549, "salesPercentile": 65.2}, {"sangwonCode": 3110206, "sangwonName": "텃골근린공원", "gu": "동대문구", "lat": 37.57905927730038, "lon": 127.05182711868238, "survivalProbability": 0.7373, "monthlyEstimateKRW": 438077466, "salesPercentile": 30.0}, {"sangwonCode": 3130055, "sangwonName": "황학시장(서울중앙시장, 신중앙시장)", "gu": "중구", "lat": 37.567292714343196, "lon": 127.02138183226494, "survivalProbability": 0.7373, "monthlyEstimateKRW": 772437721, "salesPercentile": 70.4}, {"sangwonCode": 3120020, "sangwonName": "시청역_1번", "gu": "중구", "lat": 37.564138422507476, "lon": 126.97455567383845, "survivalProbability": 0.7373, "monthlyEstimateKRW": 1515197685, "salesPercentile": 93.4}, {"sangwonCode": 3130056, "sangwonName": "용산용문시장", "gu": "용산구", "lat": 37.53643776809258, "lon": 126.96020703642986, "survivalProbability": 0.7373, "monthlyEstimateKRW": 745853741, "salesPercentile": 68.8}, {"sangwonCode": 3110744, "sangwonName": "독산동성당", "gu": "금천구", "lat": 37.47067726744691, "lon": 126.90418270467585, "survivalProbability": 0.7373, "monthlyEstimateKRW": 1480766933, "salesPercentile": 92.9}, {"sangwonCode": 3110396, "sangwonName": "쌍문역1번(쌍리단길)", "gu": "도봉구", "lat": 37.64828798329227, "lon": 127.03646447195635, "survivalProbability": 0.7373, "monthlyEstimateKRW": 352553926, "salesPercentile": 11.2}, {"sangwonCode": 3110205, "sangwonName": "경희대삼거리", "gu": "동대문구", "lat": 37.59099765389255, "lon": 127.0513258738915, "survivalProbability": 0.7373, "monthlyEstimateKRW": 449556096, "salesPercentile": 32.7}, {"sangwonCode": 3120021, "sangwonName": "시청역_8번", "gu": "중구", "lat": 37.561759723268, "lon": 126.97423957068088, "survivalProbability": 0.7373, "monthlyEstimateKRW": 491315099, "salesPercentile": 41.1}, {"sangwonCode": 3130057, "sangwonName": "만리시장", "gu": "용산구", "lat": 37.55130537483099, "lon": 126.96367336291168, "survivalProbability": 0.7373, "monthlyEstimateKRW": 1474534540, "salesPercentile": 92.4}, {"sangwonCode": 3120171, "sangwonName": "서초3동사거리", "gu": "서초구", "lat": 37.48268994804575, "lon": 127.01176991309515, "survivalProbability": 0.7373, "monthlyEstimateKRW": 1130766287, "salesPercentile": 83.8}, {"sangwonCode": 3111013, "sangwonName": "송파나루역 1번(송리단길)", "gu": "송파구", "lat": 37.509382852628754, "lon": 127.10820636509024, "survivalProbability": 0.7373, "monthlyEstimateKRW": 570824348, "salesPercentile": 52.0}, {"sangwonCode": 3130059, "sangwonName": "후암시장", "gu": "용산구", "lat": 37.55011025033981, "lon": 126.97626923912605, "survivalProbability": 0.7373, "monthlyEstimateKRW": 1549166277, "salesPercentile": 94.1}, {"sangwonCode": 3110397, "sangwonName": "도봉산입구", "gu": "도봉구", "lat": 37.684497981920416, "lon": 127.03777459924743, "survivalProbability": 0.7373, "monthlyEstimateKRW": 1260329072, "salesPercentile": 87.7}, {"sangwonCode": 3110203, "sangwonName": "떡전교사거리", "gu": "동대문구", "lat": 37.58492619031005, "lon": 127.04842332523857, "survivalProbability": 0.7373, "monthlyEstimateKRW": 390484843, "salesPercentile": 18.4}, {"sangwonCode": 3111012, "sangwonName": "석촌역 6번", "gu": "송파구", "lat": 37.50219517719213, "lon": 127.10561747375874, "survivalProbability": 0.7373, "monthlyEstimateKRW": 581855877, "salesPercentile": 53.8}, {"sangwonCode": 3120170, "sangwonName": "삼호가든사거리", "gu": "서초구", "lat": 37.502142774318706, "lon": 127.01094738816995, "survivalProbability": 0.7373, "monthlyEstimateKRW": 730014865, "salesPercentile": 67.8}, {"sangwonCode": 3110202, "sangwonName": "전농1동주민센터(전농시장)", "gu": "동대문구", "lat": 37.57711496364349, "lon": 127.04746733493131, "survivalProbability": 0.7373, "monthlyEstimateKRW": 403682990, "salesPercentile": 21.3}, {"sangwonCode": 3120022, "sangwonName": "북창동(시청역_6번)", "gu": "중구", "lat": 37.56302181255746, "lon": 126.97764599900339, "survivalProbability": 0.7373, "monthlyEstimateKRW": 709683520, "salesPercentile": 65.9}, {"sangwonCode": 3110654, "sangwonName": "까치산역 4번", "gu": "강서구", "lat": 37.53303109083655, "lon": 126.8412427376533, "survivalProbability": 0.7373, "monthlyEstimateKRW": 599588593, "salesPercentile": 56.5}, {"sangwonCode": 3120169, "sangwonName": "서초역", "gu": "서초구", "lat": 37.49146604063206, "lon": 127.0085938332724, "survivalProbability": 0.7373, "monthlyEstimateKRW": 522141920, "salesPercentile": 45.1}, {"sangwonCode": 3111011, "sangwonName": "잠실나루역", "gu": "송파구", "lat": 37.52106332251792, "lon": 127.10435448058153, "survivalProbability": 0.7373, "monthlyEstimateKRW": 1070547470, "salesPercentile": 82.0}, {"sangwonCode": 3130064, "sangwonName": "금남시장", "gu": "성동구", "lat": 37.54854279302089, "lon": 127.02229309489861, "survivalProbability": 0.7373, "monthlyEstimateKRW": 615317864, "salesPercentile": 58.7}, {"sangwonCode": 3110199, "sangwonName": "홍릉시장", "gu": "동대문구", "lat": 37.58473921335797, "lon": 127.04263778068552, "survivalProbability": 0.7373, "monthlyEstimateKRW": 306302162, "salesPercentile": 4.4}, {"sangwonCode": 3110198, "sangwonName": "동대문중앙새마을금고본점", "gu": "동대문구", "lat": 37.58246880047867, "lon": 127.04238741447575, "survivalProbability": 0.7373, "monthlyEstimateKRW": 306302162, "salesPercentile": 4.4}, {"sangwonCode": 3110745, "sangwonName": "독산동정훈단지", "gu": "금천구", "lat": 37.46594683806725, "lon": 126.90403048852814, "survivalProbability": 0.7373, "monthlyEstimateKRW": 410785312, "salesPercentile": 22.9}, {"sangwonCode": 3110398, "sangwonName": "쌍문2동우체국", "gu": "도봉구", "lat": 37.654891974674136, "lon": 127.03714764587913, "survivalProbability": 0.7373, "monthlyEstimateKRW": 501930657, "salesPercentile": 42.2}, {"sangwonCode": 3130065, "sangwonName": "무학봉상점가", "gu": "성동구", "lat": 37.56179460093203, "lon": 127.0306273084275, "survivalProbability": 0.7373, "monthlyEstimateKRW": 609666678, "salesPercentile": 57.9}, {"sangwonCode": 3110195, "sangwonName": "동대문구청", "gu": "동대문구", "lat": 37.57615342395652, "lon": 127.04070840517555, "survivalProbability": 0.7373, "monthlyEstimateKRW": 492158543, "salesPercentile": 41.3}, {"sangwonCode": 3111010, "sangwonName": "석촌역 7번", "gu": "송파구", "lat": 37.5054062634517, "lon": 127.10161833772673, "survivalProbability": 0.7373, "monthlyEstimateKRW": 938981694, "salesPercentile": 77.9}, {"sangwonCode": 3120023, "sangwonName": "서울시청", "gu": "중구", "lat": 37.56803140163849, "lon": 126.97791616374444, "survivalProbability": 0.7373, "monthlyEstimateKRW": 425246959, "salesPercentile": 26.3}, {"sangwonCode": 3130066, "sangwonName": "행당시장상점가", "gu": "성동구", "lat": 37.56119020691093, "lon": 127.0333094753789, "survivalProbability": 0.7373, "monthlyEstimateKRW": 715540668, "salesPercentile": 66.5}, {"sangwonCode": 3110399, "sangwonName": "창2동주민센터", "gu": "도봉구", "lat": 37.64157479754697, "lon": 127.03913516200645, "survivalProbability": 0.7373, "monthlyEstimateKRW": 588321241, "salesPercentile": 54.1}, {"sangwonCode": 3110194, "sangwonName": "홍파초등학교", "gu": "동대문구", "lat": 37.584595916352306, "lon": 127.04018087997777, "survivalProbability": 0.7373, "monthlyEstimateKRW": 350090864, "salesPercentile": 11.0}, {"sangwonCode": 3110653, "sangwonName": "화곡역 2번", "gu": "강서구", "lat": 37.54464527300884, "lon": 126.8414670572051, "survivalProbability": 0.7373, "monthlyEstimateKRW": 362079316, "salesPercentile": 13.0}, {"sangwonCode": 3120167, "sangwonName": "고속터미널(고속터미널역)", "gu": "서초구", "lat": 37.50505341252054, "lon": 127.00525902182616, "survivalProbability": 0.7373, "monthlyEstimateKRW": 1069485857, "salesPercentile": 81.9}, {"sangwonCode": 3130067, "sangwonName": "왕십리도선동상점가", "gu": "성동구", "lat": 37.564235292738104, "lon": 127.03429555496496, "survivalProbability": 0.7373, "monthlyEstimateKRW": 580356434, "salesPercentile": 53.3}, {"sangwonCode": 3110192, "sangwonName": "동의보감타워", "gu": "동대문구", "lat": 37.577289770260045, "lon": 127.03740339685274, "survivalProbability": 0.7373, "monthlyEstimateKRW": 395307812, "salesPercentile": 19.6}, {"sangwonCode": 3110652, "sangwonName": "양천향교역 2번", "gu": "강서구", "lat": 37.570889053094895, "lon": 126.83980405551263, "survivalProbability": 0.7373, "monthlyEstimateKRW": 364185053, "salesPercentile": 13.5}, {"sangwonCode": 3111008, "sangwonName": "석촌고분역 3번", "gu": "송파구", "lat": 37.49998331948502, "lon": 127.1003217674192, "survivalProbability": 0.7373, "monthlyEstimateKRW": 338464033, "salesPercentile": 8.9}, {"sangwonCode": 3120024, "sangwonName": "회현역", "gu": "중구", "lat": 37.55733676970219, "lon": 126.97899449435097, "survivalProbability": 0.7373, "monthlyEstimateKRW": 692458945, "salesPercentile": 64.3}, {"sangwonCode": 3130068, "sangwonName": "마장축산물시장", "gu": "성동구", "lat": 37.570567751412995, "lon": 127.0392451335414, "survivalProbability": 0.7373, "monthlyEstimateKRW": 1062619848, "salesPercentile": 81.8}, {"sangwonCode": 3110191, "sangwonName": "고려대역 6번", "gu": "동대문구", "lat": 37.58771469603436, "lon": 127.03601597985491, "survivalProbability": 0.7373, "monthlyEstimateKRW": 293246636, "salesPercentile": 3.2}, {"sangwonCode": 3120166, "sangwonName": "방배역", "gu": "서초구", "lat": 37.48166335251674, "lon": 126.99726390009168, "survivalProbability": 0.7373, "monthlyEstimateKRW": 986335087, "salesPercentile": 79.4}, {"sangwonCode": 3110401, "sangwonName": "도봉구민회관", "gu": "도봉구", "lat": 37.655008347922056, "lon": 127.03947085180751, "survivalProbability": 0.7373, "monthlyEstimateKRW": 347273335, "salesPercentile": 10.4}, {"sangwonCode": 3110748, "sangwonName": "백산초등학교", "gu": "금천구", "lat": 37.44853971878937, "lon": 126.90457258515943, "survivalProbability": 0.7373, "monthlyEstimateKRW": 401632258, "salesPercentile": 20.9}, {"sangwonCode": 3110402, "sangwonName": "도봉구 정병원", "gu": "도봉구", "lat": 37.6617477362968, "lon": 127.03933841839088, "survivalProbability": 0.7373, "monthlyEstimateKRW": 416556361, "salesPercentile": 24.3}, {"sangwonCode": 3120025, "sangwonName": "롯데백화점(시청광장 지하쇼핑센터)", "gu": "중구", "lat": 37.56500454898951, "lon": 126.98073543386651, "survivalProbability": 0.7373, "monthlyEstimateKRW": 913938257, "salesPercentile": 76.9}, {"sangwonCode": 3110651, "sangwonName": "화원중학교", "gu": "강서구", "lat": 37.53644305357173, "lon": 126.83915364557924, "survivalProbability": 0.7373, "monthlyEstimateKRW": 925070334, "salesPercentile": 77.3}, {"sangwonCode": 3110188, "sangwonName": "용두동신동아아파트", "gu": "동대문구", "lat": 37.57211950664692, "lon": 127.0325219523249, "survivalProbability": 0.7373, "monthlyEstimateKRW": 445059629, "salesPercentile": 31.7}, {"sangwonCode": 3110403, "sangwonName": "방학1동주민센터", "gu": "도봉구", "lat": 37.66485586862868, "lon": 127.0400880977698, "survivalProbability": 0.7373, "monthlyEstimateKRW": 711629767, "salesPercentile": 66.2}, {"sangwonCode": 3111007, "sangwonName": "석촌고분역 4번", "gu": "송파구", "lat": 37.499943567584296, "lon": 127.09387561308928, "survivalProbability": 0.7373, "monthlyEstimateKRW": 494567799, "salesPercentile": 41.4}, {"sangwonCode": 3130070, "sangwonName": "뚝섬역상점가", "gu": "성동구", "lat": 37.548444588661376, "lon": 127.04910132457829, "survivalProbability": 0.7373, "monthlyEstimateKRW": 1118922757, "salesPercentile": 83.4}, {"sangwonCode": 3110749, "sangwonName": "금산초등학교(금천고등학교)", "gu": "금천구", "lat": 37.44205287827401, "lon": 126.90514583518677, "survivalProbability": 0.7373, "monthlyEstimateKRW": 463367803, "salesPercentile": 36.9}, {"sangwonCode": 3120165, "sangwonName": "서래마을카페거리(서래마을)", "gu": "서초구", "lat": 37.498079728383495, "lon": 126.99807752566676, "survivalProbability": 0.7373, "monthlyEstimateKRW": 576365314, "salesPercentile": 53.0}, {"sangwonCode": 3130072, "sangwonName": "성동용답상가시장", "gu": "성동구", "lat": 37.56397605579394, "lon": 127.05309567240342, "survivalProbability": 0.7373, "monthlyEstimateKRW": 1393511379, "salesPercentile": 90.7}, {"sangwonCode": 3120026, "sangwonName": "을지로입구역", "gu": "중구", "lat": 37.56741061226832, "lon": 126.98339481342215, "survivalProbability": 0.7373, "monthlyEstimateKRW": 527015780, "salesPercentile": 46.0}, {"sangwonCode": 3110185, "sangwonName": "용두초등학교", "gu": "동대문구", "lat": 37.57449895224492, "lon": 127.0293986069025, "survivalProbability": 0.7373, "monthlyEstimateKRW": 402131588, "salesPercentile": 21.0}, {"sangwonCode": 3110186, "sangwonName": "종암초등학교", "gu": "동대문구", "lat": 37.58187782946985, "lon": 127.03044307101194, "survivalProbability": 0.7373, "monthlyEstimateKRW": 435344354, "salesPercentile": 29.1}, {"sangwonCode": 3120164, "sangwonName": "내방역", "gu": "서초구", "lat": 37.48818651312079, "lon": 126.9936227499084, "survivalProbability": 0.7373, "monthlyEstimateKRW": 1192126478, "salesPercentile": 86.0}, {"sangwonCode": 3110404, "sangwonName": "신창초등학교", "gu": "도봉구", "lat": 37.63624951166753, "lon": 127.04051457750556, "survivalProbability": 0.7373, "monthlyEstimateKRW": 1165113839, "salesPercentile": 85.1}, {"sangwonCode": 3111006, "sangwonName": "석촌고분역 1번", "gu": "송파구", "lat": 37.50490803067036, "lon": 127.09397230648412, "survivalProbability": 0.7373, "monthlyEstimateKRW": 1706102675, "salesPercentile": 95.6}, {"sangwonCode": 3120163, "sangwonName": "사당역 11번(사당역먹자골목)", "gu": "서초구", "lat": 37.47941000949856, "lon": 126.98581114766932, "survivalProbability": 0.7373, "monthlyEstimateKRW": 508322005, "salesPercentile": 43.1}, {"sangwonCode": 3110649, "sangwonName": "우장산역 1번", "gu": "강서구", "lat": 37.55298352357683, "lon": 126.83779402108571, "survivalProbability": 0.7373, "monthlyEstimateKRW": 335484630, "salesPercentile": 8.3}, {"sangwonCode": 3130073, "sangwonName": "뚝도시장", "gu": "성동구", "lat": 37.53821587578757, "lon": 127.05450305757522, "survivalProbability": 0.7373, "monthlyEstimateKRW": 1393917083, "salesPercentile": 90.9}, {"sangwonCode": 3110750, "sangwonName": "시흥4동주민센터(서울신흥초등학교)", "gu": "금천구", "lat": 37.45774067716475, "lon": 126.90659536161563, "survivalProbability": 0.7373, "monthlyEstimateKRW": 464828008, "salesPercentile": 37.1}, {"sangwonCode": 3130074, "sangwonName": "영동교골목시장", "gu": "광진구", "lat": 37.53816614249563, "lon": 127.06384898175953, "survivalProbability": 0.7373, "monthlyEstimateKRW": 482470539, "salesPercentile": 39.4}, {"sangwonCode": 3120162, "sangwonName": "방배동카페골목", "gu": "서초구", "lat": 37.495754294560726, "lon": 126.98580805606072, "survivalProbability": 0.7373, "monthlyEstimateKRW": 831668595, "salesPercentile": 73.4}, {"sangwonCode": 3110405, "sangwonName": "방학역 1번", "gu": "도봉구", "lat": 37.66914421552273, "lon": 127.04101983972981, "survivalProbability": 0.7373, "monthlyEstimateKRW": 1350025170, "salesPercentile": 90.2}, {"sangwonCode": 3120027, "sangwonName": "명동역(명동재미로)", "gu": "중구", "lat": 37.55977021816383, "lon": 126.98379263879171, "survivalProbability": 0.7373, "monthlyEstimateKRW": 796687097, "salesPercentile": 71.8}, {"sangwonCode": 3120161, "sangwonName": "방배동가구거리(사당동가구거리)", "gu": "서초구", "lat": 37.49497011583308, "lon": 126.9834787145183, "survivalProbability": 0.7373, "monthlyEstimateKRW": 559864793, "salesPercentile": 50.9}, {"sangwonCode": 3110751, "sangwonName": "난곡중학교", "gu": "금천구", "lat": 37.478094765834626, "lon": 126.90692050938276, "survivalProbability": 0.7373, "monthlyEstimateKRW": 420397282, "salesPercentile": 25.0}, {"sangwonCode": 3111005, "sangwonName": "삼전역 3번", "gu": "송파구", "lat": 37.501461266767535, "lon": 127.08868660012052, "survivalProbability": 0.7373, "monthlyEstimateKRW": 691609786, "salesPercentile": 64.1}, {"sangwonCode": 3110177, "sangwonName": "동의초등학교", "gu": "광진구", "lat": 37.55244391167489, "lon": 127.09516364702064, "survivalProbability": 0.7373, "monthlyEstimateKRW": 394213643, "salesPercentile": 19.4}, {"sangwonCode": 3130081, "sangwonName": "자양골목전통시장(자양골목시장)", "gu": "광진구", "lat": 37.534264211958636, "lon": 127.0796628112492, "survivalProbability": 0.7373, "monthlyEstimateKRW": 1266429325, "salesPercentile": 87.9}, {"sangwonCode": 3110406, "sangwonName": "도봉산역 1번", "gu": "도봉구", "lat": 37.68982127455393, "lon": 127.04215366082332, "survivalProbability": 0.7373, "monthlyEstimateKRW": 302186617, "salesPercentile": 4.0}, {"sangwonCode": 3110176, "sangwonName": "해오름공원", "gu": "광진구", "lat": 37.557816247579865, "lon": 127.09214865556346, "survivalProbability": 0.7373, "monthlyEstimateKRW": 442925523, "salesPercentile": 31.3}, {"sangwonCode": 3120160, "sangwonName": "사당역(사당)", "gu": "서초구", "lat": 37.47752639125283, "lon": 126.98206935862181, "survivalProbability": 0.7373, "monthlyEstimateKRW": 1037945384, "salesPercentile": 81.2}, {"sangwonCode": 3130083, "sangwonName": "중곡제일시장(중곡제일골목시장, 광성시장)", "gu": "광진구", "lat": 37.56381589690654, "lon": 127.08122227894687, "survivalProbability": 0.7373, "monthlyEstimateKRW": 1183652202, "salesPercentile": 85.9}, {"sangwonCode": 3110175, "sangwonName": "푸른동산공원", "gu": "광진구", "lat": 37.541166562279685, "lon": 127.0911663709489, "survivalProbability": 0.7373, "monthlyEstimateKRW": 393839259, "salesPercentile": 19.0}, {"sangwonCode": 3110752, "sangwonName": "한울중학교", "gu": "금천구", "lat": 37.46170696090743, "lon": 126.90894149141734, "survivalProbability": 0.7373, "monthlyEstimateKRW": 508693513, "salesPercentile": 43.2}, {"sangwonCode": 3110407, "sangwonName": "도봉역 2번", "gu": "도봉구", "lat": 37.675496140869164, "lon": 127.04096665862696, "survivalProbability": 0.7373, "monthlyEstimateKRW": 1100875359, "salesPercentile": 82.9}, {"sangwonCode": 3130084, "sangwonName": "신성시장(신성골목시장)", "gu": "광진구", "lat": 37.55799920934066, "lon": 127.08853852877327, "survivalProbability": 0.7373, "monthlyEstimateKRW": 858184480, "salesPercentile": 74.9}, {"sangwonCode": 3130086, "sangwonName": "서울약령시장", "gu": "동대문구", "lat": 37.58210104091711, "lon": 127.0375190174434, "survivalProbability": 0.7373, "monthlyEstimateKRW": 1326042544, "salesPercentile": 89.7}, {"sangwonCode": 3120028, "sangwonName": "명동(명동거리)", "gu": "중구", "lat": 37.56278854470051, "lon": 126.98370143738255, "survivalProbability": 0.7373, "monthlyEstimateKRW": 1934671136, "salesPercentile": 98.1}, {"sangwonCode": 3110174, "sangwonName": "아차산역 1번", "gu": "광진구", "lat": 37.55541144781092, "lon": 127.0910365963174, "survivalProbability": 0.7373, "monthlyEstimateKRW": 415467826, "salesPercentile": 23.9}, {"sangwonCode": 3110647, "sangwonName": "화곡역 5번", "gu": "강서구", "lat": 37.5386573219103, "lon": 126.8375535045462, "survivalProbability": 0.7373, "monthlyEstimateKRW": 688657161, "salesPercentile": 64.0}, {"sangwonCode": 3111004, "sangwonName": "삼전역 1번", "gu": "송파구", "lat": 37.50671672745682, "lon": 127.08515279573975, "survivalProbability": 0.7373, "monthlyEstimateKRW": 1192776551, "salesPercentile": 86.1}, {"sangwonCode": 3110408, "sangwonName": "가인초등학교", "gu": "도봉구", "lat": 37.65879177963506, "lon": 127.04149012943236, "survivalProbability": 0.7373, "monthlyEstimateKRW": 312420742, "salesPercentile": 5.5}, {"sangwonCode": 3120159, "sangwonName": "서울대입구역", "gu": "관악구", "lat": 37.48095081268923, "lon": 126.95191519812431, "survivalProbability": 0.7373, "monthlyEstimateKRW": 987134272, "salesPercentile": 79.5}, {"sangwonCode": 3110173, "sangwonName": "구남초등학교", "gu": "광진구", "lat": 37.53546343842295, "lon": 127.09089919867607, "survivalProbability": 0.7373, "monthlyEstimateKRW": 390462194, "salesPercentile": 18.3}, {"sangwonCode": 3110409, "sangwonName": "창동역 2번", "gu": "도봉구", "lat": 37.65508805919096, "lon": 127.0433919186031, "survivalProbability": 0.7373, "monthlyEstimateKRW": 332517511, "salesPercentile": 7.8}, {"sangwonCode": 3110172, "sangwonName": "광진초등학교", "gu": "광진구", "lat": 37.5470873761971, "lon": 127.08953275126271, "survivalProbability": 0.7373, "monthlyEstimateKRW": 428658268, "salesPercentile": 27.2}, {"sangwonCode": 3110753, "sangwonName": "시흥동 은행나무사거리", "gu": "금천구", "lat": 37.448849129363595, "lon": 126.90844852214423, "survivalProbability": 0.7373, "monthlyEstimateKRW": 596448470, "salesPercentile": 55.6}, {"sangwonCode": 3130091, "sangwonName": "청량종합도매시장", "gu": "동대문구", "lat": 37.58216306814205, "lon": 127.04066639168124, "survivalProbability": 0.7373, "monthlyEstimateKRW": 458712932, "salesPercentile": 35.6}, {"sangwonCode": 3120158, "sangwonName": "녹두거리(대학동)", "gu": "관악구", "lat": 37.47031189276306, "lon": 126.93701139594275, "survivalProbability": 0.7373, "monthlyEstimateKRW": 821798444, "salesPercentile": 72.9}, {"sangwonCode": 3130092, "sangwonName": "청량리농수산물시장", "gu": "동대문구", "lat": 37.580766540009925, "lon": 127.04063166858508, "survivalProbability": 0.7373, "monthlyEstimateKRW": 570339694, "salesPercentile": 51.9}, {"sangwonCode": 3110410, "sangwonName": "방학역 2번", "gu": "도봉구", "lat": 37.66910685916636, "lon": 127.04464688230316, "survivalProbability": 0.7373, "monthlyEstimateKRW": 408490840, "salesPercentile": 22.0}, {"sangwonCode": 3110170, "sangwonName": "동대부여고", "gu": "광진구", "lat": 37.54176314249194, "lon": 127.08864379358764, "survivalProbability": 0.7373, "monthlyEstimateKRW": 415708363, "salesPercentile": 24.0}, {"sangwonCode": 3130094, "sangwonName": "청량리청과물시장", "gu": "동대문구", "lat": 37.57992785188444, "lon": 127.0427935313661, "survivalProbability": 0.7373, "monthlyEstimateKRW": 596031638, "salesPercentile": 55.5}, {"sangwonCode": 3111003, "sangwonName": "삼전역 4번", "gu": "송파구", "lat": 37.504276899620265, "lon": 127.0824809580479, "survivalProbability": 0.7373, "monthlyEstimateKRW": 554554684, "salesPercentile": 50.3}, {"sangwonCode": 3130095, "sangwonName": "청량리전통시장", "gu": "동대문구", "lat": 37.58190077942744, "lon": 127.04347394090428, "survivalProbability": 0.7373, "monthlyEstimateKRW": 376999351, "salesPercentile": 15.4}, {"sangwonCode": 3110169, "sangwonName": "성동초등학교", "gu": "광진구", "lat": 37.532573346901124, "lon": 127.08810116387241, "survivalProbability": 0.7373, "monthlyEstimateKRW": 283687859, "salesPercentile": 2.4}, {"sangwonCode": 3120030, "sangwonName": "중부경찰서(영화인의거리)", "gu": "중구", "lat": 37.5627892721598, "lon": 126.9903114098835, "survivalProbability": 0.7373, "monthlyEstimateKRW": 635327349, "salesPercentile": 60.6}, {"sangwonCode": 3110646, "sangwonName": "푸른들청소년도서관", "gu": "강서구", "lat": 37.54405127997964, "lon": 126.83536920594427, "survivalProbability": 0.7373, "monthlyEstimateKRW": 393841694, "salesPercentile": 19.1}, {"sangwonCode": 3130097, "sangwonName": "답십리 건축자재시장", "gu": "동대문구", "lat": 37.567912985683684, "lon": 127.05402664285535, "survivalProbability": 0.7373, "monthlyEstimateKRW": 333541656, "salesPercentile": 8.0}, {"sangwonCode": 3110168, "sangwonName": "대원고등학교", "gu": "광진구", "lat": 37.563261633023764, "lon": 127.0877298231472, "survivalProbability": 0.7373, "monthlyEstimateKRW": 399517731, "salesPercentile": 20.2}, {"sangwonCode": 3120157, "sangwonName": "신림역(신림)", "gu": "관악구", "lat": 37.484724238201885, "lon": 126.93023791719077, "survivalProbability": 0.7373, "monthlyEstimateKRW": 2038001927, "salesPercentile": 98.6}, {"sangwonCode": 3130098, "sangwonName": "회기시장", "gu": "동대문구", "lat": 37.59108583569478, "lon": 127.05556063508617, "survivalProbability": 0.7373, "monthlyEstimateKRW": 524083334, "salesPercentile": 45.6}, {"sangwonCode": 3110413, "sangwonName": "누원고등학교", "gu": "도봉구", "lat": 37.68360246074166, "lon": 127.04759179455192, "survivalProbability": 0.7373, "monthlyEstimateKRW": 283303572, "salesPercentile": 2.3}, {"sangwonCode": 3110754, "sangwonName": "삼성산자연공원(서울금천초등학교)", "gu": "금천구", "lat": 37.453237704979706, "lon": 126.90927951506106, "survivalProbability": 0.7373, "monthlyEstimateKRW": 526973797, "salesPercentile": 45.9}, {"sangwonCode": 3111000, "sangwonName": "대왕초등학교(세곡동사거리서남측)", "gu": "강남구", "lat": 37.46355871743175, "lon": 127.10697603547517, "survivalProbability": 0.7373, "monthlyEstimateKRW": 536094682, "salesPercentile": 47.2}, {"sangwonCode": 3110167, "sangwonName": "용마초등학교", "gu": "광진구", "lat": 37.557956025147156, "lon": 127.08601462792421, "survivalProbability": 0.7373, "monthlyEstimateKRW": 410306770, "salesPercentile": 22.8}, {"sangwonCode": 3120031, "sangwonName": "을지로3가역", "gu": "중구", "lat": 37.56623117746982, "lon": 126.99161264533976, "survivalProbability": 0.7373, "monthlyEstimateKRW": 1442337879, "salesPercentile": 91.9}, {"sangwonCode": 3130100, "sangwonName": "답십리시장", "gu": "동대문구", "lat": 37.573614303291755, "lon": 127.05819655188141, "survivalProbability": 0.7373, "monthlyEstimateKRW": 593408661, "salesPercentile": 55.1}, {"sangwonCode": 3110999, "sangwonName": "윗방죽마을공원", "gu": "강남구", "lat": 37.47158947606482, "lon": 127.10388999835395, "survivalProbability": 0.7373, "monthlyEstimateKRW": 590673989, "salesPercentile": 54.5}, {"sangwonCode": 3110755, "sangwonName": "동일여자고등학교", "gu": "금천구", "lat": 37.45088873344512, "lon": 126.91283104206283, "survivalProbability": 0.7373, "monthlyEstimateKRW": 482805743, "salesPercentile": 39.6}, {"sangwonCode": 3130101, "sangwonName": "답십리현대시장", "gu": "동대문구", "lat": 37.567018914391745, "lon": 127.05840648298727, "survivalProbability": 0.7373, "monthlyEstimateKRW": 733959395, "salesPercentile": 68.1}, {"sangwonCode": 3120156, "sangwonName": "총신대입구역(이수, 총신대)", "gu": "동작구", "lat": 37.48599581916168, "lon": 126.98170551541705, "survivalProbability": 0.7373, "monthlyEstimateKRW": 1535816084, "salesPercentile": 93.8}, {"sangwonCode": 3110998, "sangwonName": "은곡마을(은곡마을공원)", "gu": "강남구", "lat": 37.46667503304304, "lon": 127.09794863113454, "survivalProbability": 0.7373, "monthlyEstimateKRW": 1156218840, "salesPercentile": 84.9}, {"sangwonCode": 3130103, "sangwonName": "이경시장", "gu": "동대문구", "lat": 37.59470238801467, "lon": 127.06610529431995, "survivalProbability": 0.7373, "monthlyEstimateKRW": 539790263, "salesPercentile": 47.7}, {"sangwonCode": 3130104, "sangwonName": "전곡시장", "gu": "동대문구", "lat": 37.57754600063627, "lon": 127.06870520080007, "survivalProbability": 0.7373, "monthlyEstimateKRW": 1478761775, "salesPercentile": 92.8}, {"sangwonCode": 3110166, "sangwonName": "구의1동주민센터", "gu": "광진구", "lat": 37.54099058656442, "lon": 127.08551989838477, "survivalProbability": 0.7373, "monthlyEstimateKRW": 503742486, "salesPercentile": 42.4}, {"sangwonCode": 3130106, "sangwonName": "중랑동부시장", "gu": "중랑구", "lat": 37.592353303829555, "lon": 127.07684866751778, "survivalProbability": 0.7373, "monthlyEstimateKRW": 563880808, "salesPercentile": 51.2},