{"industryCode": "CS300029", "industryName": "애완동물", "dataAsOf": "2026-Q1", "survivalGranularity": "seoul_industry", "cells": [{"sangwonCode": 3110422, "sangwonName": "노원역 9번", "gu": "노원구", "lat": 37.65916053762221, "lon": 127.06323847595549, "survivalProbability": 0.6752, "monthlyEstimateKRW": 62068778, "salesPercentile": 6.1}, {"sangwonCode": 3120058, "sangwonName": "구의사거리", "gu": "광진구", "lat": 37.544493709236626, "lon": 127.0879228233173, "survivalProbability": 0.6752, "monthlyEstimateKRW": 92767865, "salesPercentile": 47.6}, {"sangwonCode": 3120236, "sangwonName": "장지역(가든파이브)", "gu": "송파구", "lat": 37.47804006486017, "lon": 127.12329941653981, "survivalProbability": 0.6752, "monthlyEstimateKRW": 291639874, "salesPercentile": 91.5}, {"sangwonCode": 3130241, "sangwonName": "선유도역 골목형상점가", "gu": "영등포구", "lat": 37.53567755719719, "lon": 126.89563647290072, "survivalProbability": 0.6752, "monthlyEstimateKRW": 83052413, "salesPercentile": 35.4}, {"sangwonCode": 3110254, "sangwonName": "오거리공원", "gu": "중랑구", "lat": 37.57668988738031, "lon": 127.08299094516109, "survivalProbability": 0.6752, "monthlyEstimateKRW": 71168194, "salesPercentile": 18.3}, {"sangwonCode": 3110255, "sangwonName": "상봉역 4번", "gu": "중랑구", "lat": 37.593691768235416, "lon": 127.0827833599205, "survivalProbability": 0.6752, "monthlyEstimateKRW": 70810722, "salesPercentile": 13.4}, {"sangwonCode": 3120174, "sangwonName": "논현역 5번", "gu": "서초구", "lat": 37.510602546601746, "lon": 127.01664914657664, "survivalProbability": 0.6752, "monthlyEstimateKRW": 97164528, "salesPercentile": 54.9}, {"sangwonCode": 3120113, "sangwonName": "오목교역", "gu": "양천구", "lat": 37.524006475648484, "lon": 126.87396651909376, "survivalProbability": 0.6752, "monthlyEstimateKRW": 205252494, "salesPercentile": 82.9}, {"sangwonCode": 3110507, "sangwonName": "명지대학교", "gu": "서대문구", "lat": 37.57877697431512, "lon": 126.92570116141647, "survivalProbability": 0.6752, "monthlyEstimateKRW": 77656390, "salesPercentile": 29.3}, {"sangwonCode": 3110473, "sangwonName": "구산역 1번", "gu": "은평구", "lat": 37.6127051698786, "lon": 126.92087651968289, "survivalProbability": 0.6752, "monthlyEstimateKRW": 70729033, "salesPercentile": 11.0}, {"sangwonCode": 3110128, "sangwonName": "성원중학교", "gu": "성동구", "lat": 37.53816384184272, "lon": 127.04992055728603, "survivalProbability": 0.6752, "monthlyEstimateKRW": 88441877, "salesPercentile": 40.2}, {"sangwonCode": 3120003, "sangwonName": "광화문역", "gu": "종로구", "lat": 37.57196808426292, "lon": 126.97459828971189, "survivalProbability": 0.6752, "monthlyEstimateKRW": 92802165, "salesPercentile": 48.8}, {"sangwonCode": 3111057, "sangwonName": "천호공원(해공체육문화센터)", "gu": "강동구", "lat": 37.54332876710307, "lon": 127.12987932321663, "survivalProbability": 0.6752, "monthlyEstimateKRW": 60695707, "salesPercentile": 4.9}, {"sangwonCode": 3120213, "sangwonName": "삼성중앙역", "gu": "강남구", "lat": 37.51155556604917, "lon": 127.05374846991917, "survivalProbability": 0.6752, "monthlyEstimateKRW": 184448943, "salesPercentile": 80.5}, {"sangwonCode": 3120221, "sangwonName": "봉은사역", "gu": "강남구", "lat": 37.51446155948791, "lon": 127.06239226670147, "survivalProbability": 0.6752, "monthlyEstimateKRW": 173923770, "salesPercentile": 78.0}, {"sangwonCode": 3111066, "sangwonName": "암사동성당(효정하나플러스아파트)", "gu": "강동구", "lat": 37.54923425244234, "lon": 127.1344048084421, "survivalProbability": 0.6752, "monthlyEstimateKRW": 97196977, "salesPercentile": 56.1}, {"sangwonCode": 3120208, "sangwonName": "청담사거리(청담동명품거리)", "gu": "강남구", "lat": 37.524829939190084, "lon": 127.04770569306329, "survivalProbability": 0.6752, "monthlyEstimateKRW": 257270698, "salesPercentile": 90.2}, {"sangwonCode": 3120207, "sangwonName": "선정릉역", "gu": "강남구", "lat": 37.511468934172726, "lon": 127.04549160322158, "survivalProbability": 0.6752, "monthlyEstimateKRW": 433292236, "salesPercentile": 95.1}, {"sangwonCode": 3120225, "sangwonName": "잠실새내역(신천)", "gu": "송파구", "lat": 37.51048475437836, "lon": 127.0825782728224, "survivalProbability": 0.6752, "monthlyEstimateKRW": 247641028, "salesPercentile": 89.0}, {"sangwonCode": 3111060, "sangwonName": "암사역 2번(서울강동초등학교)", "gu": "강동구", "lat": 37.54699551295604, "lon": 127.13016858602187, "survivalProbability": 0.6752, "monthlyEstimateKRW": 88590720, "salesPercentile": 41.5}, {"sangwonCode": 3110314, "sangwonName": "종암경찰서", "gu": "성북구", "lat": 37.60114052292245, "lon": 127.03238736566581, "survivalProbability": 0.6752, "monthlyEstimateKRW": 76296652, "salesPercentile": 26.8}, {"sangwonCode": 3120230, "sangwonName": "송파사거리(송파역)", "gu": "송파구", "lat": 37.50111869275051, "lon": 127.11030924458171, "survivalProbability": 0.6752, "monthlyEstimateKRW": 147807016, "salesPercentile": 74.4}, {"sangwonCode": 3110716, "sangwonName": "구로나눔길", "gu": "구로구", "lat": 37.49390980603042, "lon": 126.88879671563531, "survivalProbability": 0.6752, "monthlyEstimateKRW": 67969778, "salesPercentile": 8.5}, {"sangwonCode": 3120237, "sangwonName": "경찰병원역", "gu": "송파구", "lat": 37.49717102650773, "lon": 127.12080906154488, "survivalProbability": 0.6752, "monthlyEstimateKRW": 100072249, "salesPercentile": 59.8}, {"sangwonCode": 3120245, "sangwonName": "둔촌역", "gu": "강동구", "lat": 37.526339264817906, "lon": 127.13491805500612, "survivalProbability": 0.6752, "monthlyEstimateKRW": 95058843, "salesPercentile": 52.4}, {"sangwonCode": 3120186, "sangwonName": "가로수길", "gu": "강남구", "lat": 37.52077389382864, "lon": 127.0225789449648, "survivalProbability": 0.6752, "monthlyEstimateKRW": 229339354, "salesPercentile": 86.6}, {"sangwonCode": 3120185, "sangwonName": "논현역", "gu": "강남구", "lat": 37.51104318245634, "lon": 127.02189737579353, "survivalProbability": 0.6752, "monthlyEstimateKRW": 224406365, "salesPercentile": 84.1}, {"sangwonCode": 3111027, "sangwonName": "문정초등학교", "gu": "송파구", "lat": 37.48862354516316, "lon": 127.12648283683586, "survivalProbability": 0.6752, "monthlyEstimateKRW": 72050847, "salesPercentile": 20.7}, {"sangwonCode": 3110660, "sangwonName": "등촌3동주민센터", "gu": "강서구", "lat": 37.55832107704375, "lon": 126.84728936932454, "survivalProbability": 0.6752, "monthlyEstimateKRW": 69386347, "salesPercentile": 9.8}, {"sangwonCode": 3130018, "sangwonName": "동대문문구완구거리(동대문문구완구시장)", "gu": "종로구", "lat": 37.57142039698896, "lon": 127.0138553769603, "survivalProbability": 0.6752, "monthlyEstimateKRW": 227632266, "salesPercentile": 85.4}, {"sangwonCode": 3110376, "sangwonName": "수송초등학교", "gu": "강북구", "lat": 37.63939671921139, "lon": 127.03142958043486, "survivalProbability": 0.6752, "monthlyEstimateKRW": 58618331, "salesPercentile": 2.4}, {"sangwonCode": 3130024, "sangwonName": "남대문시장(자유상가)", "gu": "중구", "lat": 37.55957999880267, "lon": 126.97761307341452, "survivalProbability": 0.6752, "monthlyEstimateKRW": 1040077626, "salesPercentile": 98.8}, {"sangwonCode": 3120178, "sangwonName": "신사역", "gu": "서초구", "lat": 37.515963075171285, "lon": 127.01955735958383, "survivalProbability": 0.6752, "monthlyEstimateKRW": 128164203, "salesPercentile": 69.5}, {"sangwonCode": 3120177, "sangwonName": "신논현역 1번", "gu": "서초구", "lat": 37.50543027854698, "lon": 127.01988259526811, "survivalProbability": 0.6752, "monthlyEstimateKRW": 94074046, "salesPercentile": 50.0}, {"sangwonCode": 3111019, "sangwonName": "한성백제역 3번", "gu": "송파구", "lat": 37.5135634626904, "lon": 127.11767970969707, "survivalProbability": 0.6752, "monthlyEstimateKRW": 71081661, "salesPercentile": 17.1}, {"sangwonCode": 3120171, "sangwonName": "서초3동사거리", "gu": "서초구", "lat": 37.48268994804575, "lon": 127.01176991309515, "survivalProbability": 0.6752, "monthlyEstimateKRW": 105416758, "salesPercentile": 61.0}, {"sangwonCode": 3110654, "sangwonName": "까치산역 4번", "gu": "강서구", "lat": 37.53303109083655, "lon": 126.8412427376533, "survivalProbability": 0.6752, "monthlyEstimateKRW": 57638531, "salesPercentile": 1.2}, {"sangwonCode": 3111006, "sangwonName": "석촌고분역 1번", "gu": "송파구", "lat": 37.50490803067036, "lon": 127.09397230648412, "survivalProbability": 0.6752, "monthlyEstimateKRW": 71077660, "salesPercentile": 15.9}, {"sangwonCode": 3130073, "sangwonName": "뚝도시장", "gu": "성동구", "lat": 37.53821587578757, "lon": 127.05450305757522, "survivalProbability": 0.6752, "monthlyEstimateKRW": 92505828, "salesPercentile": 46.3}, {"sangwonCode": 3110405, "sangwonName": "방학역 1번", "gu": "도봉구", "lat": 37.66914421552273, "lon": 127.04101983972981, "survivalProbability": 0.6752, "monthlyEstimateKRW": 91989273, "salesPercentile": 45.1}, {"sangwonCode": 3111005, "sangwonName": "삼전역 3번", "gu": "송파구", "lat": 37.501461266767535, "lon": 127.08868660012052, "survivalProbability": 0.6752, "monthlyEstimateKRW": 71038113, "salesPercentile": 14.6}, {"sangwonCode": 3120160, "sangwonName": "사당역(사당)", "gu": "서초구", "lat": 37.47752639125283, "lon": 126.98206935862181, "survivalProbability": 0.6752, "monthlyEstimateKRW": 99589394, "salesPercentile": 58.5}, {"sangwonCode": 3110407, "sangwonName": "도봉역 2번", "gu": "도봉구", "lat": 37.675496140869164, "lon": 127.04096665862696, "survivalProbability": 0.6752, "monthlyEstimateKRW": 60287731, "salesPercentile": 3.7}, {"sangwonCode": 3110752, "sangwonName": "한울중학교", "gu": "금천구", "lat": 37.46170696090743, "lon": 126.90894149141734, "survivalProbability": 0.6752, "monthlyEstimateKRW": 77052653, "salesPercentile": 28.0}, {"sangwonCode": 3111004, "sangwonName": "삼전역 1번", "gu": "송파구", "lat": 37.50671672745682, "lon": 127.08515279573975, "survivalProbability": 0.6752, "monthlyEstimateKRW": 125660282, "salesPercentile": 67.1}, {"sangwonCode": 3110646, "sangwonName": "푸른들청소년도서관", "gu": "강서구", "lat": 37.54405127997964, "lon": 126.83536920594427, "survivalProbability": 0.6752, "monthlyEstimateKRW": 91819563, "salesPercentile": 43.9}, {"sangwonCode": 3120157, "sangwonName": "신림역(신림)", "gu": "관악구", "lat": 37.484724238201885, "lon": 126.93023791719077, "survivalProbability": 0.6752, "monthlyEstimateKRW": 123190107, "salesPercentile": 63.4}, {"sangwonCode": 3120156, "sangwonName": "총신대입구역(이수, 총신대)", "gu": "동작구", "lat": 37.48599581916168, "lon": 126.98170551541705, "survivalProbability": 0.6752, "monthlyEstimateKRW": 126734388, "salesPercentile": 68.3}, {"sangwonCode": 3130110, "sangwonName": "면목골목시장(면목시장)", "gu": "중랑구", "lat": 37.57866134278171, "lon": 127.08540447332199, "survivalProbability": 0.6752, "monthlyEstimateKRW": 82836837, "salesPercentile": 34.1}, {"sangwonCode": 3130112, "sangwonName": "사가정시장", "gu": "중랑구", "lat": 37.581279375362584, "lon": 127.09058127117551, "survivalProbability": 0.6752, "monthlyEstimateKRW": 97631370, "salesPercentile": 57.3}, {"sangwonCode": 3120145, "sangwonName": "영등포역(영등포)", "gu": "영등포구", "lat": 37.51843182609498, "lon": 126.90568269638135, "survivalProbability": 0.6752, "monthlyEstimateKRW": 238427567, "salesPercentile": 87.8}, {"sangwonCode": 3130146, "sangwonName": "쌍문시장(쌍문역골목시장)", "gu": "도봉구", "lat": 37.6482621596876, "lon": 127.0323284968481, "survivalProbability": 0.6752, "monthlyEstimateKRW": 141683272, "salesPercentile": 73.2}, {"sangwonCode": 3130147, "sangwonName": "쌍문역동측상점가", "gu": "도봉구", "lat": 37.64680180347365, "lon": 127.0350020228868, "survivalProbability": 0.6752, "monthlyEstimateKRW": 81143513, "salesPercentile": 30.5}, {"sangwonCode": 3110957, "sangwonName": "언북중학교", "gu": "강남구", "lat": 37.517690383667826, "lon": 127.03163863224623, "survivalProbability": 0.6752, "monthlyEstimateKRW": 1048398053, "salesPercentile": 100.0}, {"sangwonCode": 3110450, "sangwonName": "시립서북병원", "gu": "은평구", "lat": 37.60544380707197, "lon": 126.90920823667845, "survivalProbability": 0.6752, "monthlyEstimateKRW": 72739939, "salesPercentile": 22.0}, {"sangwonCode": 3110943, "sangwonName": "법제교육센터(버들어린이공원)", "gu": "서초구", "lat": 37.47347311339665, "lon": 127.0463842665295, "survivalProbability": 0.6752, "monthlyEstimateKRW": 75511375, "salesPercentile": 24.4}, {"sangwonCode": 3120131, "sangwonName": "가산디지털단지", "gu": "금천구", "lat": 37.47710029831843, "lon": 126.88288623812605, "survivalProbability": 0.6752, "monthlyEstimateKRW": 751792749, "salesPercentile": 96.3}, {"sangwonCode": 3110455, "sangwonName": "역촌노인복지관", "gu": "은평구", "lat": 37.60345508523692, "lon": 126.91247213883027, "survivalProbability": 0.6752, "monthlyEstimateKRW": 71289654, "salesPercentile": 19.5}, {"sangwonCode": 3110118, "sangwonName": "왕십리역 9번", "gu": "성동구", "lat": 37.55783774584384, "lon": 127.03587710019502, "survivalProbability": 0.6752, "monthlyEstimateKRW": 75997519, "salesPercentile": 25.6}, {"sangwonCode": 3110464, "sangwonName": "연신내역 5번", "gu": "은평구", "lat": 37.61717129604579, "lon": 126.91683948862, "survivalProbability": 0.6752, "monthlyEstimateKRW": 81927643, "salesPercentile": 31.7}, {"sangwonCode": 3130202, "sangwonName": "신영시장", "gu": "양천구", "lat": 37.532978552718, "lon": 126.83576690779837, "survivalProbability": 0.6752, "monthlyEstimateKRW": 141125887, "salesPercentile": 72.0}, {"sangwonCode": 3110804, "sangwonName": "신풍역 1번", "gu": "영등포구", "lat": 37.49952522564555, "lon": 126.9128197716422, "survivalProbability": 0.6752, "monthlyEstimateKRW": 70751765, "salesPercentile": 12.2}, {"sangwonCode": 3130213, "sangwonName": "방신전통시장", "gu": "강서구", "lat": 37.571632474906465, "lon": 126.81235201849918, "survivalProbability": 0.6752, "monthlyEstimateKRW": 84349491, "salesPercentile": 36.6}, {"sangwonCode": 3120055, "sangwonName": "군자역", "gu": "광진구", "lat": 37.55713177654428, "lon": 127.0793476213953, "survivalProbability": 0.6752, "monthlyEstimateKRW": 111721578, "salesPercentile": 62.2}, {"sangwonCode": 3130221, "sangwonName": "남부골목시장(남부화곡시장, 남부시장)", "gu": "강서구", "lat": 37.53307374754431, "lon": 126.86077051500729, "survivalProbability": 0.6752, "monthlyEstimateKRW": 87834487, "salesPercentile": 39.0}, {"sangwonCode": 3120108, "sangwonName": "신정네거리역", "gu": "양천구", "lat": 37.52184641197067, "lon": 126.8526352486175, "survivalProbability": 0.6752, "monthlyEstimateKRW": 150453791, "salesPercentile": 76.8}, {"sangwonCode": 3120057, "sangwonName": "아차산역", "gu": "광진구", "lat": 37.55425222476908, "lon": 127.08697232874627, "survivalProbability": 0.6752, "monthlyEstimateKRW": 183927937, "salesPercentile": 79.3}, {"sangwonCode": 3120104, "sangwonName": "연남동(홍대)", "gu": "마포구", "lat": 37.56007023507463, "lon": 126.9224714657634, "survivalProbability": 0.6752, "monthlyEstimateKRW": 364997588, "salesPercentile": 93.9}, {"sangwonCode": 3110502, "sangwonName": "남가좌파출소", "gu": "서대문구", "lat": 37.57596396317863, "lon": 126.92272668132662, "survivalProbability": 0.6752, "monthlyEstimateKRW": 73629878, "salesPercentile": 23.2}, {"sangwonCode": 3120096, "sangwonName": "이화여대(이대역, 이대)", "gu": "서대문구", "lat": 37.558423971816815, "lon": 126.94274332269038, "survivalProbability": 0.6752, "monthlyEstimateKRW": 202627876, "salesPercentile": 81.7}, {"sangwonCode": 3120093, "sangwonName": "연희동", "gu": "서대문구", "lat": 37.56685943536896, "lon": 126.92999160464343, "survivalProbability": 0.6752, "monthlyEstimateKRW": 96846833, "salesPercentile": 53.7}, {"sangwonCode": 3110867, "sangwonName": "국제신학대학원대학교(남서울중학교)", "gu": "관악구", "lat": 37.48223349725715, "lon": 126.92382957139145, "survivalProbability": 0.6752, "monthlyEstimateKRW": 62964175, "salesPercentile": 7.3}, {"sangwonCode": 3110541, "sangwonName": "동교초등학교", "gu": "마포구", "lat": 37.55783805697095, "lon": 126.9013889146536, "survivalProbability": 0.6752, "monthlyEstimateKRW": 89555113, "salesPercentile": 42.7}, {"sangwonCode": 3130290, "sangwonName": "영림시장", "gu": "관악구", "lat": 37.48167670609929, "lon": 126.94308459174644, "survivalProbability": 0.6752, "monthlyEstimateKRW": 130842000, "salesPercentile": 70.7}, {"sangwonCode": 3110010, "sangwonName": "평창동서측", "gu": "종로구", "lat": 37.60936632114107, "lon": 126.96674832970702, "survivalProbability": 0.6752, "monthlyEstimateKRW": 84597066, "salesPercentile": 37.8}, {"sangwonCode": 3110544, "sangwonName": "망리단길", "gu": "마포구", "lat": 37.5549489373919, "lon": 126.90515005082226, "survivalProbability": 0.6752, "monthlyEstimateKRW": 94957082, "salesPercentile": 51.2}, {"sangwonCode": 3120067, "sangwonName": "장안동사거리", "gu": "동대문구", "lat": 37.571931154399905, "lon": 127.07148472007246, "survivalProbability": 0.6752, "monthlyEstimateKRW": 149484389, "salesPercentile": 75.6}, {"sangwonCode": 3120081, "sangwonName": "노원역", "gu": "노원구", "lat": 37.65546707370536, "lon": 127.06218142111479, "survivalProbability": 0.6752, "monthlyEstimateKRW": 312650636, "salesPercentile": 92.7}, {"sangwonCode": 3081591, "sangwonName": null, "gu": null, "lat": null, "lon": null, "survivalProbability": 0.6752, "monthlyEstimateKRW": 872615134, "salesPercentile": 97.6}, {"sangwonCode": 3120076, "sangwonName": "수유역", "gu": "강북구", "lat": 37.63775846565519, "lon": 127.0249935589031, "survivalProbability": 0.6752, "monthlyEstimateKRW": 123613692, "salesPercentile": 64.6}, {"sangwonCode": 3120072, "sangwonName": "성신여대", "gu": "성북구", "lat": 37.59236801480705, "lon": 127.01749391828598, "survivalProbability": 0.6752, "monthlyEstimateKRW": 124455326, "salesPercentile": 65.9}, {"sangwonCode": 3110564, "sangwonName": "홍대입구역 3번", "gu": "마포구", "lat": 37.55992809983832, "lon": 126.92561802009868, "survivalProbability": 0.6752, "monthlyEstimateKRW": 82824266, "salesPercentile": 32.9}]}